timestamp,roll,pitch,thrust,yaw,aux1,aux2,aux3,aux4
1691753488121425,1500,1500,1000,1500,1000,0,0,0
1691753488131481,1500,1500,1000,1500,1000,0,0,0
1691753488141412,1500,1500,1000,1500,1000,0,0,0
1691753488151414,1500,1500,1000,1500,1000,0,0,0
1691753488161439,1500,1500,1000,1500,1000,0,0,0
1691753488171496,1500,1500,1000,1500,1000,0,0,0
1691753488181513,1500,1500,1000,1500,1000,0,0,0
1691753488193417,1495,1527,1252,1474,1000,0,0,0
1691753488197147,1494,1530,1278,1472,1000,0,0,0
1691753488201101,1494,1530,1280,1471,1000,0,0,0
1691753488205158,1494,1530,1281,1471,1000,0,0,0
1691753488208864,1494,1530,1281,1471,1000,0,0,0
1691753488211495,1494,1530,1281,1471,1000,0,0,0
1691753488215619,1494,1530,1282,1471,1000,0,0,0
1691753488224179,1494,1530,1283,1471,1000,0,0,0
1691753488224406,1494,1530,1283,1471,1000,0,0,0
1691753488225902,1494,1530,1284,1471,1000,0,0,0
1691753488230226,1494,1530,1283,1471,1000,0,0,0
1691753488234151,1494,1530,1284,1472,1000,0,0,0
1691753488241071,1494,1530,1284,1472,1000,0,0,0
1691753488241265,1494,1530,1284,1472,1000,0,0,0
1691753488244384,1493,1530,1284,1473,1000,0,0,0
1691753488248349,1493,1529,1284,1473,1000,0,0,0
1691753488252193,1494,1528,1286,1474,1000,0,0,0
1691753488256220,1488,1519,1291,1475,1000,0,0,0
1691753488258831,1489,1518,1289,1476,1000,0,0,0
1691753488262493,1491,1521,1284,1477,1000,0,0,0
1691753488266276,1492,1521,1282,1478,1000,0,0,0
1691753488270361,1492,1521,1286,1480,1000,0,0,0
1691753488274224,1490,1512,1285,1481,1000,0,0,0
1691753488278227,1491,1513,1274,1482,1000,0,0,0
1691753488280588,1493,1513,1271,1483,1000,0,0,0
1691753488284241,1494,1511,1270,1484,1000,0,0,0
1691753488288852,1491,1514,1281,1485,1000,0,0,0
1691753488292168,1488,1508,1287,1487,1000,0,0,0
1691753488296407,1490,1504,1285,1488,1000,0,0,0
1691753488299349,1491,1500,1282,1489,1000,0,0,0
1691753488302665,1486,1500,1273,1490,1000,0,0,0
1691753488306734,1484,1498,1269,1491,1000,0,0,0
1691753488310757,1490,1491,1265,1492,1000,0,0,0
1691753488315283,1494,1486,1259,1492,1000,0,0,0
1691753488323206,1496,1485,1257,1493,1000,0,0,0
1691753488323512,1498,1487,1252,1493,1000,0,0,0
1691753488325366,1496,1489,1247,1494,1000,0,0,0
1691753488328207,1497,1484,1251,1495,1000,0,0,0
1691753488331896,1499,1480,1251,1495,1000,0,0,0
1691753488336317,1499,1480,1248,1495,1000,0,0,0
1691753488338980,1507,1475,1242,1496,1000,0,0,0
1691753488342828,1506,1477,1240,1496,1000,0,0,0
1691753488346353,1507,1477,1243,1496,1000,0,0,0
1691753488350319,1502,1487,1241,1497,1000,0,0,0
1691753488354603,1503,1470,1248,1497,1000,0,0,0
1691753488357208,1501,1458,1255,1498,1000,0,0,0
1691753488360849,1508,1466,1244,1498,1000,0,0,0
1691753488366525,1511,1468,1237,1498,1000,0,0,0
1691753488368125,1513,1470,1237,1498,1000,0,0,0
1691753488371766,1504,1465,1250,1499,1000,0,0,0
1691753488375342,1501,1464,1247,1499,1000,0,0,0
1691753488379513,1502,1464,1246,1499,1000,0,0,0
1691753488383788,1505,1464,1244,1499,1000,0,0,0
1691753488389039,1508,1466,1241,1499,1000,0,0,0
1691753488389886,1505,1473,1241,1499,1000,0,0,0
1691753488393903,1508,1478,1240,1500,1000,0,0,0
1691753488397134,1510,1473,1243,1500,1000,0,0,0
1691753488401362,1506,1471,1241,1500,1000,0,0,0
1691753488405785,1504,1471,1245,1500,1000,0,0,0
1691753488408239,1508,1465,1243,1500,1000,0,0,0
1691753488411686,1509,1467,1243,1500,1000,0,0,0
1691753488416771,1488,1429,1226,1502,1000,0,0,0
1691753488420523,1498,1449,1234,1500,1000,0,0,0
1691753488423584,1504,1463,1242,1499,1000,0,0,0
1691753488427019,1506,1471,1242,1499,1000,0,0,0
1691753488429707,1508,1478,1243,1499,1000,0,0,0
1691753488433357,1508,1478,1246,1498,1000,0,0,0
1691753488437359,1508,1484,1248,1498,1000,0,0,0
1691753488441176,1508,1494,1239,1498,1000,0,0,0
1691753488444376,1513,1480,1242,1498,1000,0,0,0
1691753488448236,1510,1490,1246,1498,1000,0,0,0
1691753488451641,1508,1496,1250,1498,1000,0,0,0
1691753488455219,1511,1482,1248,1498,1000,0,0,0
1691753488458825,1643,1500,1175,1499,1000,0,0,0
1691753488462510,1582,1530,1202,1502,1000,0,0,0
1691753488466353,1541,1527,1230,1502,1000,0,0,0
1691753488470410,1521,1521,1248,1502,1000,0,0,0
1691753488474375,1516,1513,1251,1502,1000,0,0,0
1691753488476915,1515,1510,1248,1502,1000,0,0,0
1691753488480822,1512,1502,1247,1502,1000,0,0,0
1691753488484271,1506,1508,1251,1502,1000,0,0,0
1691753488489914,1499,1503,1251,1502,1000,0,0,0
1691753488492185,1502,1502,1249,1502,1000,0,0,0
1691753488496201,1504,1503,1247,1502,1000,0,0,0
1691753488498840,1498,1506,1251,1502,1000,0,0,0
1691753488502945,1500,1513,1250,1502,1000,0,0,0
1691753488506468,1502,1505,1251,1502,1000,0,0,0
1691753488510392,1498,1506,1255,1502,1000,0,0,0
1691753488513395,1492,1505,1257,1502,1000,0,0,0
1691753488517595,1497,1507,1253,1502,1000,0,0,0
1691753488521254,1496,1510,1251,1502,1000,0,0,0
1691753488526145,1494,1504,1255,1502,1000,0,0,0
1691753488527865,1493,1498,1257,1502,1000,0,0,0
1691753488531645,1492,1499,1258,1501,1000,0,0,0
1691753488535540,1494,1498,1257,1501,1000,0,0,0
1691753488539348,1494,1500,1258,1501,1000,0,0,0
1691753488543322,1494,1500,1258,1501,1000,0,0,0
1691753488546264,1491,1501,1257,1501,1000,0,0,0
1691753488550356,1493,1500,1257,1501,1000,0,0,0
1691753488553614,1497,1498,1258,1501,1000,0,0,0
1691753488557031,1496,1500,1255,1501,1000,0,0,0
1691753488560695,1494,1503,1255,1501,1000,0,0,0
1691753488564349,1492,1503,1254,1501,1000,0,0,0
1691753488568434,1495,1501,1251,1501,1000,0,0,0
1691753488572365,1494,1502,1254,1501,1000,0,0,0
1691753488575234,1487,1502,1262,1501,1000,0,0,0
1691753488579479,1489,1503,1258,1500,1000,0,0,0
1691753488583433,1488,1489,1260,1500,1000,0,0,0
1691753488586215,1496,1489,1259,1500,1000,0,0,0
1691753488590199,1491,1493,1256,1500,1000,0,0,0
1691753488593429,1490,1497,1254,1500,1000,0,0,0
1691753488597666,1491,1497,1253,1500,1000,0,0,0
1691753488603383,1494,1497,1251,1499,1000,0,0,0
1691753488604310,1498,1494,1249,1499,1000,0,0,0
1691753488608288,1449,1474,1277,1499,1000,0,0,0
1691753488611806,1457,1484,1279,1497,1000,0,0,0
1691753488615317,1499,1512,1256,1497,1000,0,0,0
1691753488619484,1533,1493,1226,1496,1000,0,0,0
1691753488622932,1526,1502,1233,1497,1000,0,0,0
1691753488626756,1519,1504,1237,1497,1000,0,0,0
1691753488632220,1516,1502,1242,1497,1000,0,0,0
1691753488634103,1510,1500,1245,1497,1000,0,0,0
1691753488637245,1500,1506,1255,1497,1000,0,0,0
1691753488640853,1502,1492,1252,1497,1000,0,0,0
1691753488644422,1457,1471,1273,1497,1000,0,0,0
1691753488648555,1492,1504,1264,1496,1000,0,0,0
1691753488652655,1521,1496,1234,1496,1000,0,0,0
1691753488655256,1527,1497,1230,1496,1000,0,0,0
1691753488659541,1522,1502,1237,1496,1000,0,0,0
1691753488662543,1470,1480,1273,1497,1000,0,0,0
1691753488666537,1473,1480,1278,1496,1000,0,0,0
1691753488670796,1482,1485,1275,1496,1000,0,0,0
1691753488674325,1490,1489,1268,1495,1000,0,0,0
1691753488676852,1494,1485,1262,1495,1000,0,0,0
1691753488680793,1500,1487,1258,1495,1000,0,0,0
1691753488684374,1501,1482,1257,1495,1000,0,0,0
1691753488688558,1505,1486,1257,1495,1000,0,0,0
1691753488691521,1506,1491,1255,1495,1000,0,0,0
1691753488695339,1505,1492,1255,1495,1000,0,0,0
1691753488701170,1512,1485,1252,1495,1000,0,0,0
1691753488702603,1677,1521,1168,1500,1000,0,0,0
1691753488706707,1521,1501,1256,1496,1000,0,0,0
1691753488710697,1549,1510,1233,1497,1000,0,0,0
1691753488714361,1531,1514,1246,1498,1000,0,0,0
1691753488717669,1525,1499,1254,1498,1000,0,0,0
1691753488725735,1520,1505,1246,1498,1000,0,0,0
1691753488725927,1523,1500,1242,1499,1000,0,0,0
1691753488729282,1514,1499,1248,1499,1000,0,0,0
1691753488731843,1509,1499,1247,1500,1000,0,0,0
1691753488735260,1507,1494,1251,1500,1000,0,0,0
1691753488738843,1505,1505,1246,1500,1000,0,0,0
1691753488742549,1505,1496,1248,1500,1000,0,0,0
1691753488746864,1504,1499,1250,1500,1000,0,0,0
1691753488750612,1501,1498,1248,1500,1000,0,0,0
1691753488756838,1499,1499,1250,1500,1000,0,0,0
1691753488757152,1496,1502,1252,1501,1000,0,0,0
1691753488761140,1496,1504,1251,1501,1000,0,0,0
1691753488764628,1497,1500,1254,1501,1000,0,0,0
1691753488768808,1496,1500,1252,1501,1000,0,0,0
1691753488772404,1493,1505,1251,1501,1000,0,0,0
1691753488775220,1446,1483,1277,1500,1000,0,0,0
1691753488778996,1467,1487,1278,1500,1000,0,0,0
1691753488782739,1464,1492,1278,1499,1000,0,0,0
1691753488786357,1471,1494,1274,1499,1000,0,0,0
1691753488790702,1476,1494,1267,1498,1000,0,0,0
1691753488793442,1482,1495,1265,1498,1000,0,0,0
1691753488797217,1485,1496,1263,1498,1000,0,0,0
1691753488801650,1492,1493,1258,1497,1000,0,0,0
1691753488804911,1493,1495,1257,1497,1000,0,0,0
1691753488808248,1497,1496,1258,1497,1000,0,0,0
1691753488811768,1503,1498,1252,1497,1000,0,0,0
1691753488815808,1503,1503,1253,1497,1000,0,0,0
1691753488819670,1503,1501,1255,1497,1000,0,0,0
1691753488823700,1510,1494,1254,1496,1000,0,0,0
1691753488826103,1511,1500,1250,1497,1000,0,0,0
1691753488830540,1509,1503,1251,1497,1000,0,0,0
1691753488833677,1509,1499,1256,1497,1000,0,0,0
1691753488837732,1509,1500,1256,1496,1000,0,0,0
1691753488840784,1511,1499,1254,1497,1000,0,0,0
1691753488844274,1514,1497,1253,1496,1000,0,0,0
1691753488848334,1667,1556,1171,1508,1000,0,0,0
1691753488852229,1568,1530,1225,1500,1000,0,0,0
1691753488855255,1534,1521,1248,1499,1000,0,0,0
1691753488858799,1521,1515,1255,1499,1000,0,0,0
1691753488862749,1515,1511,1259,1500,1000,0,0,0
1691753488866816,1519,1506,1247,1500,1000,0,0,0
1691753488872683,1501,1516,1267,1500,1000,0,0,0
1691753488873306,1512,1495,1250,1500,1000,0,0,0
1691753488876984,1513,1506,1237,1501,1000,0,0,0
1691753488880857,1510,1506,1246,1501,1000,0,0,0
1691753488884718,1503,1503,1245,1501,1000,0,0,0
1691753488888734,1504,1498,1248,1501,1000,0,0,0
1691753488892363,1500,1500,1247,1502,1000,0,0,0
1691753488896268,1498,1497,1250,1502,1000,0,0,0
1691753488902330,1499,1497,1251,1502,1000,0,0,0
1691753488902854,1497,1501,1255,1502,1000,0,0,0
1691753488908487,1495,1502,1252,1502,1000,0,0,0
1691753488910150,1493,1502,1252,1502,1000,0,0,0
1691753488913881,1495,1501,1246,1502,1000,0,0,0
1691753488919541,1496,1505,1246,1502,1000,0,0,0
1691753488923228,1497,1505,1247,1502,1000,0,0,0
1691753488924186,1497,1505,1249,1502,1000,0,0,0
1691753488928219,1492,1508,1251,1502,1000,0,0,0
1691753488932784,1470,1507,1272,1501,1000,0,0,0
1691753488937378,1469,1498,1274,1501,1000,0,0,0
1691753488939769,1472,1498,1269,1500,1000,0,0,0
1691753488942494,1477,1492,1262,1500,1000,0,0,0
1691753488946844,1481,1493,1263,1500,1000,0,0,0
1691753488949836,1487,1493,1260,1499,1000,0,0,0
1691753488954290,1488,1497,1258,1499,1000,0,0,0
1691753488957782,1490,1499,1255,1499,1000,0,0,0
1691753488961620,1493,1500,1253,1499,1000,0,0,0
1691753488964317,1567,1508,1205,1499,1000,0,0,0
1691753488968164,1529,1519,1233,1499,1000,0,0,0
1691753488971873,1516,1515,1243,1499,1000,0,0,0
1691753488975699,1509,1511,1253,1499,1000,0,0,0
1691753488979792,1505,1507,1256,1499,1000,0,0,0
1691753488982470,1492,1503,1268,1498,1000,0,0,0
1691753488986217,1502,1501,1253,1498,1000,0,0,0
1691753488989986,1503,1500,1257,1498,1000,0,0,0
1691753488994180,1501,1503,1258,1499,1000,0,0,0
1691753488998148,1504,1504,1253,1499,1000,0,0,0
1691753489002036,1501,1504,1259,1499,1000,0,0,0
1691753489006021,1501,1502,1259,1499,1000,0,0,0
1691753489008230,1502,1501,1255,1499,1000,0,0,0
1691753489011828,1496,1498,1267,1499,1000,0,0,0
1691753489015912,1500,1504,1258,1499,1000,0,0,0
1691753489021267,1498,1503,1262,1499,1000,0,0,0
1691753489022546,1505,1503,1256,1499,1000,0,0,0
1691753489026245,1501,1510,1265,1499,1000,0,0,0
1691753489029987,1502,1504,1254,1499,1000,0,0,0
1691753489035097,1502,1501,1255,1499,1000,0,0,0
1691753489038289,1500,1499,1261,1499,1000,0,0,0
1691753489041617,1487,1494,1270,1499,1000,0,0,0
1691753489044297,1488,1493,1270,1499,1000,0,0,0
1691753489048333,1495,1498,1269,1499,1000,0,0,0
1691753489051847,1518,1506,1249,1499,1000,0,0,0
1691753489057848,1500,1502,1264,1499,1000,0,0,0
1691753489059805,1498,1504,1266,1499,1000,0,0,0
1691753489062477,1492,1498,1270,1499,1000,0,0,0
1691753489066134,1509,1506,1258,1499,1000,0,0,0
1691753489070277,1523,1507,1245,1499,1000,0,0,0
1691753489074184,1494,1499,1267,1499,1000,0,0,0
1691753489078290,1491,1495,1268,1498,1000,0,0,0
1691753489080744,1509,1491,1258,1498,1000,0,0,0
1691753489084828,1514,1491,1258,1498,1000,0,0,0
1691753489089059,1516,1498,1257,1498,1000,0,0,0
1691753489091585,1514,1502,1257,1498,1000,0,0,0
1691753489095409,1509,1505,1258,1499,1000,0,0,0
1691753489098938,1520,1508,1247,1499,1000,0,0,0
1691753489103003,1497,1497,1265,1498,1000,0,0,0
1691753489106956,1495,1497,1267,1498,1000,0,0,0
1691753489110579,1514,1499,1256,1498,1000,0,0,0
1691753489113438,1519,1499,1255,1498,1000,0,0,0
1691753489117037,1517,1502,1256,1498,1000,0,0,0
1691753489121316,1503,1502,1263,1498,1000,0,0,0
1691753489124909,1504,1502,1264,1498,1000,0,0,0
1691753489127882,1505,1498,1261,1498,1000,0,0,0
1691753489132247,1532,1501,1242,1499,1000,0,0,0
1691753489136218,1531,1503,1243,1499,1000,0,0,0
1691753489139738,1523,1504,1252,1499,1000,0,0,0
1691753489142528,1519,1510,1253,1499,1000,0,0,0
1691753489146310,1514,1509,1258,1499,1000,0,0,0
1691753489149974,1496,1502,1275,1499,1000,0,0,0
1691753489153915,1495,1498,1275,1499,1000,0,0,0
1691753489157886,1491,1495,1269,1499,1000,0,0,0
1691753489160595,1493,1492,1267,1499,1000,0,0,0
1691753489164287,1502,1496,1266,1499,1000,0,0,0
1691753489168251,1517,1500,1251,1499,1000,0,0,0
1691753489171934,1540,1504,1233,1500,1000,0,0,0
1691753489176734,1512,1501,1264,1499,1000,0,0,0
1691753489179769,1518,1499,1257,1499,1000,0,0,0
1691753489182592,1519,1508,1250,1500,1000,0,0,0
1691753489187759,1518,1509,1253,1500,1000,0,0,0
1691753489193586,1513,1507,1262,1500,1000,0,0,0
1691753489193819,1505,1514,1270,1500,1000,0,0,0
1691753489198403,1508,1503,1257,1500,1000,0,0,0
1691753489200897,1511,1499,1256,1500,1000,0,0,0
1691753489206218,1510,1504,1259,1500,1000,0,0,0
1691753489208343,1506,1503,1264,1500,1000,0,0,0
1691753489215409,1503,1500,1264,1500,1000,0,0,0
1691753489216003,1507,1507,1258,1500,1000,0,0,0
1691753489219722,1492,1504,1274,1500,1000,0,0,0
1691753489222608,1505,1502,1261,1500,1000,0,0,0
1691753489226156,1503,1506,1264,1500,1000,0,0,0
1691753489230185,1502,1501,1264,1500,1000,0,0,0
1691753489234146,1484,1496,1277,1499,1000,0,0,0
1691753489237860,1484,1495,1277,1499,1000,0,0,0
1691753489240781,1495,1497,1268,1499,1000,0,0,0
1691753489244608,1518,1501,1243,1499,1000,0,0,0
1691753489248921,1508,1505,1251,1500,1000,0,0,0
1691753489252246,1490,1499,1276,1499,1000,0,0,0
1691753489256221,1496,1496,1269,1499,1000,0,0,0
1691753489260467,1501,1501,1259,1499,1000,0,0,0
1691753489263087,1504,1505,1255,1499,1000,0,0,0
1691753489267013,1490,1501,1277,1499,1000,0,0,0
1691753489270389,1489,1498,1279,1499,1000,0,0,0
1691753489273778,1482,1499,1279,1499,1000,0,0,0
1691753489277038,1496,1505,1266,1499,1000,0,0,0
1691753489281118,1510,1503,1251,1499,1000,0,0,0
1691753489284977,1503,1498,1255,1499,1000,0,0,0
1691753489288918,1501,1500,1258,1499,1000,0,0,0
1691753489291641,1486,1499,1275,1499,1000,0,0,0
1691753489295167,1499,1499,1263,1499,1000,0,0,0
1691753489299079,1496,1503,1266,1499,1000,0,0,0
1691753489303133,1488,1501,1274,1499,1000,0,0,0
1691753489306039,1480,1492,1277,1499,1000,0,0,0
1691753489310155,1478,1491,1273,1499,1000,0,0,0
1691753489314049,1478,1490,1270,1499,1000,0,0,0
1691753489319579,1496,1502,1258,1499,1000,0,0,0
1691753489320242,1513,1498,1243,1499,1000,0,0,0
1691753489324383,1509,1503,1257,1499,1000,0,0,0
1691753489331811,1505,1504,1266,1499,1000,0,0,0
1691753489335787,1505,1502,1262,1499,1000,0,0,0
1691753489336134,1491,1492,1273,1499,1000,0,0,0
1691753489339254,1481,1493,1276,1499,1000,0,0,0
1691753489342754,1480,1494,1274,1499,1000,0,0,0
1691753489346303,1478,1487,1270,1499,1000,0,0,0
1691753489350403,1486,1492,1267,1499,1000,0,0,0
1691753489354285,1490,1495,1264,1499,1000,0,0,0
1691753489358217,1522,1505,1235,1499,1000,0,0,0
1691753489360540,1502,1507,1263,1499,1000,0,0,0
1691753489364300,1490,1500,1275,1499,1000,0,0,0
1691753489372218,1498,1504,1263,1499,1000,0,0,0
1691753489372397,1497,1501,1264,1499,1000,0,0,0
1691753489378559,1487,1487,1271,1498,1000,0,0,0
1691753489379929,1486,1488,1271,1498,1000,0,0,0
1691753489382547,1481,1488,1270,1498,1000,0,0,0
1691753489386162,1490,1491,1268,1498,1000,0,0,0
1691753489390351,1496,1492,1266,1498,1000,0,0,0
1691753489394162,1497,1493,1263,1498,1000,0,0,0
1691753489399555,1494,1496,1262,1498,1000,0,0,0
1691753489400309,1496,1510,1277,1499,1000,0,0,0
1691753489404487,1489,1491,1260,1499,1000,0,0,0
1691753489408331,1513,1503,1247,1499,1000,0,0,0
1691753489412255,1493,1491,1263,1499,1000,0,0,0
1691753489415142,1496,1495,1268,1499,1000,0,0,0
1691753489419274,1498,1495,1263,1499,1000,0,0,0
1691753489423389,1500,1496,1263,1499,1000,0,0,0
1691753489426817,1496,1491,1261,1499,1000,0,0,0
1691753489431252,1501,1494,1261,1499,1000,0,0,0
1691753489433324,1518,1508,1246,1499,1000,0,0,0
1691753489437215,1515,1511,1253,1499,1000,0,0,0
1691753489441553,1509,1507,1258,1499,1000,0,0,0
1691753489450860,1495,1492,1269,1499,1000,0,0,0
1691753489451116,1494,1489,1266,1499,1000,0,0,0
1691753489451272,1487,1488,1267,1499,1000,0,0,0
1691753489455258,1489,1491,1266,1499,1000,0,0,0
1691753489461069,1498,1493,1262,1499,1000,0,0,0
1691753489463317,1500,1499,1259,1499,1000,0,0,0
1691753489466981,1532,1525,1234,1501,1000,0,0,0
1691753489470246,1495,1496,1267,1499,1000,0,0,0
1691753489474381,1487,1491,1272,1499,1000,0,0,0
1691753489476894,1491,1490,1268,1499,1000,0,0,0
1691753489480863,1500,1507,1276,1499,1000,0,0,0
1691753489486509,1495,1486,1257,1499,1000,0,0,0
1691753489488281,1500,1491,1259,1499,1000,0,0,0
1691753489492993,1504,1495,1261,1499,1000,0,0,0
1691753489495256,1505,1497,1262,1499,1000,0,0,0
1691753489498887,1503,1496,1263,1499,1000,0,0,0
1691753489502415,1502,1498,1264,1499,1000,0,0,0
1691753489506215,1503,1497,1264,1499,1000,0,0,0
1691753489509703,1515,1511,1252,1500,1000,0,0,0
1691753489513337,1510,1511,1257,1500,1000,0,0,0
1691753489516922,1495,1496,1271,1500,1000,0,0,0
1691753489521370,1494,1493,1271,1499,1000,0,0,0
1691753489525369,1488,1489,1271,1500,1000,0,0,0
1691753489528210,1494,1495,1267,1499,1000,0,0,0
1691753489531639,1499,1492,1266,1499,1000,0,0,0
1691753489535119,1499,1496,1266,1499,1000,0,0,0
1691753489538801,1516,1507,1254,1500,1000,0,0,0
1691753489542835,1501,1508,1279,1500,1000,0,0,0
1691753489547466,1494,1488,1267,1499,1000,0,0,0
1691753489549751,1495,1490,1266,1499,1000,0,0,0
1691753489554294,1494,1493,1268,1499,1000,0,0,0
1691753489557804,1494,1495,1267,1499,1000,0,0,0
1691753489561467,1488,1496,1270,1499,1000,0,0,0
1691753489567329,1492,1495,1269,1499,1000,0,0,0
1691753489567833,1499,1492,1265,1499,1000,0,0,0
1691753489571683,1509,1517,1265,1500,1000,0,0,0
1691753489575240,1513,1510,1252,1500,1000,0,0,0
1691753489579620,1495,1493,1266,1499,1000,0,0,0
1691753489583095,1494,1490,1268,1499,1000,0,0,0
1691753489588579,1495,1504,1280,1500,1000,0,0,0
1691753489589712,1485,1489,1261,1499,1000,0,0,0
1691753489593218,1517,1497,1240,1499,1000,0,0,0
1691753489600482,1497,1494,1266,1499,1000,0,0,0
1691753489601197,1491,1491,1273,1499,1000,0,0,0
1691753489606233,1490,1492,1270,1499,1000,0,0,0
1691753489614339,1500,1512,1271,1500,1000,0,0,0
1691753489614534,1504,1507,1257,1500,1000,0,0,0
1691753489616661,1499,1502,1263,1500,1000,0,0,0
1691753489618759,1481,1481,1270,1500,1000,0,0,0
1691753489622458,1489,1486,1271,1499,1000,0,0,0
1691753489628366,1492,1492,1271,1499,1000,0,0,0
1691753489630684,1495,1492,1267,1499,1000,0,0,0
1691753489633485,1497,1498,1264,1499,1000,0,0,0
1691753489637245,1498,1496,1266,1499,1000,0,0,0
1691753489640735,1499,1508,1277,1499,1000,0,0,0
1691753489644532,1496,1507,1275,1499,1000,0,0,0
1691753489651183,1505,1501,1245,1499,1000,0,0,0
1691753489651837,1490,1487,1264,1499,1000,0,0,0
1691753489655202,1492,1485,1267,1499,1000,0,0,0
1691753489659340,1494,1497,1262,1499,1000,0,0,0
1691753489662457,1490,1497,1269,1499,1000,0,0,0
1691753489666024,1493,1496,1268,1499,1000,0,0,0
1691753489669817,1515,1508,1251,1499,1000,0,0,0
1691753489673522,1505,1503,1260,1499,1000,0,0,0
1691753489677073,1495,1498,1270,1499,1000,0,0,0
1691753489680736,1495,1496,1266,1499,1000,0,0,0
1691753489684799,1494,1498,1265,1499,1000,0,0,0
1691753489691775,1487,1500,1265,1499,1000,0,0,0
1691753489692434,1506,1509,1255,1499,1000,0,0,0
1691753489695292,1497,1497,1266,1499,1000,0,0,0
1691753489698900,1495,1498,1264,1499,1000,0,0,0
1691753489708880,1494,1498,1265,1499,1000,0,0,0
1691753489709343,1498,1499,1265,1499,1000,0,0,0
1691753489709899,1497,1501,1262,1499,1000,0,0,0
1691753489715639,1496,1503,1263,1499,1000,0,0,0
1691753489717188,1491,1500,1267,1499,1000,0,0,0
1691753489721692,1493,1497,1265,1499,1000,0,0,0
1691753489724428,1500,1503,1262,1499,1000,0,0,0
1691753489728589,1522,1514,1247,1499,1000,0,0,0
1691753489732411,1510,1521,1267,1499,1000,0,0,0
1691753489735563,1494,1499,1263,1499,1000,0,0,0
1691753489740495,1494,1509,1277,1499,1000,0,0,0
1691753489742456,1497,1508,1271,1499,1000,0,0,0
1691753489746898,1497,1488,1250,1499,1000,0,0,0
1691753489750489,1503,1509,1262,1499,1000,0,0,0
1691753489754323,1497,1492,1252,1499,1000,0,0,0
1691753489757107,1504,1513,1264,1499,1000,0,0,0
1691753489760665,1498,1508,1272,1499,1000,0,0,0
1691753489764596,1497,1505,1269,1499,1000,0,0,0
1691753489771152,1498,1505,1265,1499,1000,0,0,0
1691753489775555,1505,1509,1253,1500,1000,0,0,0
1691753489778910,1495,1485,1253,1500,1000,0,0,0
1691753489782387,1512,1496,1249,1500,1000,0,0,0
1691753489786572,1510,1511,1263,1500,1000,0,0,0
1691753489790559,1504,1516,1266,1500,1000,0,0,0
1691753489794196,1502,1511,1269,1500,1000,0,0,0
1691753489796979,1501,1497,1268,1500,1000,0,0,0
1691753489800673,1505,1503,1256,1500,1000,0,0,0
1691753489804511,1498,1500,1263,1500,1000,0,0,0
1691753489808589,1499,1500,1264,1500,1000,0,0,0
1691753489811411,1497,1499,1267,1500,1000,0,0,0
1691753489815571,1495,1503,1267,1500,1000,0,0,0
1691753489822053,1492,1477,1249,1500,1000,0,0,0
1691753489823300,1507,1509,1261,1500,1000,0,0,0
1691753489825916,1501,1507,1270,1500,1000,0,0,0
1691753489829883,1502,1503,1267,1500,1000,0,0,0
1691753489833640,1502,1486,1246,1500,1000,0,0,0
1691753489837832,1511,1516,1257,1500,1000,0,0,0
1691753489841662,1496,1491,1258,1500,1000,0,0,0
1691753489844217,1506,1511,1266,1500,1000,0,0,0
1691753489848316,1502,1507,1270,1500,1000,0,0,0
1691753489851533,1502,1505,1266,1500,1000,0,0,0
1691753489855668,1505,1513,1258,1500,1000,0,0,0
1691753489859009,1500,1510,1263,1500,1000,0,0,0
1691753489862519,1495,1501,1270,1500,1000,0,0,0
1691753489866008,1498,1497,1268,1500,1000,0,0,0
1691753489870051,1501,1497,1263,1500,1000,0,0,0
1691753489873749,1502,1501,1261,1500,1000,0,0,0
1691753489877684,1493,1486,1255,1500,1000,0,0,0
1691753489881723,1498,1504,1269,1500,1000,0,0,0
1691753489889152,1509,1511,1257,1500,1000,0,0,0
1691753489889356,1502,1504,1267,1500,1000,0,0,0
1691753489891680,1501,1503,1269,1500,1000,0,0,0
1691753489895850,1504,1503,1263,1500,1000,0,0,0
1691753489899667,1510,1510,1252,1500,1000,0,0,0
1691753489903466,1509,1510,1257,1500,1000,0,0,0
1691753489906197,1500,1509,1265,1500,1000,0,0,0
1691753489909815,1500,1505,1260,1500,1000,0,0,0
1691753489918510,1499,1502,1266,1500,1000,0,0,0
1691753489918770,1498,1500,1265,1500,1000,0,0,0
1691753489920575,1498,1499,1264,1500,1000,0,0,0
1691753489924703,1498,1496,1264,1500,1000,0,0,0
1691753489928744,1499,1498,1266,1500,1000,0,0,0
1691753489932413,1504,1506,1257,1500,1000,0,0,0
1691753489935485,1503,1509,1260,1500,1000,0,0,0
1691753489939881,1500,1499,1266,1500,1000,0,0,0
1691753489943003,1500,1499,1267,1500,1000,0,0,0
1691753489948331,1509,1505,1257,1500,1000,0,0,0
1691753489950947,1506,1507,1256,1500,1000,0,0,0
1691753489953393,1506,1506,1257,1500,1000,0,0,0
1691753489957211,1503,1510,1260,1500,1000,0,0,0
1691753489960735,1494,1498,1271,1500,1000,0,0,0
1691753489964777,1494,1497,1269,1500,1000,0,0,0
1691753489968806,1498,1492,1263,1500,1000,0,0,0
1691753489972466,1506,1503,1255,1500,1000,0,0,0
1691753489975115,1505,1507,1256,1500,1000,0,0,0
1691753489978929,1499,1502,1267,1500,1000,0,0,0
1691753489982832,1498,1497,1268,1500,1000,0,0,0
1691753489986768,1503,1503,1258,1500,1000,0,0,0
1691753489990757,1500,1503,1263,1500,1000,0,0,0
1691753489993186,1501,1507,1263,1500,1000,0,0,0
1691753489997163,1496,1492,1268,1500,1000,0,0,0
1691753490000751,1499,1494,1264,1500,1000,0,0,0
1691753490004827,1499,1496,1261,1500,1000,0,0,0
1691753490008774,1506,1504,1253,1500,1000,0,0,0
1691753490012556,1500,1504,1261,1500,1000,0,0,0
1691753490015199,1497,1504,1261,1500,1000,0,0,0
1691753490019724,1495,1494,1268,1500,1000,0,0,0
1691753490024329,1504,1498,1257,1500,1000,0,0,0
1691753490026659,1499,1494,1263,1500,1000,0,0,0
1691753490030234,1503,1503,1255,1500,1000,0,0,0
1691753490033805,1503,1507,1258,1500,1000,0,0,0
1691753490037916,1497,1501,1265,1500,1000,0,0,0
1691753490040841,1477,1468,1257,1500,1000,0,0,0
1691753490045382,1499,1502,1266,1500,1000,0,0,0
1691753490049227,1506,1507,1264,1500,1000,0,0,0
1691753490052723,1503,1505,1262,1500,1000,0,0,0
1691753490055148,1503,1503,1260,1500,1000,0,0,0
1691753490059039,1499,1495,1266,1500,1000,0,0,0
1691753490063009,1504,1500,1257,1500,1000,0,0,0
1691753490067203,1502,1501,1259,1500,1000,0,0,0
1691753490069694,1500,1502,1258,1500,1000,0,0,0
1691753490073868,1498,1504,1263,1500,1000,0,0,0
1691753490077743,1496,1498,1263,1500,1000,0,0,0
1691753490081472,1498,1497,1259,1500,1000,0,0,0
1691753490084242,1500,1497,1261,1500,1000,0,0,0
1691753490088336,1499,1498,1263,1500,1000,0,0,0
1691753490091782,1496,1497,1265,1500,1000,0,0,0
1691753490095979,1497,1498,1266,1500,1000,0,0,0
1691753490099798,1498,1498,1264,1500,1000,0,0,0
1691753490102240,1497,1498,1262,1500,1000,0,0,0
1691753490106237,1494,1491,1267,1500,1000,0,0,0
1691753490109767,1503,1497,1257,1500,1000,0,0,0
1691753490114001,1503,1501,1258,1500,1000,0,0,0
1691753490118182,1501,1508,1257,1500,1000,0,0,0
1691753490121588,1497,1499,1264,1500,1000,0,0,0
1691753490124626,1493,1492,1271,1500,1000,0,0,0
1691753490128217,1498,1495,1258,1500,1000,0,0,0
1691753490131895,1501,1496,1258,1500,1000,0,0,0
1691753490135881,1504,1498,1258,1500,1000,0,0,0
1691753490138799,1502,1500,1259,1500,1000,0,0,0
1691753490142826,1496,1500,1265,1500,1000,0,0,0
1691753490146890,1491,1494,1271,1500,1000,0,0,0
1691753490150727,1497,1499,1257,1500,1000,0,0,0
1691753490153648,1503,1501,1256,1500,1000,0,0,0
1691753490158118,1501,1499,1259,1500,1000,0,0,0
1691753490161184,1501,1497,1258,1500,1000,0,0,0
1691753490164561,1496,1492,1265,1499,1000,0,0,0
1691753490168168,1497,1498,1261,1500,1000,0,0,0
1691753490171990,1497,1498,1261,1500,1000,0,0,0
1691753490175859,1499,1498,1258,1500,1000,0,0,0
1691753490178859,1501,1498,1254,1500,1000,0,0,0
1691753490182941,1500,1501,1256,1500,1000,0,0,0
1691753490186854,1501,1504,1254,1500,1000,0,0,0
1691753490190821,1498,1502,1261,1500,1000,0,0,0
1691753490193323,1497,1498,1263,1499,1000,0,0,0
1691753490197103,1496,1497,1261,1499,1000,0,0,0
1691753490200857,1497,1495,1258,1499,1000,0,0,0
1691753490204289,1501,1495,1257,1499,1000,0,0,0
1691753490208950,1501,1499,1258,1499,1000,0,0,0
1691753490211560,1499,1499,1255,1499,1000,0,0,0
1691753490216542,1497,1497,1262,1499,1000,0,0,0
1691753490221827,1498,1498,1263,1499,1000,0,0,0
1691753490223402,1495,1499,1259,1499,1000,0,0,0
1691753490227042,1498,1502,1256,1499,1000,0,0,0
1691753490230712,1500,1500,1255,1499,1000,0,0,0
1691753490235231,1501,1496,1257,1499,1000,0,0,0
1691753490238317,1501,1497,1255,1499,1000,0,0,0
1691753490240970,1499,1498,1256,1499,1000,0,0,0
1691753490246329,1497,1497,1263,1499,1000,0,0,0
1691753490248974,1495,1498,1262,1499,1000,0,0,0
1691753490251345,1498,1496,1258,1499,1000,0,0,0
1691753490255544,1500,1497,1258,1499,1000,0,0,0
1691753490258976,1502,1498,1258,1499,1000,0,0,0
1691753490263591,1500,1501,1258,1499,1000,0,0,0
1691753490266979,1500,1501,1257,1499,1000,0,0,0
1691753490269703,1500,1506,1257,1499,1000,0,0,0
1691753490273398,1497,1499,1263,1499,1000,0,0,0
1691753490277087,1496,1497,1260,1499,1000,0,0,0
1691753490281053,1499,1496,1257,1499,1000,0,0,0
1691753490284986,1502,1496,1256,1499,1000,0,0,0
1691753490288764,1501,1499,1253,1499,1000,0,0,0
1691753490291735,1498,1501,1254,1499,1000,0,0,0
1691753490296032,1497,1499,1261,1499,1000,0,0,0
1691753490298959,1497,1498,1260,1499,1000,0,0,0
1691753490303077,1499,1496,1258,1499,1000,0,0,0
1691753490307100,1500,1502,1256,1499,1000,0,0,0
1691753490309581,1503,1504,1255,1499,1000,0,0,0
1691753490313432,1501,1501,1258,1499,1000,0,0,0
1691753490317090,1500,1500,1257,1499,1000,0,0,0
1691753490321158,1498,1498,1260,1499,1000,0,0,0
1691753490325100,1498,1498,1261,1499,1000,0,0,0
1691753490329300,1498,1499,1259,1499,1000,0,0,0
1691753490331994,1499,1497,1255,1499,1000,0,0,0
1691753490336051,1501,1502,1255,1499,1000,0,0,0
1691753490339903,1501,1501,1255,1499,1000,0,0,0
1691753490342786,1500,1501,1255,1499,1000,0,0,0
1691753490346299,1498,1500,1260,1499,1000,0,0,0
1691753490350203,1499,1500,1261,1499,1000,0,0,0
1691753490354478,1497,1505,1258,1499,1000,0,0,0
1691753490357229,1500,1503,1255,1499,1000,0,0,0
1691753490360720,1502,1498,1258,1499,1000,0,0,0
1691753490364649,1503,1501,1257,1499,1000,0,0,0
1691753490368164,1503,1500,1255,1499,1000,0,0,0
1691753490372083,1500,1498,1262,1499,1000,0,0,0
1691753490375963,1499,1499,1262,1499,1000,0,0,0
1691753490378930,1498,1500,1257,1499,1000,0,0,0
1691753490382542,1501,1499,1257,1499,1000,0,0,0
1691753490386051,1503,1501,1255,1499,1000,0,0,0
1691753490390227,1503,1503,1254,1499,1000,0,0,0
1691753490394225,1501,1503,1256,1499,1000,0,0,0
1691753490398324,1497,1501,1260,1499,1000,0,0,0
1691753490400482,1495,1503,1259,1499,1000,0,0,0
1691753490404255,1501,1503,1258,1499,1000,0,0,0
1691753490408361,1503,1503,1254,1499,1000,0,0,0
1691753490412252,1504,1500,1257,1499,1000,0,0,0
1691753490416238,1504,1500,1257,1499,1000,0,0,0
1691753490421121,1499,1501,1262,1499,1000,0,0,0
1691753490422370,1498,1501,1260,1499,1000,0,0,0
1691753490426079,1498,1501,1260,1499,1000,0,0,0
1691753490430226,1503,1498,1256,1499,1000,0,0,0
1691753490437468,1503,1499,1254,1499,1000,0,0,0
1691753490437907,1502,1504,1255,1499,1000,0,0,0
1691753490440717,1502,1502,1256,1499,1000,0,0,0
1691753490444617,1499,1500,1261,1499,1000,0,0,0
1691753490448621,1496,1501,1259,1499,1000,0,0,0
1691753490452054,1511,1513,1244,1499,1000,0,0,0
1691753490455250,1504,1503,1259,1499,1000,0,0,0
1691753490459421,1501,1499,1260,1499,1000,0,0,0
1691753490463208,1498,1500,1258,1499,1000,0,0,0
1691753490466195,1499,1501,1259,1499,1000,0,0,0
1691753490470348,1498,1499,1263,1499,1000,0,0,0
1691753490474186,1497,1501,1259,1499,1000,0,0,0
1691753490478172,1500,1498,1257,1499,1000,0,0,0
1691753490480584,1504,1499,1258,1499,1000,0,0,0
1691753490484268,1501,1502,1256,1499,1000,0,0,0
1691753490488373,1499,1503,1254,1499,1000,0,0,0
1691753490492162,1499,1499,1261,1499,1000,0,0,0
1691753490495380,1498,1499,1260,1499,1000,0,0,0
1691753490499132,1499,1500,1256,1499,1000,0,0,0
1691753490503198,1500,1504,1256,1499,1000,0,0,0
1691753490506167,1504,1504,1254,1499,1000,0,0,0
1691753490510056,1502,1502,1254,1499,1000,0,0,0
1691753490514540,1508,1511,1248,1499,1000,0,0,0
1691753490517011,1498,1500,1265,1499,1000,0,0,0
1691753490521207,1498,1496,1264,1499,1000,0,0,0
1691753490525291,1497,1497,1261,1499,1000,0,0,0
1691753490527889,1499,1497,1257,1499,1000,0,0,0
1691753490532241,1504,1490,1201,1499,1000,0,0,0
1691753490535910,1503,1493,1196,1499,1000,0,0,0
1691753490538837,1497,1492,1200,1499,1000,0,0,0
1691753490542501,1498,1491,1200,1499,1000,0,0,0
1691753490546379,1501,1490,1197,1499,1000,0,0,0
1691753490550414,1501,1491,1195,1499,1000,0,0,0
1691753490554343,1499,1492,1195,1499,1000,0,0,0
1691753490558285,1503,1492,1198,1499,1000,0,0,0
1691753490560849,1507,1496,1194,1499,1000,0,0,0
1691753490564241,1518,1505,1186,1499,1000,0,0,0
1691753490571894,1505,1494,1205,1499,1000,0,0,0
1691753490572883,1509,1499,1200,1499,1000,0,0,0
1691753490576213,1499,1495,1210,1499,1000,0,0,0
1691753490578988,1497,1490,1211,1499,1000,0,0,0
1691753490582576,1500,1492,1210,1499,1000,0,0,0
1691753490586208,1502,1496,1211,1499,1000,0,0,0
1691753490590194,1499,1493,1215,1499,1000,0,0,0
1691753490593293,1501,1490,1217,1499,1000,0,0,0
1691753490597295,1498,1497,1220,1499,1000,0,0,0
1691753490601398,1498,1494,1222,1499,1000,0,0,0
1691753490605867,1500,1495,1221,1499,1000,0,0,0
1691753490609510,1498,1495,1224,1499,1000,0,0,0
1691753490612916,1497,1497,1228,1499,1000,0,0,0
1691753490616271,1499,1498,1227,1499,1000,0,0,0
1691753490618859,1500,1499,1228,1499,1000,0,0,0
1691753490622554,1500,1499,1231,1499,1000,0,0,0
1691753490626228,1499,1501,1234,1499,1000,0,0,0
1691753490630427,1503,1503,1232,1499,1000,0,0,0
1691753490634506,1498,1500,1238,1499,1000,0,0,0
1691753490637072,1497,1501,1241,1499,1000,0,0,0
1691753490640775,1496,1501,1242,1499,1000,0,0,0
1691753490644290,1496,1501,1243,1499,1000,0,0,0
1691753490648362,1496,1500,1244,1499,1000,0,0,0
1691753490652284,1496,1503,1244,1500,1000,0,0,0
1691753490655198,1496,1503,1245,1499,1000,0,0,0
1691753490658802,1496,1503,1246,1499,1000,0,0,0
1691753490662890,1496,1502,1246,1499,1000,0,0,0
1691753490666251,1496,1503,1247,1499,1000,0,0,0
1691753490670318,1497,1503,1247,1499,1000,0,0,0
1691753490674425,1500,1504,1246,1499,1000,0,0,0
1691753490676973,1498,1502,1248,1499,1000,0,0,0
1691753490680663,1498,1502,1249,1499,1000,0,0,0
1691753490684364,1498,1502,1249,1499,1000,0,0,0
1691753490688527,1498,1503,1250,1499,1000,0,0,0
1691753490692294,1498,1503,1250,1499,1000,0,0,0
1691753490696300,1497,1504,1251,1499,1000,0,0,0
1691753490698925,1497,1503,1251,1499,1000,0,0,0
1691753490703527,1497,1502,1253,1499,1000,0,0,0
1691753490706065,1496,1502,1254,1499,1000,0,0,0
1691753490710312,1497,1502,1254,1499,1000,0,0,0
1691753490713393,1497,1502,1254,1499,1000,0,0,0
1691753490717403,1497,1502,1254,1499,1000,0,0,0
1691753490722263,1498,1502,1255,1499,1000,0,0,0
1691753490725122,1498,1503,1255,1499,1000,0,0,0
1691753490728359,1497,1504,1255,1499,1000,0,0,0
1691753490731681,1497,1504,1255,1499,1000,0,0,0
1691753490735132,1497,1503,1257,1499,1000,0,0,0
1691753490738837,1497,1503,1258,1499,1000,0,0,0
1691753490742480,1499,1506,1255,1499,1000,0,0,0
1691753490746518,1498,1502,1258,1499,1000,0,0,0
1691753490750364,1497,1501,1259,1499,1000,0,0,0
1691753490754285,1498,1505,1256,1499,1000,0,0,0
1691753490757429,1497,1502,1259,1499,1000,0,0,0
1691753490760630,1496,1500,1261,1499,1000,0,0,0
1691753490765254,1496,1501,1261,1499,1000,0,0,0
1691753490768458,1498,1505,1257,1499,1000,0,0,0
1691753490772417,1497,1502,1259,1499,1000,0,0,0
1691753490775536,1497,1503,1258,1499,1000,0,0,0
1691753490779331,1497,1504,1258,1499,1000,0,0,0
1691753490783299,1497,1503,1258,1499,1000,0,0,0
1691753490785830,1496,1501,1260,1499,1000,0,0,0
1691753490789972,1496,1501,1261,1499,1000,0,0,0
1691753490793298,1496,1502,1260,1499,1000,0,0,0
1691753490798436,1497,1503,1258,1499,1000,0,0,0
1691753490801721,1498,1503,1258,1499,1000,0,0,0
1691753490805305,1498,1503,1259,1499,1000,0,0,0
1691753490807769,1496,1502,1261,1499,1000,0,0,0
1691753490811382,1496,1501,1261,1499,1000,0,0,0
1691753490816316,1496,1501,1260,1499,1000,0,0,0
1691753490819541,1497,1501,1259,1499,1000,0,0,0
1691753490822535,1498,1502,1258,1499,1000,0,0,0
1691753490825951,1498,1503,1257,1499,1000,0,0,0
1691753490829900,1498,1502,1258,1499,1000,0,0,0
1691753490833359,1497,1502,1258,1499,1000,0,0,0
1691753490837020,1499,1503,1256,1499,1000,0,0,0
1691753490840754,1499,1501,1258,1499,1000,0,0,0
1691753490844212,1499,1503,1257,1499,1000,0,0,0
1691753490848329,1499,1503,1256,1499,1000,0,0,0
1691753490851769,1498,1501,1259,1499,1000,0,0,0
1691753490855337,1497,1500,1259,1499,1000,0,0,0
1691753490859401,1497,1500,1259,1499,1000,0,0,0
1691753490863951,1499,1498,1259,1499,1000,0,0,0
1691753490866330,1499,1500,1257,1499,1000,0,0,0
1691753490872269,1499,1501,1257,1499,1000,0,0,0
1691753490873383,1499,1501,1257,1499,1000,0,0,0
1691753490877900,1498,1500,1257,1499,1000,0,0,0
1691753490881524,1498,1501,1257,1499,1000,0,0,0
1691753490884182,1498,1500,1257,1499,1000,0,0,0
1691753490888685,1499,1500,1256,1499,1000,0,0,0
1691753490891489,1499,1501,1256,1499,1000,0,0,0
1691753490895495,1499,1502,1255,1499,1000,0,0,0
1691753490898927,1499,1499,1257,1499,1000,0,0,0
1691753490902486,1498,1499,1257,1499,1000,0,0,0
1691753490906561,1499,1499,1257,1499,1000,0,0,0
1691753490909949,1499,1498,1257,1499,1000,0,0,0
1691753490913256,1500,1498,1257,1499,1000,0,0,0
1691753490917375,1500,1500,1256,1499,1000,0,0,0
1691753490921107,1500,1500,1256,1499,1000,0,0,0
1691753490925347,1500,1498,1257,1499,1000,0,0,0
1691753490928605,1500,1498,1257,1499,1000,0,0,0
1691753490931549,1499,1499,1256,1499,1000,0,0,0
1691753490935594,1500,1498,1256,1499,1000,0,0,0
1691753490938817,1500,1498,1256,1499,1000,0,0,0
1691753490942606,1500,1499,1255,1499,1000,0,0,0
1691753490946751,1502,1502,1254,1499,1000,0,0,0
1691753490950599,1501,1500,1255,1499,1000,0,0,0
1691753490953355,1500,1497,1257,1499,1000,0,0,0
1691753490957758,1500,1497,1257,1499,1000,0,0,0
1691753490961685,1501,1496,1257,1499,1000,0,0,0
1691753490964263,1501,1496,1256,1499,1000,0,0,0
1691753490968240,1501,1497,1256,1499,1000,0,0,0
1691753490971511,1501,1497,1256,1499,1000,0,0,0
1691753490975160,1501,1495,1257,1499,1000,0,0,0
1691753490978897,1501,1496,1257,1499,1000,0,0,0
1691753490982552,1500,1497,1256,1499,1000,0,0,0
1691753490986559,1501,1496,1256,1499,1000,0,0,0
1691753490990642,1502,1496,1256,1499,1000,0,0,0
1691753490993240,1502,1497,1255,1499,1000,0,0,0
1691753490997129,1502,1498,1255,1499,1000,0,0,0
1691753491000625,1502,1496,1256,1499,1000,0,0,0
1691753491004647,1501,1498,1256,1499,1000,0,0,0
1691753491008719,1501,1498,1256,1499,1000,0,0,0
1691753491012380,1502,1498,1256,1499,1000,0,0,0
1691753491015193,1504,1494,1257,1499,1000,0,0,0
1691753491018776,1503,1496,1256,1499,1000,0,0,0
1691753491022776,1503,1497,1256,1499,1000,0,0,0
1691753491026768,1502,1495,1257,1499,1000,0,0,0
1691753491030805,1502,1494,1258,1499,1000,0,0,0
1691753491033260,1501,1496,1257,1499,1000,0,0,0
1691753491036967,1502,1495,1257,1499,1000,0,0,0
1691753491040795,1503,1495,1257,1499,1000,0,0,0
1691753491044693,1503,1496,1256,1499,1000,0,0,0
1691753491052392,1502,1498,1256,1499,1000,0,0,0
1691753491052862,1502,1497,1256,1499,1000,0,0,0
1691753491055117,1502,1495,1257,1499,1000,0,0,0
1691753491058921,1501,1496,1257,1499,1000,0,0,0
1691753491062772,1502,1496,1257,1499,1000,0,0,0
1691753491066633,1503,1495,1257,1499,1000,0,0,0
1691753491072353,1503,1496,1257,1499,1000,0,0,0
1691753491073559,1502,1498,1256,1499,1000,0,0,0
1691753491076928,1502,1499,1256,1499,1000,0,0,0
1691753491080841,1502,1497,1257,1499,1000,0,0,0
1691753491088339,1501,1496,1258,1499,1000,0,0,0
1691753491088515,1501,1496,1258,1499,1000,0,0,0
1691753491092379,1503,1495,1258,1499,1000,0,0,0
1691753491095168,1502,1497,1258,1499,1000,0,0,0
1691753491098986,1501,1498,1257,1499,1000,0,0,0
1691753491102671,1502,1498,1257,1499,1000,0,0,0
1691753491106875,1501,1497,1258,1499,1000,0,0,0
1691753491110736,1500,1498,1259,1499,1000,0,0,0
1691753491113365,1500,1497,1259,1499,1000,0,0,0
1691753491117040,1501,1496,1259,1499,1000,0,0,0
1691753491121049,1502,1497,1258,1499,1000,0,0,0
1691753491124844,1502,1501,1256,1499,1000,0,0,0
1691753491128805,1502,1498,1258,1499,1000,0,0,0
1691753491131444,1501,1496,1259,1499,1000,0,0,0
1691753491135653,1500,1500,1258,1499,1000,0,0,0
1691753491139893,1500,1500,1258,1499,1000,0,0,0
1691753491142368,1501,1497,1259,1499,1000,0,0,0
1691753491147059,1500,1499,1258,1499,1000,0,0,0
1691753491149801,1500,1500,1258,1499,1000,0,0,0
1691753491155013,1500,1500,1258,1499,1000,0,0,0
1691753491157401,1499,1499,1259,1499,1000,0,0,0
1691753491160777,1498,1500,1259,1499,1000,0,0,0
1691753491164897,1498,1500,1258,1499,1000,0,0,0
1691753491169139,1500,1499,1258,1499,1000,0,0,0
1691753491171778,1501,1503,1256,1499,1000,0,0,0
1691753491175575,1499,1502,1257,1499,1000,0,0,0
1691753491178758,1498,1499,1259,1499,1000,0,0,0
1691753491182739,1499,1501,1259,1499,1000,0,0,0
1691753491186796,1500,1504,1257,1499,1000,0,0,0
1691753491190731,1499,1499,1259,1499,1000,0,0,0
1691753491193137,1499,1499,1258,1499,1000,0,0,0
1691753491197121,1499,1500,1258,1499,1000,0,0,0
1691753491200807,1498,1500,1259,1499,1000,0,0,0
1691753491204942,1498,1500,1259,1499,1000,0,0,0
1691753491208776,1498,1500,1258,1499,1000,0,0,0
1691753491211360,1498,1501,1258,1499,1000,0,0,0
1691753491215156,1498,1501,1257,1499,1000,0,0,0
1691753491218822,1499,1502,1257,1499,1000,0,0,0
1691753491222840,1501,1504,1256,1499,1000,0,0,0
1691753491226843,1498,1502,1257,1499,1000,0,0,0
1691753491230671,1498,1503,1257,1499,1000,0,0,0
1691753491233329,1498,1502,1257,1499,1000,0,0,0
1691753491237962,1499,1501,1257,1499,1000,0,0,0
1691753491240694,1499,1502,1257,1499,1000,0,0,0
1691753491244971,1499,1502,1257,1499,1000,0,0,0
1691753491252259,1498,1500,1258,1499,1000,0,0,0
1691753491252440,1497,1501,1258,1499,1000,0,0,0
1691753491255284,1499,1503,1256,1499,1000,0,0,0
1691753491260255,1499,1500,1257,1499,1000,0,0,0
1691753491263016,1499,1501,1257,1499,1000,0,0,0
1691753491266831,1498,1502,1256,1499,1000,0,0,0
1691753491270608,1498,1503,1256,1499,1000,0,0,0
1691753491273756,1498,1501,1257,1499,1000,0,0,0
1691753491277041,1497,1502,1257,1499,1000,0,0,0
1691753491281001,1499,1504,1256,1499,1000,0,0,0
1691753491284860,1499,1500,1257,1499,1000,0,0,0
1691753491288272,1499,1502,1256,1499,1000,0,0,0
1691753491291850,1498,1503,1256,1499,1000,0,0,0
1691753491295876,1499,1504,1255,1499,1000,0,0,0
1691753491299753,1498,1502,1257,1499,1000,0,0,0
1691753491302237,1498,1499,1258,1499,1000,0,0,0
1691753491306285,1497,1500,1258,1499,1000,0,0,0
1691753491310011,1498,1499,1258,1499,1000,0,0,0
1691753491314042,1499,1499,1257,1499,1000,0,0,0
1691753491317885,1498,1501,1257,1499,1000,0,0,0
1691753491320722,1499,1503,1256,1499,1000,0,0,0
1691753491324268,1498,1499,1257,1499,1000,0,0,0
1691753491328378,1498,1499,1258,1499,1000,0,0,0
1691753491332299,1497,1500,1258,1499,1000,0,0,0
1691753491335791,1499,1502,1256,1499,1000,0,0,0
1691753491339702,1499,1499,1257,1499,1000,0,0,0
1691753491342772,1499,1500,1257,1499,1000,0,0,0
1691753491346120,1500,1503,1256,1499,1000,0,0,0
1691753491349946,1498,1501,1257,1499,1000,0,0,0
1691753491354077,1498,1499,1258,1499,1000,0,0,0
1691753491357985,1497,1500,1257,1499,1000,0,0,0
1691753491360828,1499,1502,1256,1499,1000,0,0,0
1691753491364257,1499,1498,1257,1499,1000,0,0,0
1691753491368764,1499,1500,1257,1499,1000,0,0,0
1691753491371715,1500,1502,1256,1499,1000,0,0,0
1691753491376225,1498,1498,1257,1499,1000,0,0,0
1691753491379723,1498,1498,1258,1499,1000,0,0,0
1691753491382439,1497,1499,1257,1499,1000,0,0,0
1691753491385970,1499,1500,1256,1499,1000,0,0,0
1691753491391836,1499,1497,1257,1499,1000,0,0,0
1691753491393841,1498,1498,1257,1499,1000,0,0,0
1691753491397011,1498,1499,1257,1499,1000,0,0,0
1691753491401062,1498,1501,1256,1499,1000,0,0,0
1691753491405016,1498,1500,1257,1499,1000,0,0,0
1691753491408237,1497,1498,1258,1499,1000,0,0,0
1691753491412331,1499,1500,1256,1499,1000,0,0,0
1691753491416347,1499,1498,1257,1499,1000,0,0,0
1691753491418620,1499,1498,1257,1499,1000,0,0,0
1691753491423112,1500,1501,1256,1499,1000,0,0,0
1691753491427028,1498,1499,1256,1499,1000,0,0,0
1691753491430052,1498,1497,1257,1499,1000,0,0,0
1691753491433690,1498,1497,1257,1499,1000,0,0,0
1691753491437090,1500,1499,1256,1499,1000,0,0,0
1691753491440954,1499,1497,1257,1499,1000,0,0,0
1691753491445251,1498,1497,1256,1499,1000,0,0,0
1691753491448242,1498,1498,1256,1499,1000,0,0,0
1691753491451954,1498,1498,1256,1499,1000,0,0,0
1691753491456122,1498,1498,1257,1499,1000,0,0,0
1691753491459757,1498,1499,1257,1499,1000,0,0,0
1691753491462550,1498,1499,1257,1499,1000,0,0,0
1691753491465978,1499,1497,1257,1499,1000,0,0,0
1691753491470264,1499,1498,1257,1499,1000,0,0,0
1691753491474073,1499,1498,1256,1499,1000,0,0,0
1691753491478463,1499,1499,1256,1499,1000,0,0,0
1691753491480641,1499,1497,1256,1499,1000,0,0,0
1691753491484625,1499,1496,1257,1499,1000,0,0,0
1691753491488510,1499,1497,1256,1499,1000,0,0,0
1691753491492274,1499,1497,1256,1499,1000,0,0,0
1691753491496307,1499,1498,1256,1499,1000,0,0,0
1691753491500219,1500,1498,1256,1499,1000,0,0,0
1691753491502372,1499,1499,1256,1499,1000,0,0,0
1691753491506307,1499,1498,1257,1499,1000,0,0,0
1691753491510232,1499,1498,1257,1499,1000,0,0,0
1691753491519316,1499,1497,1257,1499,1000,0,0,0
1691753491519607,1500,1497,1256,1499,1000,0,0,0
1691753491521619,1500,1499,1256,1499,1000,0,0,0
1691753491524330,1500,1500,1256,1500,1000,0,0,0
1691753491528542,1500,1499,1256,1499,1000,0,0,0
1691753491532351,1499,1500,1256,1499,1000,0,0,0
1691753491537955,1500,1498,1256,1499,1000,0,0,0
1691753491538694,1501,1496,1256,1499,1000,0,0,0
1691753491542456,1501,1497,1256,1499,1000,0,0,0
1691753491546311,1501,1498,1256,1500,1000,0,0,0
1691753491550091,1501,1498,1256,1500,1000,0,0,0
1691753491554318,1501,1498,1256,1500,1000,0,0,0
1691753491557919,1500,1499,1256,1500,1000,0,0,0
1691753491560589,1500,1499,1257,1500,1000,0,0,0
1691753491564307,1501,1497,1256,1500,1000,0,0,0
1691753491568341,1501,1498,1256,1500,1000,0,0,0
1691753491572264,1501,1499,1256,1500,1000,0,0,0
1691753491575063,1502,1499,1256,1500,1000,0,0,0
1691753491579457,1501,1498,1257,1500,1000,0,0,0
1691753491583092,1500,1499,1257,1500,1000,0,0,0
1691753491586817,1500,1499,1257,1500,1000,0,0,0
1691753491589830,1501,1498,1257,1500,1000,0,0,0
1691753491595475,1502,1499,1256,1500,1000,0,0,0
1691753491597210,1502,1500,1256,1500,1000,0,0,0
1691753491601142,1501,1501,1256,1500,1000,0,0,0
1691753491605292,1501,1501,1256,1500,1000,0,0,0
1691753491607957,1500,1499,1257,1500,1000,0,0,0
1691753491612101,1501,1498,1257,1500,1000,0,0,0
1691753491615279,1502,1497,1257,1500,1000,0,0,0
1691753491619219,1503,1498,1257,1500,1000,0,0,0
1691753491623208,1501,1500,1256,1500,1000,0,0,0
1691753491626888,1502,1498,1257,1500,1000,0,0,0
1691753491629789,1501,1499,1257,1500,1000,0,0,0
1691753491633390,1500,1500,1257,1500,1000,0,0,0
1691753491637113,1501,1499,1257,1500,1000,0,0,0
1691753491642935,1503,1498,1257,1500,1000,0,0,0
1691753491645179,1501,1500,1256,1500,1000,0,0,0
1691753491647925,1501,1501,1256,1500,1000,0,0,0
1691753491651588,1501,1499,1257,1500,1000,0,0,0
1691753491655259,1501,1499,1257,1500,1000,0,0,0
1691753491659216,1500,1501,1257,1500,1000,0,0,0
1691753491663226,1501,1501,1257,1500,1000,0,0,0
1691753491667042,1502,1501,1256,1500,1000,0,0,0
1691753491669842,1501,1502,1256,1500,1000,0,0,0
1691753491673402,1501,1501,1257,1500,1000,0,0,0
1691753491677250,1501,1500,1257,1500,1000,0,0,0
1691753491681517,1501,1501,1257,1500,1000,0,0,0
1691753491684223,1501,1501,1257,1500,1000,0,0,0
1691753491688446,1501,1501,1256,1500,1000,0,0,0
1691753491693200,1501,1501,1256,1500,1000,0,0,0
1691753491695934,1501,1501,1256,1500,1000,0,0,0
1691753491698957,1500,1501,1256,1500,1000,0,0,0
1691753491702339,1500,1501,1257,1500,1000,0,0,0
1691753491706264,1500,1501,1257,1500,1000,0,0,0
1691753491710239,1500,1501,1256,1500,1000,0,0,0
1691753491714393,1500,1501,1256,1500,1000,0,0,0
1691753491716874,1501,1501,1256,1500,1000,0,0,0
1691753491720836,1501,1501,1256,1500,1000,0,0,0
1691753491725057,1500,1501,1256,1500,1000,0,0,0
1691753491728416,1499,1502,1256,1500,1000,0,0,0
1691753491732303,1500,1502,1256,1500,1000,0,0,0
1691753491737089,1500,1500,1256,1500,1000,0,0,0
1691753491738736,1500,1501,1256,1500,1000,0,0,0
1691753491742540,1501,1501,1256,1500,1000,0,0,0
1691753491746356,1500,1500,1256,1500,1000,0,0,0
1691753491750333,1499,1501,1257,1500,1000,0,0,0
1691753491754702,1499,1501,1256,1500,1000,0,0,0
1691753491760667,1500,1500,1256,1500,1000,0,0,0
1691753491760869,1500,1500,1256,1500,1000,0,0,0
1691753491764406,1499,1501,1256,1500,1000,0,0,0
1691753491768704,1500,1501,1256,1500,1000,0,0,0
1691753491772417,1499,1500,1256,1500,1000,0,0,0
1691753491775892,1499,1501,1256,1500,1000,0,0,0
1691753491778830,1499,1501,1256,1500,1000,0,0,0
1691753491782931,1500,1499,1256,1500,1000,0,0,0
1691753491787484,1500,1500,1256,1500,1000,0,0,0
1691753491790438,1499,1501,1256,1500,1000,0,0,0
1691753491793214,1499,1502,1256,1500,1000,0,0,0
1691753491797422,1499,1501,1256,1500,1000,0,0,0
1691753491801275,1499,1502,1256,1500,1000,0,0,0
1691753491805656,1499,1500,1256,1500,1000,0,0,0
1691753491808454,1500,1498,1256,1499,1000,0,0,0
1691753491811729,1500,1500,1255,1500,1000,0,0,0
1691753491816350,1499,1501,1255,1500,1000,0,0,0
1691753491819351,1498,1499,1256,1499,1000,0,0,0
1691753491822616,1498,1499,1256,1499,1000,0,0,0
1691753491826550,1498,1500,1256,1500,1000,0,0,0
1691753491830570,1498,1500,1256,1499,1000,0,0,0
1691753491834353,1499,1499,1256,1499,1000,0,0,0
1691753491836970,1499,1500,1255,1499,1000,0,0,0
1691753491840741,1498,1501,1256,1499,1000,0,0,0
1691753491844459,1498,1500,1256,1499,1000,0,0,0
1691753491848721,1498,1500,1256,1499,1000,0,0,0
1691753491851571,1497,1501,1256,1499,1000,0,0,0
1691753491855699,1498,1500,1256,1499,1000,0,0,0
1691753491859433,1498,1498,1256,1499,1000,0,0,0
1691753491863610,1499,1499,1256,1499,1000,0,0,0
1691753491866358,1498,1500,1255,1499,1000,0,0,0
1691753491869918,1500,1501,1255,1499,1000,0,0,0
1691753491873495,1498,1499,1256,1499,1000,0,0,0
1691753491877553,1497,1501,1256,1499,1000,0,0,0
1691753491882992,1499,1502,1255,1499,1000,0,0,0
1691753491885608,1498,1499,1256,1499,1000,0,0,0
1691753491887933,1498,1501,1256,1499,1000,0,0,0
1691753491891572,1498,1500,1256,1499,1000,0,0,0
1691753491895690,1497,1498,1257,1499,1000,0,0,0
1691753491899453,1497,1497,1257,1499,1000,0,0,0
1691753491902401,1497,1498,1257,1499,1000,0,0,0
1691753491906321,1497,1498,1257,1499,1000,0,0,0
1691753491910975,1497,1498,1257,1499,1000,0,0,0
1691753491914371,1499,1500,1255,1499,1000,0,0,0
1691753491918565,1499,1501,1255,1499,1000,0,0,0
1691753491920735,1497,1498,1257,1499,1000,0,0,0
1691753491924614,1496,1497,1257,1499,1000,0,0,0
1691753491928434,1497,1497,1258,1499,1000,0,0,0
1691753491932508,1497,1497,1258,1499,1000,0,0,0
1691753491935084,1497,1498,1257,1499,1000,0,0,0
1691753491938831,1497,1499,1257,1499,1000,0,0,0
1691753491942378,1497,1499,1257,1499,1000,0,0,0
1691753491946609,1497,1498,1258,1499,1000,0,0,0
1691753491950349,1496,1498,1258,1499,1000,0,0,0
1691753491954364,1497,1498,1258,1499,1000,0,0,0
1691753491956925,1497,1498,1258,1499,1000,0,0,0
1691753491961064,1498,1499,1257,1499,1000,0,0,0
1691753491966173,1498,1500,1256,1499,1000,0,0,0
1691753491967633,1498,1501,1256,1499,1000,0,0,0
1691753491971570,1498,1500,1257,1499,1000,0,0,0
1691753491975486,1498,1497,1258,1499,1000,0,0,0
1691753491982054,1498,1496,1258,1499,1000,0,0,0
1691753491983017,1499,1496,1258,1499,1000,0,0,0
1691753491986373,1499,1498,1257,1499,1000,0,0,0
1691753491991732,1499,1497,1257,1499,1000,0,0,0
1691753491993398,1498,1497,1258,1499,1000,0,0,0
1691753491997568,1498,1497,1258,1499,1000,0,0,0
1691753492001629,1498,1497,1258,1499,1000,0,0,0
1691753492004457,1499,1497,1258,1499,1000,0,0,0
1691753492010106,1499,1498,1257,1499,1000,0,0,0
1691753492012288,1499,1499,1257,1499,1000,0,0,0
1691753492015297,1499,1499,1257,1499,1000,0,0,0
1691753492019571,1499,1498,1258,1499,1000,0,0,0
1691753492023061,1499,1498,1258,1499,1000,0,0,0
1691753492026479,1499,1497,1258,1499,1000,0,0,0
1691753492030584,1500,1497,1258,1499,1000,0,0,0
1691753492040621,1500,1498,1257,1499,1000,0,0,0
1691753492040803,1500,1498,1258,1499,1000,0,0,0
1691753492041315,1499,1499,1258,1499,1000,0,0,0
1691753492044335,1499,1499,1258,1499,1000,0,0,0
1691753492048257,1500,1499,1258,1499,1000,0,0,0
1691753492052319,1501,1497,1258,1499,1000,0,0,0
1691753492058327,1500,1498,1257,1499,1000,0,0,0
1691753492059504,1500,1497,1258,1499,1000,0,0,0
1691753492063427,1500,1497,1259,1499,1000,0,0,0
1691753492065942,1500,1497,1258,1499,1000,0,0,0
1691753492073646,1500,1497,1258,1499,1000,0,0,0
1691753492073846,1501,1498,1258,1499,1000,0,0,0
1691753492077619,1501,1498,1258,1499,1000,0,0,0
1691753492081801,1500,1497,1258,1499,1000,0,0,0
1691753492084223,1500,1498,1258,1499,1000,0,0,0
1691753492088316,1500,1498,1258,1499,1000,0,0,0
1691753492092058,1501,1498,1258,1499,1000,0,0,0
1691753492096137,1501,1498,1257,1499,1000,0,0,0
1691753492099677,1501,1500,1257,1499,1000,0,0,0
1691753492103428,1501,1500,1257,1499,1000,0,0,0
1691753492107702,1501,1498,1258,1499,1000,0,0,0
1691753492109701,1501,1499,1258,1499,1000,0,0,0
1691753492113687,1501,1498,1257,1499,1000,0,0,0
1691753492117681,1502,1498,1257,1499,1000,0,0,0
1691753492121506,1502,1499,1256,1499,1000,0,0,0
1691753492124584,1501,1499,1257,1499,1000,0,0,0
1691753492127948,1501,1498,1257,1499,1000,0,0,0
1691753492132067,1501,1498,1257,1499,1000,0,0,0
1691753492136002,1501,1498,1256,1499,1000,0,0,0
1691753492139848,1502,1498,1256,1499,1000,0,0,0
1691753492142328,1502,1499,1256,1499,1000,0,0,0
1691753492146408,1501,1499,1256,1499,1000,0,0,0
1691753492149986,1501,1501,1256,1499,1000,0,0,0
1691753492153309,1501,1502,1256,1499,1000,0,0,0
1691753492157047,1501,1501,1256,1499,1000,0,0,0
1691753492160610,1502,1501,1256,1499,1000,0,0,0
1691753492164343,1502,1500,1255,1499,1000,0,0,0
1691753492168781,1503,1500,1255,1499,1000,0,0,0
1691753492171846,1502,1499,1256,1499,1000,0,0,0
1691753492175834,1501,1500,1256,1499,1000,0,0,0
1691753492179776,1501,1499,1256,1499,1000,0,0,0
1691753492182360,1502,1499,1255,1499,1000,0,0,0
1691753492186351,1502,1500,1255,1499,1000,0,0,0
1691753492193755,1502,1501,1255,1499,1000,0,0,0
1691753492194375,1501,1500,1255,1499,1000,0,0,0
1691753492197993,1500,1502,1256,1499,1000,0,0,0
1691753492204474,1503,1502,1254,1499,1000,0,0,0
1691753492204673,1502,1500,1255,1499,1000,0,0,0
1691753492207830,1502,1500,1255,1499,1000,0,0,0
1691753492212638,1504,1503,1253,1499,1000,0,0,0
1691753492215092,1501,1501,1255,1499,1000,0,0,0
1691753492218940,1500,1501,1256,1499,1000,0,0,0
1691753492222710,1500,1501,1256,1499,1000,0,0,0
1691753492226924,1500,1502,1256,1499,1000,0,0,0
1691753492229910,1501,1502,1255,1499,1000,0,0,0
1691753492233622,1501,1502,1255,1499,1000,0,0,0
1691753492237775,1500,1503,1255,1499,1000,0,0,0
1691753492241713,1499,1501,1256,1499,1000,0,0,0
1691753492244019,1500,1500,1256,1499,1000,0,0,0
1691753492248397,1500,1499,1256,1499,1000,0,0,0
1691753492251795,1500,1500,1255,1499,1000,0,0,0
1691753492256055,1500,1501,1255,1499,1000,0,0,0
1691753492259692,1500,1501,1255,1499,1000,0,0,0
1691753492262385,1500,1501,1256,1499,1000,0,0,0
1691753492271223,1499,1502,1256,1499,1000,0,0,0
1691753492271498,1500,1501,1256,1499,1000,0,0,0
1691753492273985,1500,1501,1256,1499,1000,0,0,0
1691753492277116,1500,1501,1255,1499,1000,0,0,0
1691753492280890,1500,1502,1255,1499,1000,0,0,0
1691753492284863,1500,1502,1255,1499,1000,0,0,0
1691753492288910,1500,1501,1255,1499,1000,0,0,0
1691753492291600,1499,1502,1255,1499,1000,0,0,0
1691753492296387,1499,1501,1255,1499,1000,0,0,0
1691753492299660,1500,1500,1255,1499,1000,0,0,0
1691753492302261,1500,1501,1255,1499,1000,0,0,0
1691753492306004,1500,1502,1255,1499,1000,0,0,0
1691753492309919,1499,1502,1255,1499,1000,0,0,0
1691753492313877,1499,1503,1255,1499,1000,0,0,0
1691753492317791,1499,1503,1255,1499,1000,0,0,0
1691753492320627,1500,1501,1255,1499,1000,0,0,0
1691753492324329,1501,1500,1254,1499,1000,0,0,0
1691753492328303,1501,1500,1254,1499,1000,0,0,0
1691753492331878,1500,1500,1255,1499,1000,0,0,0
1691753492335869,1499,1501,1255,1499,1000,0,0,0
1691753492339856,1499,1501,1255,1499,1000,0,0,0
1691753492342252,1500,1500,1255,1499,1000,0,0,0
1691753492346355,1500,1500,1254,1499,1000,0,0,0
1691753492350037,1500,1500,1254,1499,1000,0,0,0
1691753492355036,1500,1500,1254,1499,1000,0,0,0
1691753492356928,1499,1501,1255,1499,1000,0,0,0
1691753492360962,1499,1501,1255,1499,1000,0,0,0
1691753492364971,1498,1502,1255,1499,1000,0,0,0
1691753492367813,1499,1501,1255,1499,1000,0,0,0
1691753492371948,1499,1501,1255,1499,1000,0,0,0
1691753492379836,1500,1501,1254,1499,1000,0,0,0
1691753492380163,1499,1501,1254,1499,1000,0,0,0
1691753492384095,1498,1501,1255,1499,1000,0,0,0
1691753492386000,1498,1501,1255,1499,1000,0,0,0
1691753492390116,1498,1501,1255,1499,1000,0,0,0
1691753492393990,1498,1501,1255,1499,1000,0,0,0
1691753492398433,1499,1501,1255,1499,1000,0,0,0
1691753492400560,1499,1501,1254,1499,1000,0,0,0
1691753492404382,1502,1504,1252,1499,1000,0,0,0
1691753492407907,1499,1501,1254,1499,1000,0,0,0
1691753492412386,1498,1500,1255,1499,1000,0,0,0
1691753492421328,1498,1500,1255,1499,1000,0,0,0
1691753492421592,1499,1499,1255,1499,1000,0,0,0
1691753492422459,1498,1499,1255,1499,1000,0,0,0
1691753492425907,1498,1500,1255,1499,1000,0,0,0
1691753492430342,1498,1500,1255,1499,1000,0,0,0
1691753492433944,1498,1500,1255,1499,1000,0,0,0
1691753492438225,1497,1500,1256,1499,1000,0,0,0
1691753492440698,1499,1501,1254,1499,1000,0,0,0
1691753492444404,1498,1499,1255,1499,1000,0,0,0
1691753492448364,1498,1500,1255,1499,1000,0,0,0
1691753492452479,1497,1500,1255,1499,1000,0,0,0
1691753492457641,1497,1500,1255,1499,1000,0,0,0
1691753492459657,1497,1499,1256,1499,1000,0,0,0
1691753492462455,1497,1499,1256,1499,1000,0,0,0
1691753492466873,1497,1498,1256,1499,1000,0,0,0
1691753492470492,1498,1498,1255,1499,1000,0,0,0
1691753492474064,1498,1499,1255,1499,1000,0,0,0
1691753492478409,1498,1499,1255,1499,1000,0,0,0
1691753492484342,1499,1500,1254,1499,1000,0,0,0
1691753492484935,1497,1499,1255,1499,1000,0,0,0
1691753492488469,1497,1499,1256,1499,1000,0,0,0
1691753492492322,1498,1498,1255,1499,1000,0,0,0
1691753492499135,1498,1498,1255,1499,1000,0,0,0
1691753492499733,1498,1500,1255,1499,1000,0,0,0
1691753492503759,1497,1500,1255,1499,1000,0,0,0
1691753492505952,1497,1500,1256,1499,1000,0,0,0
1691753492510371,1497,1500,1256,1499,1000,0,0,0
1691753492514131,1498,1498,1255,1499,1000,0,0,0
1691753492517714,1498,1498,1255,1499,1000,0,0,0
1691753492526115,1498,1498,1255,1499,1000,0,0,0
1691753492526451,1498,1499,1255,1499,1000,0,0,0
1691753492528502,1498,1498,1256,1499,1000,0,0,0
1691753492532736,1497,1498,1256,1499,1000,0,0,0
1691753492536068,1498,1497,1256,1499,1000,0,0,0
1691753492538861,1498,1498,1255,1499,1000,0,0,0
1691753492544082,1498,1499,1255,1499,1000,0,0,0
1691753492546604,1498,1498,1255,1499,1000,0,0,0
1691753492550006,1498,1498,1256,1499,1000,0,0,0
1691753492554523,1497,1498,1256,1499,1000,0,0,0
1691753492557127,1498,1497,1255,1499,1000,0,0,0
1691753492561131,1498,1498,1255,1499,1000,0,0,0
1691753492565717,1498,1498,1255,1499,1000,0,0,0
1691753492569215,1499,1499,1255,1499,1000,0,0,0
1691753492571598,1498,1498,1256,1499,1000,0,0,0
1691753492575183,1498,1498,1256,1499,1000,0,0,0
1691753492579636,1498,1497,1255,1499,1000,0,0,0
1691753492583015,1499,1497,1256,1499,1000,0,0,0
1691753492589215,1499,1497,1255,1499,1000,0,0,0
1691753492590038,1499,1499,1255,1499,1000,0,0,0
1691753492594341,1499,1498,1256,1499,1000,0,0,0
1691753492598295,1498,1498,1256,1499,1000,0,0,0
1691753492601124,1498,1499,1256,1499,1000,0,0,0
1691753492604543,1499,1499,1255,1499,1000,0,0,0
1691753492608410,1499,1499,1255,1499,1000,0,0,0
1691753492612637,1499,1500,1255,1499,1000,0,0,0
1691753492616332,1499,1500,1255,1499,1000,0,0,0
1691753492623193,1499,1498,1255,1499,1000,0,0,0
1691753492623393,1499,1497,1255,1499,1000,0,0,0
1691753492626297,1499,1498,1255,1499,1000,0,0,0
1691753492630309,1499,1497,1255,1499,1000,0,0,0
1691753492634182,1501,1497,1255,1499,1000,0,0,0
1691753492638010,1500,1498,1255,1499,1000,0,0,0
1691753492640496,1500,1499,1255,1499,1000,0,0,0
1691753492644480,1500,1498,1256,1499,1000,0,0,0
1691753492649060,1499,1498,1256,1499,1000,0,0,0
1691753492652129,1499,1498,1256,1499,1000,0,0,0
1691753492655738,1500,1498,1256,1499,1000,0,0,0
1691753492659052,1501,1498,1256,1499,1000,0,0,0
1691753492663354,1503,1500,1254,1499,1000,0,0,0
1691753492666808,1500,1498,1256,1499,1000,0,0,0
1691753492669787,1500,1498,1256,1499,1000,0,0,0
1691753492673326,1500,1498,1256,1499,1000,0,0,0
1691753492677153,1500,1499,1256,1499,1000,0,0,0
1691753492681947,1500,1498,1256,1499,1000,0,0,0
1691753492685141,1501,1499,1256,1499,1000,0,0,0
1691753492688281,1502,1501,1255,1499,1000,0,0,0
1691753492692252,1500,1499,1257,1499,1000,0,0,0
1691753492696367,1500,1498,1257,1499,1000,0,0,0
1691753492698697,1500,1498,1257,1499,1000,0,0,0
1691753492703302,1500,1499,1257,1499,1000,0,0,0
1691753492707188,1500,1499,1257,1499,1000,0,0,0
