timestamp,roll,pitch,yaw,norm_thrust
1691753488121256,0.00000000,0.00000000,0.00000000,0.00000000
1691753488131268,0.00000000,0.00000000,0.00000000,0.00000000
1691753488141258,0.00000000,0.00000000,0.00000000,0.00000000
1691753488151257,0.00000000,0.00000000,0.00000000,0.00000000
1691753488161261,0.00000000,0.00000000,0.00000000,0.00000000
1691753488171260,0.00000000,0.00000000,0.00000000,0.00000000
1691753488181281,0.00000000,0.00000000,0.00000000,0.00000000
1691753488193249,-0.06116346,0.38935423,0.35415199,11.23277092
1691753488197002,-0.06483095,0.38752356,0.35431746,11.23483372
1691753488200985,-0.06571749,0.38758478,0.35431135,11.23530388
1691753488205006,-0.06513134,0.38814771,0.35422859,11.27223396
1691753488208734,-0.06660565,0.38742307,0.35430604,11.27698517
1691753488211350,-0.06474114,0.38661081,0.35402328,11.27697945
1691753488215482,-0.07052719,0.38274944,0.35414231,11.32444000
1691753488224023,-0.06729463,0.38708305,0.35385856,11.36133385
1691753488224340,-0.06923852,0.38732606,0.35381261,11.35905170
1691753488225813,-0.06786473,0.38625881,0.35334945,11.36264706
1691753488230107,-0.06742804,0.38859892,0.35236651,11.34847832
1691753488234043,-0.06687663,0.38607487,0.35060170,11.39208508
1691753488240938,-0.07549549,0.38630363,0.34880456,11.37424374
1691753488241070,-0.07159643,0.38315341,0.34463000,11.36718559
1691753488244268,-0.07670739,0.38005358,0.33861816,11.38810158
1691753488248226,-0.07646158,0.36962169,0.33027160,11.38576412
1691753488252095,-0.07513868,0.35469022,0.31650504,11.47057724
1691753488256092,-0.15531574,0.22896908,0.30254182,11.66211319
1691753488258710,-0.12870029,0.22934516,0.28851658,11.58140469
1691753488262353,-0.09790645,0.27964047,0.27650842,11.35083771
1691753488266162,-0.09556864,0.27230382,0.26379752,11.28891373
1691753488270218,-0.09060775,0.27382722,0.24419174,11.49304771
1691753488274111,-0.12424984,0.14551380,0.22976933,11.43409443
1691753488277870,-0.10647273,0.16520193,0.21868445,10.94066525
1691753488280435,-0.07691934,0.17009717,0.20610017,10.84435940
1691753488284145,-0.06537566,0.13608132,0.19281814,10.82235336
1691753488288722,-0.11720453,0.18286957,0.17671555,11.29755116
1691753488292065,-0.15224567,0.09288232,0.15953644,11.51364708
1691753488296256,-0.11881728,0.04888594,0.14566569,11.41197205
1691753488299217,-0.10594522,-0.00364936,0.13337991,11.28822231
1691753488302525,-0.17080420,0.00115088,0.12075505,10.90289211
1691753488306556,-0.20137651,-0.02713786,0.10857212,10.76935387
1691753488310584,-0.11626399,-0.12121899,0.09903264,10.61033726
1691753488315128,-0.05886096,-0.17881888,0.09206699,10.34707069
1691753488323037,-0.03895767,-0.18835446,0.08481365,10.28337383
1691753488323428,-0.02148649,-0.15925752,0.07678464,10.06628513
1691753488325239,-0.04565965,-0.13055657,0.06867893,9.86070633
1691753488327797,-0.03423648,-0.19677691,0.06110958,10.08845997
1691753488331733,-0.00137756,-0.24587174,0.05530348,10.04582691
1691753488336164,-0.01050281,-0.24431060,0.04969698,9.90842724
1691753488338829,0.10324102,-0.31536999,0.04771480,9.69146633
1691753488342676,0.08337568,-0.27873114,0.04258443,9.62831783
1691753488346200,0.10073710,-0.28928104,0.03779589,9.73061657
1691753488350197,0.02654724,-0.14629060,0.03214604,9.67318726
1691753488354415,0.04439721,-0.38942456,0.02738850,9.96296978
1691753488357069,0.00920817,-0.53408325,0.02122974,10.24438667
1691753488360691,0.12374073,-0.41437227,0.02220999,9.73706532
1691753488366389,0.14787489,-0.38866672,0.01990595,9.45385361
1691753488367796,0.17734390,-0.37455809,0.01712999,9.50475407
1691753488371611,0.03803711,-0.44035199,0.00992166,10.08551788
1691753488375227,0.01676201,-0.44498664,0.00706461,9.88428783
1691753488379246,0.02790219,-0.45201796,0.00543164,9.84193230
1691753488383661,0.07606234,-0.44075891,0.00506629,9.78366470
1691753488388866,0.11151603,-0.41659811,0.00391134,9.65301800
1691753488389666,0.06436020,-0.32875004,-0.00034626,9.66961002
1691753488393791,0.10484157,-0.26631773,-0.00024116,9.63243866
1691753488397010,0.13070513,-0.34538952,-0.00478847,9.77063084
1691753488401243,0.07774604,-0.35803831,-0.00919994,9.64768887
1691753488405619,0.05274721,-0.35374174,-0.01188657,9.82563496
1691753488407904,0.11482330,-0.43652478,-0.01096065,9.73136806
1691753488411557,0.12114137,-0.40447643,-0.01050720,9.72221375
1691753488416637,-0.17813507,-0.93799669,-0.03073931,8.96547890
1691753488420393,-0.00760274,-0.60477889,-0.00750707,9.43915844
1691753488423457,0.05885357,-0.43648922,0.00185405,9.71918774
1691753488426864,0.08501218,-0.34354040,0.00730160,9.71066761
1691753488429589,0.11483733,-0.26744902,0.01103328,9.76445866
1691753488433247,0.10269833,-0.27525261,0.01300931,9.89289951
1691753488437205,0.10125680,-0.19084816,0.01326333,9.94042492
1691753488441068,0.11095332,-0.06139744,0.01603209,9.52715874
1691753488444222,0.18174252,-0.26387689,0.01883719,9.71693802
1691753488447979,0.12765399,-0.11177612,0.01833085,9.86133766
1691753488451537,0.09852283,-0.04007610,0.01930613,10.05851936
1691753488455093,0.14960180,-0.23690778,0.02030721,9.92823029
1691753488458715,1.99227440,0.02606256,0.00630039,6.69323826
1691753488462383,0.94764680,0.43228707,-0.03233755,8.21784878
1691753488466222,0.46261942,0.34679812,-0.02510079,9.36418724
1691753488470261,0.24633791,0.26153424,-0.02619348,10.00293541
1691753488474258,0.20550610,0.16441897,-0.02942805,10.06722450
1691753488476825,0.18928076,0.12826277,-0.02957484,9.94873428
1691753488480699,0.14787029,0.02315060,-0.02910011,9.88145542
1691753488484182,0.07832269,0.11347454,-0.03391836,10.07030201
1691753488489780,-0.01971897,0.03547676,-0.03344817,10.07933140
1691753488492079,0.03461668,0.02527347,-0.03350524,9.94802284
1691753488496042,0.06310280,0.04769410,-0.03174290,9.89917660
1691753488498723,-0.02740658,0.07957562,-0.03204213,10.09622097
1691753488502815,0.00662968,0.17345448,-0.03430152,10.00983715
1691753488506329,0.03809709,0.05569104,-0.03022598,10.07786465
1691753488510242,-0.02669800,0.08123089,-0.02807745,10.23201656
1691753488513246,-0.10901744,0.06744188,-0.02865924,10.31947613
1691753488517471,-0.02279171,0.09560297,-0.02818669,10.10683250
1691753488521099,-0.04138776,0.13116124,-0.02838833,10.06131172
1691753488526042,-0.07146913,0.04881573,-0.02721183,10.25000858
1691753488527734,-0.07628480,-0.03096308,-0.02507473,10.30681801
1691753488531496,-0.09413052,0.00195339,-0.02480744,10.36229229
1691753488535410,-0.07135938,-0.02586315,-0.02340181,10.31042671
1691753488539239,-0.06798761,0.01430178,-0.02358270,10.32645988
1691753488543227,-0.06236125,0.00859587,-0.02297768,10.34072495
1691753488545945,-0.10894701,0.02243754,-0.02196657,10.31059361
1691753488550259,-0.08244386,0.00593226,-0.02066088,10.28652668
1691753488553440,-0.01871639,-0.01810578,-0.01937833,10.32652760
1691753488556898,-0.05296800,0.01208725,-0.01906046,10.21754169
1691753488560592,-0.06648802,0.04636221,-0.01918421,10.21956348
1691753488564243,-0.10054865,0.04888421,-0.01847924,10.17566872
1691753488568320,-0.04794511,0.01094167,-0.01656057,10.06692982
1691753488572245,-0.07230069,0.03168488,-0.01521754,10.20039272
1691753488575137,-0.16347098,0.02568914,-0.01314484,10.54488182
1691753488579313,-0.13285959,0.04295171,-0.00974154,10.32875347
1691753488583312,-0.14180663,-0.15556335,-0.00479767,10.44966888
1691753488585966,-0.04010510,-0.13624869,-0.00269729,10.36383057
1691753488590083,-0.11463448,-0.07793863,-0.00313654,10.25063610
1691753488593342,-0.12677722,-0.02016679,-0.00254673,10.18085575
1691753488597519,-0.09816504,-0.02997595,-0.00077341,10.11366367
1691753488603221,-0.06505210,-0.02798261,0.00079076,10.04250622
1691753488604205,-0.00962001,-0.07870126,0.00374189,9.97829628
1691753488607931,-0.70229292,-0.35343131,0.00599892,11.21275520
1691753488611677,-0.51882058,-0.18465933,0.02821070,11.19856548
1691753488615198,0.04782964,0.20217079,0.03156307,10.14009762
1691753488619376,0.47147360,-0.10995493,0.04205318,8.94855022
1691753488622760,0.31924278,0.04337968,0.03548648,9.35361481
1691753488626649,0.23954314,0.05325349,0.03548088,9.50138187
1691753488632022,0.20089345,0.02724646,0.03617215,9.71691513
1691753488634027,0.12091465,0.00672904,0.03659286,9.84289455
1691753488637021,-0.00077403,0.08393851,0.03458310,10.25687885
1691753488640736,0.02866916,-0.11618061,0.03666007,10.08234692
1691753488644332,-0.60162276,-0.39154840,0.02622009,11.02332211
1691753488648442,-0.04588972,0.10420043,0.04222854,10.54017258
1691753488652528,0.31638134,-0.05354604,0.04376001,9.26431274
1691753488655095,0.35183591,-0.02472520,0.04122829,9.19204807
1691753488659362,0.27983090,0.04429746,0.03777827,9.54746056
1691753488662397,-0.43955335,-0.27756548,0.03473232,11.10585880
1691753488666420,-0.33323547,-0.24751523,0.04150234,11.14737797
1691753488670627,-0.20868249,-0.17479105,0.04823462,10.99786472
1691753488674193,-0.10459612,-0.12572603,0.05456132,10.69969749
1691753488676777,-0.05704140,-0.18797579,0.05633539,10.48378563
1691753488680658,0.00850665,-0.14957881,0.06060332,10.32784367
1691753488684280,0.02255174,-0.22613911,0.06153782,10.30893421
1691753488688413,0.07343829,-0.16061781,0.06278595,10.28609753
1691753488691402,0.08816380,-0.09562546,0.06228068,10.22378540
1691753488695169,0.06782798,-0.08958912,0.06140840,10.22544861
1691753488701049,0.16435802,-0.18759768,0.06251998,10.06849003
1691753488702469,2.45553088,0.31842256,-0.01252948,6.35807705
1691753488706525,0.05010104,-0.00399872,0.05028016,10.64618874
1691753488710547,0.66136223,0.14165477,0.03314394,9.25370121
1691753488714234,0.37750825,0.19237590,0.02234726,9.92388439
1691753488717546,0.31520715,-0.03069016,0.02394903,10.22629356
1691753488725600,0.24782081,0.08190253,0.01351811,9.80335045
1691753488725731,0.29563698,-0.00558655,0.00964017,9.69669342
1691753488729069,0.16890016,-0.00684820,0.00318994,9.94825077
1691753488731687,0.11219166,-0.00209332,-0.00146240,9.90655518
1691753488735138,0.08915625,-0.07518973,-0.00310335,10.07614422
1691753488738720,0.06136321,0.08628057,-0.01016188,9.85851479
1691753488742432,0.07585817,-0.05414280,-0.00855223,9.95213985
1691753488746637,0.04794493,0.00200652,-0.01063139,10.03826332
1691753488750499,0.01643148,-0.02423235,-0.01120317,9.91405296
1691753488756651,-0.00625070,-0.01018502,-0.01218139,10.02277470
1691753488757070,-0.05035149,0.03332681,-0.01366683,10.10818672
1691753488761014,-0.04506654,0.05303038,-0.01438160,10.03434181
1691753488764492,-0.03429626,-0.00118350,-0.01319052,10.20518780
1691753488768648,-0.04165511,0.00566067,-0.01413137,10.08742619
1691753488772294,-0.08118455,0.07631674,-0.01619133,10.04045391
1691753488775106,-0.73640639,-0.24128032,-0.01207912,11.22759342
1691753488778850,-0.38268059,-0.15214147,-0.00071193,11.14964962
1691753488782618,-0.44490153,-0.08723462,0.00541299,11.11935616
1691753488786223,-0.34399086,-0.06192559,0.01216963,10.97030830
1691753488790586,-0.29025406,-0.07606170,0.01708795,10.67995834
1691753488793325,-0.20766410,-0.05293220,0.02118954,10.60677338
1691753488797088,-0.17823350,-0.04775587,0.02450367,10.53883362
1691753488801518,-0.08258841,-0.08560690,0.02763119,10.31807613
1691753488804776,-0.07742213,-0.05417501,0.03014742,10.31343460
1691753488807964,-0.02571678,-0.03873142,0.03236981,10.32141781
1691753488811634,0.05852136,-0.01205817,0.03354416,10.08909225
1691753488815667,0.04832172,0.04975057,0.03359828,10.15782261
1691753488819571,0.04944019,0.01245527,0.03561620,10.23866749
1691753488823574,0.14073533,-0.08436492,0.03911586,10.17371273
1691753488825928,0.14642560,0.01647757,0.03726202,10.00366688
1691753488830388,0.12042234,0.05275683,0.03686596,10.08502674
1691753488833574,0.11459899,-0.01519960,0.03773703,10.29617405
1691753488837540,0.12255917,0.00439509,0.03775705,10.26415348
1691753488840660,0.14548798,-0.00069752,0.03757068,10.15972424
1691753488844179,0.18032491,-0.02928664,0.03823402,10.15487671
1691753488847940,2.31835008,0.78611898,-0.12012425,6.47864819
1691753488851989,0.71847230,0.34983113,-0.00084897,9.28011703
1691753488855091,0.38117000,0.26043364,0.00280992,10.03193665
1691753488858711,0.24715625,0.18245669,0.00203145,10.26403999
1691753488862533,0.18869241,0.13471559,-0.00129424,10.41261101
1691753488866703,0.24990888,0.08105353,-0.00595676,9.85291767
1691753488872547,-0.00910454,0.22711407,-0.00702778,10.81006050
1691753488873199,0.16685145,-0.08544828,-0.00913759,9.92092228
1691753488876884,0.16959257,0.10121661,-0.01536239,9.45178318
1691753488880736,0.13087741,0.08749665,-0.02014221,9.88510227
1691753488884561,0.03210602,0.03845471,-0.02145306,9.82750225
1691753488888611,0.05795284,-0.01964309,-0.02529403,9.94941902
1691753488892266,0.00366290,0.00616427,-0.02959400,9.91657639
1691753488896152,-0.02435544,-0.03111449,-0.02939328,10.04251385
1691753488902203,0.00225649,-0.02537527,-0.03088418,10.07535839
1691753488902760,-0.02940576,0.01760176,-0.03304840,10.22470379
1691753488908365,-0.06067890,0.03180303,-0.03336139,10.09578323
1691753488909958,-0.08906647,0.03497788,-0.03237647,10.11419678
1691753488913748,-0.04742557,0.02185659,-0.03168925,9.85054684
1691753488919426,-0.03886849,0.07390863,-0.03276370,9.83844852
1691753488923068,-0.03323359,0.06933394,-0.03229683,9.91995811
1691753488924104,-0.03149004,0.06283990,-0.03166157,9.98407173
1691753488927849,-0.10622135,0.11480045,-0.03205260,10.04985046
1691753488932607,-0.40152094,0.08797481,-0.01879301,10.99037933
1691753488937223,-0.38701895,-0.02536602,-0.01441953,11.00450134
1691753488939649,-0.34706694,-0.02281920,-0.01065659,10.74895763
1691753488942388,-0.27532297,-0.09661651,-0.00614238,10.48522186
1691753488946690,-0.22981790,-0.08074211,-0.00214824,10.53763866
1691753488949737,-0.14247997,-0.07855710,0.00193423,10.42093849
1691753488954170,-0.14738172,-0.03241223,0.00548026,10.34039783
1691753488957674,-0.12097690,-0.00736902,0.00861460,10.20595932
1691753488961460,-0.07672819,0.00412431,0.01118588,10.15116215
1691753488964196,0.95817250,0.12073513,-0.00013879,8.00679207
1691753488967870,0.31300744,0.25874746,0.00032175,9.46019554
1691753488971725,0.18836813,0.19218004,0.00635649,9.77427769
1691753488975602,0.10470576,0.14462839,0.00968148,10.18523693
1691753488979651,0.06923946,0.08194184,0.01192327,10.28147030
1691753488982361,-0.11431742,0.03738187,0.01427713,10.80877495
1691753488986114,0.05228791,0.01245510,0.01393107,10.09314537
1691753488989796,0.04214578,0.00841584,0.01292780,10.32006264
1691753488993987,0.01830227,0.04468275,0.01137797,10.33490276
1691753488997850,0.05960393,0.05865373,0.01032661,10.13695526
1691753489001885,0.01916236,0.05053187,0.01004971,10.40672588
1691753489005840,0.01840081,0.02494595,0.01024285,10.36505508
1691753489007978,0.03197807,0.02014105,0.01001285,10.22523117
1691753489011685,-0.04696773,-0.01833771,0.01012648,10.75625896
1691753489015776,0.00519590,0.05872806,0.00782918,10.27858925
1691753489021120,-0.02645927,0.04849328,0.00769626,10.53713989
1691753489022451,0.08347894,0.04724380,0.00656445,10.25130749
1691753489026163,0.01948357,0.13829303,0.00369656,10.65172482
1691753489029801,0.02921625,0.05233987,0.00478715,10.15190315
1691753489034974,0.03846498,0.01610999,0.00501705,10.21595097
1691753489037908,0.00092063,-0.01060026,0.00513743,10.47675133
1691753489041513,-0.17525397,-0.07180216,0.00587566,10.87477016
1691753489044174,-0.14354974,-0.08034398,0.00659601,10.80542278
1691753489047980,-0.04980503,-0.00634683,0.00627975,10.77978134
1691753489051723,0.26242468,0.08620303,0.00262289,9.88932228
1691753489057716,-0.02039045,0.02482083,0.00570876,10.65961170
1691753489059714,-0.02247893,0.06182344,0.00526469,10.65529823
1691753489062344,-0.10678116,-0.02936812,0.00744122,10.82357121
1691753489066019,0.14709543,0.08817137,0.00424880,10.27881432
1691753489070014,0.31366169,0.08960430,0.00207549,9.77939034
1691753489073914,-0.11226610,-0.01556219,0.00913173,10.78427982
1691753489077992,-0.11379401,-0.06225581,0.01326902,10.73560715
1691753489080573,0.14796752,-0.10883478,0.01583480,10.30522156
1691753489084722,0.19181010,-0.10759884,0.01637827,10.33297920
1691753489088918,0.20679559,-0.00321360,0.01400415,10.31567574
1691753489091485,0.17889893,0.02983397,0.01316198,10.31924248
1691753489095256,0.10753515,0.07831126,0.01248457,10.32484436
1691753489098808,0.27475378,0.10935632,0.00969393,9.84997940
1691753489102854,-0.06907142,-0.04553992,0.01400943,10.72073936
1691753489106828,-0.06450119,-0.03655455,0.01453312,10.72556496
1691753489110445,0.20283669,0.00085227,0.01422160,10.22724628
1691753489113298,0.25157174,-0.00942511,0.01447146,10.23427105
1691753489116916,0.21880384,0.03581935,0.01322322,10.25129986
1691753489121126,0.01797311,0.03444672,0.01382869,10.58092785
1691753489124776,0.05208297,0.02518334,0.01381779,10.60513115
1691753489127725,0.06750976,-0.01959808,0.01431811,10.45162773
1691753489131959,0.44439691,0.02542380,0.01176557,9.59476757
1691753489136112,0.39446741,0.04983826,0.00849736,9.72922134
1691753489139618,0.28464025,0.06428857,0.00708351,10.12313175
1691753489142428,0.24161474,0.14208269,0.00318382,10.12571907
1691753489146181,0.17251626,0.11913683,0.00282190,10.38325405
1691753489149831,-0.06298355,0.02631799,0.00519225,11.10083675
1691753489153764,-0.05892860,-0.02494942,0.00532987,11.03055859
1691753489157769,-0.11819433,-0.06218231,0.00512443,10.76850414
1691753489160469,-0.08368007,-0.09401704,0.00544141,10.70817566
1691753489164162,0.04331202,-0.04319228,0.00582633,10.67452908
1691753489167920,0.24056755,0.01730541,0.00412271,9.99456310
1691753489171782,0.53840154,0.06332388,-0.00098324,9.27755737
1691753489176599,0.11864883,0.01208363,0.00211343,10.72629833
1691753489179630,0.24272503,-0.01385783,0.00179125,10.28730106
1691753489182449,0.25024772,0.11505875,-0.00394163,9.97919464
1691753489187582,0.23526697,0.11648387,-0.00524401,10.15999317
1691753489193457,0.15668885,0.08587722,-0.00435869,10.54553890
1691753489193665,0.06156570,0.18749361,-0.00651115,10.87146091
1691753489198279,0.10870238,0.02276822,-0.00350011,10.25394154
1691753489200809,0.14292629,-0.01053144,-0.00357687,10.25550175
1691753489205947,0.13633363,0.05669013,-0.00733590,10.41442871
1691753489208210,0.07323606,0.03714266,-0.00697899,10.60027504
1691753489215263,0.03596073,-0.00235075,-0.00538855,10.57931900
1691753489215910,0.10267814,0.09784123,-0.00883702,10.30327702
1691753489219591,-0.11863030,0.05786028,-0.00430726,11.07006550
1691753489222465,0.08421016,0.03448245,-0.00340751,10.39006805
1691753489225994,0.03734151,0.08790035,-0.00343599,10.57946968
1691753489230053,0.03240151,0.00573533,-0.00066502,10.59198570
1691753489234043,-0.21635367,-0.05568171,0.00145094,11.14616871
1691753489237690,-0.18885548,-0.06050853,0.00276418,11.11005020
1691753489240661,-0.04411183,-0.03032655,0.00352006,10.68827820
1691753489244461,0.27086914,0.03109821,0.00112493,9.64195728
1691753489248795,0.09137351,0.07972930,-0.00060852,10.09346294
1691753489252032,-0.14968488,-0.01802485,0.00316948,11.15509605
1691753489256069,-0.02833387,-0.05464857,0.00490770,10.76927090
1691753489260333,0.02218512,0.02432305,0.00266648,10.32389736
1691753489262917,0.05477808,0.07569101,0.00057740,10.19828033
1691753489266893,-0.14222229,0.01404026,0.00328641,11.20682907
1691753489270244,-0.13303199,-0.02109225,0.00442080,11.18597031
1691753489273628,-0.22360820,-0.00735757,0.00508802,11.17447567
1691753489276885,-0.02900199,0.08415180,0.00203321,10.58086967
1691753489280998,0.15051739,0.03455682,0.00232431,9.98569489
1691753489284889,0.04085287,-0.02898536,0.00465802,10.25215721
1691753489288781,0.01810846,0.01276784,0.00284664,10.33609962
1691753489291495,-0.18851586,-0.00951859,0.00483142,11.10676193
1691753489295018,0.01053426,-0.00307880,0.00434619,10.49321175
1691753489298941,-0.04717218,0.05347386,0.00261964,10.65602303
1691753489302989,-0.15552463,0.01564165,0.00391677,11.02985287
1691753489305883,-0.25497055,-0.10180810,0.00617186,11.13341236
1691753489309933,-0.26934525,-0.10561156,0.00711031,10.90639496
1691753489313885,-0.27205011,-0.11471057,0.00869627,10.82630253
1691753489319441,-0.01887169,0.05091857,0.00599442,10.30303383
1691753489320148,0.19693542,-0.02608347,0.00853144,9.69299984
1691753489324252,0.11592121,0.04807154,0.00523972,10.34512901
1691753489331678,0.05845182,0.05969683,0.00469160,10.68356228
1691753489335597,0.06592399,0.02483676,0.00566200,10.47669983
1691753489335991,-0.13217209,-0.11416072,0.00903969,10.97979450
1691753489339051,-0.24277696,-0.07729252,0.00851884,11.05915356
1691753489342603,-0.24037929,-0.07374467,0.00879614,10.95513248
1691753489346142,-0.27813318,-0.15980566,0.01025768,10.79549599
1691753489350287,-0.15985879,-0.08266835,0.01159408,10.70901966
1691753489354157,-0.11545055,-0.05781527,0.01191806,10.55060768
1691753489357890,0.32132277,0.07682646,0.00597429,9.31441021
1691753489360419,0.00950809,0.09738431,0.00708271,10.65480042
1691753489364180,-0.14263861,0.00021184,0.01169769,11.08121681
1691753489371993,-0.00590817,0.05579566,0.00989578,10.48662567
1691753489372158,-0.03815543,0.01609057,0.01079261,10.57446098
1691753489378394,-0.16778447,-0.17834091,0.01376134,10.87608051
1691753489379761,-0.16674891,-0.13650465,0.01329211,10.86220646
1691753489382439,-0.23885255,-0.15010872,0.01340584,10.83746910
1691753489385922,-0.11228211,-0.09993875,0.01403709,10.74665546
1691753489390223,-0.03295153,-0.09271710,0.01452263,10.62884712
1691753489394061,-0.03702784,-0.08701398,0.01435594,10.54662132
1691753489399442,-0.07201500,-0.03613850,0.01317313,10.51063538
1691753489400239,-0.04565366,0.14923522,0.00795703,11.16909599
1691753489404370,-0.14188868,-0.12947656,0.01126616,10.35994434
1691753489408211,0.20300817,0.06432927,0.00722169,9.84334183
1691753489412112,-0.10963810,-0.12235884,0.01072078,10.59084415
1691753489415044,-0.03975253,-0.05490744,0.00975980,10.78243828
1691753489419192,-0.01384777,-0.06088235,0.00999024,10.50719833
1691753489423257,0.00761602,-0.03769113,0.00917429,10.55092335
1691753489426722,-0.04844360,-0.10981465,0.00921866,10.47091675
1691753489431123,0.02911932,-0.07150652,0.00896371,10.46989822
1691753489433240,0.25208771,0.12682521,0.00264263,9.78125668
1691753489437075,0.18460236,0.15105870,0.00138774,10.19009304
1691753489441429,0.11584619,0.08671919,0.00249494,10.37039375
1691753489450730,-0.07039332,-0.11604852,0.00526464,10.82044315
1691753489450863,-0.07414597,-0.13492265,0.00504564,10.64694786
1691753489451172,-0.16156930,-0.15121117,0.00355403,10.69616222
1691753489455086,-0.13045378,-0.10428191,0.00372690,10.63491058
1691753489460968,-0.00652308,-0.07320154,0.00450088,10.49273014
1691753489463164,0.01461496,-0.00211913,0.00344041,10.36027241
1691753489466851,0.44581932,0.35441577,-0.01523698,9.26902676
1691753489470062,-0.11436091,-0.07802919,0.00264654,10.85923576
1691753489474257,-0.16723843,-0.11101162,0.00238946,10.90877533
1691753489476790,-0.09493316,-0.11599398,0.00296019,10.73882580
1691753489480731,0.02078725,0.11140472,-0.00003971,11.10999393
1691753489486370,-0.06128953,-0.20479210,0.00309867,10.23459816
1691753489487898,0.01867409,-0.09756375,0.00286022,10.39694309
1691753489492882,0.06329868,-0.04668146,0.00226296,10.45456123
1691753489495129,0.07492514,-0.02768492,0.00191575,10.48863220
1691753489498758,0.04114114,-0.03957977,0.00209211,10.53727055
1691753489502303,0.03375265,-0.02223629,0.00172840,10.58145332
1691753489506003,0.04561373,-0.03684930,0.00192762,10.57718563
1691753489509595,0.21300422,0.17023376,-0.00502229,10.03567028
1691753489513194,0.13101733,0.14338015,-0.00421664,10.34320927
1691753489516801,-0.07521518,-0.06677294,-0.00011740,10.93733311
1691753489521232,-0.07123571,-0.08744770,0.00007427,10.86571121
1691753489525230,-0.15418753,-0.13080913,-0.00010420,10.84027100
1691753489527856,-0.05536924,-0.04341516,0.00064663,10.66838074
1691753489531490,0.00069290,-0.10493924,0.00211382,10.65672684
1691753489535024,-0.01302124,-0.04212634,0.00146056,10.66710281
1691753489538594,0.22493669,0.10619349,-0.00428563,10.11894608
1691753489542734,0.00187575,0.11132682,-0.00301054,11.29732132
1691753489547318,-0.08392430,-0.16910729,0.00080349,10.66117477
1691753489549595,-0.05861852,-0.11417097,0.00088976,10.66583252
1691753489554032,-0.06320493,-0.08427043,0.00067952,10.76140404
1691753489557689,-0.06536885,-0.05669924,0.00069729,10.68087769
1691753489561332,-0.15787213,-0.04322978,0.00160259,10.81720924
1691753489567197,-0.09506053,-0.06010507,0.00236452,10.75659466
1691753489567754,-0.00004490,-0.10327222,0.00389623,10.61857700
1691753489571539,0.13275142,0.26037800,-0.00583383,10.63397694
1691753489575146,0.17212825,0.12343974,-0.00318134,10.03695202
1691753489579486,-0.08123799,-0.10689164,0.00194952,10.72747517
1691753489582976,-0.07267942,-0.12046771,0.00216395,10.74778461
1691753489588441,-0.05663190,0.07938548,-0.00050396,11.25455379
1691753489589570,-0.18998879,-0.14735900,0.00229033,10.39009094
1691753489593114,0.26613060,-0.01643192,0.00140472,9.54760265
1691753489600363,-0.05452910,-0.07923654,0.00186471,10.77516174
1691753489601074,-0.12157618,-0.11730326,0.00185132,10.95915985
1691753489605978,-0.11678471,-0.08811809,0.00170601,10.81637955
1691753489614215,0.02639263,0.18478630,-0.00343660,10.84605312
1691753489614334,0.06618873,0.09094765,-0.00272863,10.23441887
1691753489616556,-0.01161900,0.02333536,-0.00147390,10.54872799
1691753489618608,-0.25235966,-0.26741278,-0.00069832,10.83777428
1691753489622346,-0.11727243,-0.16049515,0.00161943,10.86246014
1691753489627994,-0.08659482,-0.08438573,0.00139865,10.86393547
1691753489630557,-0.04766347,-0.10054073,0.00251106,10.69886112
1691753489633368,-0.03358965,-0.00740605,0.00239100,10.55441666
1691753489637094,-0.02040864,-0.05057374,0.00335867,10.64880276
1691753489640603,-0.00405407,0.12332170,0.00019243,11.14433670
1691753489644416,-0.04663391,0.09112328,0.00092827,11.03122044
1691753489651037,0.08259821,0.00939594,0.00111967,9.66507626
1691753489651686,-0.13591731,-0.17225672,0.00308750,10.66658688
1691753489655072,-0.08508004,-0.17849325,0.00529208,10.69649410
1691753489659225,-0.07273891,-0.00866213,0.00493350,10.49559212
1691753489662331,-0.12058033,-0.03843258,0.00557317,10.79462719
1691753489665904,-0.07813518,-0.04037631,0.00654278,10.72129154
1691753489669683,0.22100191,0.12739679,0.00170964,9.99991703
1691753489673393,0.06201636,0.03546344,0.00510011,10.44929314
1691753489676928,-0.06480984,-0.03190530,0.00638335,10.86466980
1691753489680621,-0.06415168,-0.04286258,0.00681744,10.65086460
1691753489684689,-0.07281145,-0.01160149,0.00660270,10.62657547
1691753489691655,-0.16302313,0.01349290,0.00804356,10.62381458
1691753489692334,0.10898108,0.13182727,0.00455569,10.17502880
1691753489695154,-0.04633291,-0.04911894,0.00854133,10.68992138
1691753489698747,-0.06278746,-0.01390173,0.00829606,10.58454990
1691753489708725,-0.06676407,-0.02136170,0.00836956,10.62245274
1691753489709252,-0.01217732,-0.00320249,0.00826153,10.61397743
1691753489709790,-0.03981043,0.02377544,0.00797134,10.49074745
1691753489715491,-0.05021442,0.04398387,0.00771726,10.54842663
1691753489717027,-0.11965897,0.00022997,0.00918056,10.71624470
1691753489721553,-0.07929705,-0.03694637,0.00963899,10.61772633
1691753489724289,0.02034666,0.04918135,0.00860343,10.48258591
1691753489728443,0.30810276,0.19497953,0.00082514,9.82019806
1691753489732265,0.11094064,0.28261831,0.00069150,10.79199123
1691753489735442,-0.09030686,-0.04223192,0.00675067,10.50980568
1691753489740252,-0.06444847,0.13789091,0.00436514,11.16845798
1691753489742335,-0.03150391,0.10509477,0.00317288,10.85044003
1691753489746727,-0.03558849,-0.17307433,0.00597393,9.93242836
1691753489750372,0.05252459,0.15548897,0.00219045,10.57285976
1691753489754122,-0.03642252,-0.12224221,0.00504094,10.04275799
1691753489756966,0.07089064,0.19248092,0.00003453,10.61278820
1691753489760518,-0.02733490,0.10249817,0.00162786,10.91879082
1691753489764464,-0.03892534,0.05782020,0.00122526,10.74783230
1691753489771007,-0.02319047,0.06431357,0.00015486,10.60463428
1691753489775421,0.08146679,0.12260105,-0.00236132,10.07638836
1691753489778773,-0.06938148,-0.21596345,0.00012686,10.12711430
1691753489782258,0.17471738,-0.03152373,-0.00043703,9.94878292
1691753489786410,0.12486779,0.16729873,-0.00504487,10.62328148
1691753489790407,0.05255655,0.21968952,-0.00510359,10.66342068
1691753489794078,0.03474864,0.13190591,-0.00463670,10.77634239
1691753489796856,0.02001432,-0.05519143,-0.00309337,10.75371170
1691753489800567,0.07601057,0.05060068,-0.00478351,10.18495178
1691753489804364,-0.02809754,0.00360942,-0.00427757,10.57160473
1691753489808471,-0.00890625,0.00547187,-0.00457910,10.59860802
1691753489811276,-0.03191650,-0.01060383,-0.00457573,10.71918583
1691753489815430,-0.05541466,0.04362016,-0.00491255,10.68458176
1691753489821864,-0.09737149,-0.31696188,-0.00432277,9.88290596
1691753489823137,0.11470797,0.16656643,-0.00790933,10.50520897
1691753489825797,0.01166472,0.08756619,-0.00572776,10.85715294
1691753489829748,0.02940081,0.04216134,-0.00541540,10.66864872
1691753489833524,0.03049721,-0.19607703,-0.00132875,9.75016022
1691753489837691,0.15197830,0.25181326,-0.00858340,10.36930275
1691753489841532,-0.07063618,-0.14076613,-0.00195265,10.34053421
1691753489844057,0.09402900,0.17309515,-0.00558656,10.67429543
1691753489848191,0.03117541,0.08633701,-0.00377006,10.82053661
1691753489851417,0.03761588,0.06421333,-0.00378330,10.65099049
1691753489855507,0.07713910,0.17671283,-0.00626292,10.28223610
1691753489858876,-0.00045420,0.13455899,-0.00504432,10.54496098
1691753489862390,-0.06464041,0.00994308,-0.00389160,10.84290409
1691753489865867,-0.01911095,-0.03155665,-0.00361566,10.72924805
1691753489869840,0.02708288,-0.03735599,-0.00340683,10.50109959
1691753489873599,0.03550133,0.02000488,-0.00421926,10.46010780
1691753489877558,-0.09067166,-0.19208467,-0.00262853,10.21094799
1691753489881585,-0.00929237,0.07620924,-0.00364241,10.86128330
1691753489889011,0.14127256,0.15613009,-0.00680068,10.26022053
1691753489889139,0.02760046,0.04790607,-0.00411324,10.75059032
1691753489891563,0.01196585,0.04034226,-0.00399954,10.77733421
1691753489895681,0.06185450,0.03925379,-0.00416041,10.50322437
1691753489899556,0.13833424,0.14124048,-0.00713081,10.03865337
1691753489903326,0.12470547,0.12547167,-0.00753897,10.31710052
1691753489905972,-0.00843350,0.12221362,-0.00644885,10.66878605
1691753489909727,0.01304542,0.06197599,-0.00623540,10.39204693
1691753489918377,-0.00605931,0.03161761,-0.00518579,10.67532730
1691753489918505,-0.02284825,0.00065881,-0.00494490,10.63408756
1691753489920461,-0.01530315,-0.00056942,-0.00502991,10.55490971
1691753489924521,-0.01554779,-0.04841805,-0.00468806,10.59423923
1691753489928600,-0.00239669,-0.00973865,-0.00507266,10.68552589
1691753489932294,0.06774998,0.09064762,-0.00693696,10.24960232
1691753489935369,0.03626869,0.11738367,-0.00729111,10.41210365
1691753489939721,0.00076340,-0.02648371,-0.00532588,10.70688057
1691753489942894,0.00588909,-0.00304931,-0.00546016,10.71120453
1691753489948109,0.12589177,0.08327350,-0.00734534,10.26083565
1691753489950831,0.07817502,0.09192714,-0.00721032,10.27674103
1691753489953232,0.07863700,0.08487632,-0.00738981,10.32128620
1691753489957072,0.04629685,0.14294720,-0.00752567,10.42547703
1691753489960557,-0.07713417,-0.03522281,-0.00490525,10.93016148
1691753489964576,-0.06281971,-0.03704526,-0.00475806,10.74744701
1691753489968567,-0.00793222,-0.09639356,-0.00383772,10.53388500
1691753489972331,0.08583280,0.06031739,-0.00581956,10.16454315
1691753489974999,0.07091638,0.10527420,-0.00663650,10.26017284
1691753489978789,-0.01113509,0.02400723,-0.00497664,10.76815987
1691753489982686,-0.02275365,-0.03641123,-0.00399791,10.74081802
1691753489986598,0.05193136,0.05810902,-0.00551433,10.29032707
1691753489990593,0.00544758,0.04542835,-0.00529526,10.56954384
1691753489993072,0.01479462,0.10224292,-0.00556113,10.55352402
1691753489997033,-0.05175016,-0.11026410,-0.00277417,10.75779152
1691753490000603,-0.00733006,-0.07068321,-0.00256512,10.57804966
1691753490004634,0.00034132,-0.04074045,-0.00284698,10.44357300
1691753490008614,0.09745057,0.07011175,-0.00526997,10.09749413
1691753490012402,0.00419204,0.05162961,-0.00438691,10.50932789
1691753490015052,-0.04270910,0.06012492,-0.00436526,10.43775177
1691753490019588,-0.06361680,-0.08270177,-0.00290883,10.75259209
1691753490024199,0.06831674,-0.01505874,-0.00307338,10.25936031
1691753490026552,-0.01989150,-0.07717650,-0.00206805,10.58609295
1691753490030007,0.04868701,0.05892962,-0.00439722,10.19345379
1691753490033668,0.04700690,0.10623174,-0.00465991,10.33806610
1691753490037757,-0.03520265,0.00837530,-0.00272500,10.66308403
1691753490040692,-0.30758116,-0.43682623,-0.00609912,10.28542614
1691753490045204,0.02225912,0.07716348,-0.00260951,10.67952251
1691753490049091,0.08686242,0.09798037,-0.00361190,10.56406975
1691753490052603,0.04624587,0.06869982,-0.00276479,10.50745583
1691753490055023,0.04561527,0.04499551,-0.00227753,10.39951801
1691753490058918,-0.00683879,-0.06117418,-0.00050082,10.70527363
1691753490062789,0.06241963,0.01745043,-0.00180310,10.24054718
1691753490067073,0.02934518,0.02642158,-0.00193703,10.40181923
1691753490069555,0.00499161,0.02899719,-0.00198482,10.32269001
1691753490073725,-0.01635316,0.05891336,-0.00216761,10.57822609
1691753490077613,-0.04049053,-0.03117890,-0.00103753,10.52824306
1691753490081337,-0.00997184,-0.03461340,-0.00089597,10.36602783
1691753490084154,0.00346382,-0.02904985,-0.00099001,10.45595264
1691753490087941,-0.00149540,-0.01221570,-0.00135223,10.54087830
1691753490091668,-0.04504042,-0.02724888,-0.00128837,10.65151978
1691753490095806,-0.03481736,-0.02312775,-0.00141708,10.65606976
1691753490099688,-0.01492691,-0.02332224,-0.00148259,10.57828617
1691753490102162,-0.02634886,-0.01908163,-0.00156976,10.50249481
1691753490106123,-0.07902254,-0.12052068,-0.00074794,10.72184277
1691753490109654,0.05351264,-0.01758052,-0.00145969,10.26353168
1691753490113794,0.05120805,0.02894728,-0.00241807,10.33718681
1691753490117905,0.02216366,0.11819829,-0.00353925,10.31432438
1691753490121459,-0.04360161,-0.01450582,-0.00144910,10.60699940
1691753490124469,-0.08946264,-0.10004952,-0.00076891,10.87361145
1691753490127814,-0.00485878,-0.04657585,-0.00082237,10.28476524
1691753490131751,0.02695790,-0.03697994,-0.00082771,10.33493805
1691753490135742,0.05555375,-0.01801208,-0.00118468,10.35578918
1691753490138675,0.03278304,0.00335148,-0.00162037,10.36070347
1691753490142707,-0.04832099,0.00394517,-0.00159716,10.63877296
1691753490146753,-0.11308385,-0.07484321,-0.00098096,10.87225533
1691753490150526,-0.02828416,0.00253732,-0.00146168,10.21722221
1691753490153498,0.05235619,0.02677178,-0.00161896,10.27656937
1691753490157816,0.01907853,-0.00994843,-0.00089300,10.37065601
1691753490161039,0.01727100,-0.02846918,-0.00053851,10.33112907
1691753490164409,-0.04611666,-0.09761954,0.00017427,10.66150188
1691753490167760,-0.02435971,-0.01725706,-0.00066407,10.46196461
1691753490171793,-0.03009208,-0.02016820,-0.00063368,10.44355488
1691753490175729,-0.00101175,-0.02278936,-0.00049734,10.32611942
1691753490178745,0.02747354,-0.02510625,-0.00031437,10.18176556
1691753490182806,0.00906507,0.02487868,-0.00107097,10.28358078
1691753490186660,0.02662826,0.06476385,-0.00148038,10.18315601
1691753490190610,-0.01751795,0.03310046,-0.00031439,10.49766827
1691753490193213,-0.02660089,-0.02701115,0.00038822,10.55721760
1691753490196957,-0.04807650,-0.03355759,0.00051101,10.45795441
1691753490200745,-0.02528553,-0.06332230,0.00099005,10.30803967
1691753490204173,0.02145712,-0.05296726,0.00115181,10.27599907
1691753490208830,0.02011623,-0.00318223,0.00038389,10.33530617
1691753490211428,-0.00765040,-0.00810041,0.00049326,10.22789860
1691753490216396,-0.02823628,-0.03326951,0.00077463,10.53398037
1691753490221661,-0.02188670,-0.01516379,0.00047056,10.52436352
1691753490223263,-0.06503896,-0.00277299,0.00036287,10.38304520
1691753490226891,-0.01991481,0.03645097,0.00031014,10.22394180
1691753490230594,0.01654104,0.00645661,0.00101278,10.21113205
1691753490235102,0.02334856,-0.05602969,0.00213741,10.28941154
1691753490238095,0.01845939,-0.02296498,0.00162859,10.22782707
1691753490240841,-0.00450465,-0.01203042,0.00138612,10.25488853
1691753490246013,-0.03974363,-0.02910178,0.00154515,10.55333996
1691753490248786,-0.05667029,-0.01892021,0.00153299,10.48320770
1691753490251226,-0.01818455,-0.04100011,0.00198812,10.31489182
1691753490255374,0.00770611,-0.03300703,0.00199936,10.35180378
1691753490258810,0.02807529,-0.01472708,0.00183056,10.32889843
1691753490263453,0.01062937,0.01651401,0.00139373,10.32809544
1691753490266779,0.00587260,0.01379309,0.00145692,10.31202221
1691753490269565,0.00483798,0.08611684,0.00073290,10.29743195
1691753490273276,-0.03160409,-0.01341358,0.00218127,10.58279324
1691753490276930,-0.04013592,-0.02986828,0.00240784,10.38321400
1691753490280919,-0.00199602,-0.04828781,0.00274018,10.28586197
1691753490284799,0.04012315,-0.04687453,0.00291247,10.25060272
1691753490288595,0.01266556,0.00462645,0.00207017,10.14671040
1691753490291593,-0.02089816,0.01639243,0.00197877,10.16304684
1691753490295871,-0.03500594,-0.01124328,0.00225322,10.47255325
1691753490298806,-0.03182920,-0.01755481,0.00235980,10.43418312
1691753490302863,-0.00960792,-0.04386046,0.00292973,10.31419945
1691753490306925,0.01322691,0.04433155,0.00219683,10.26599121
1691753490309486,0.04175210,0.05644832,0.00239221,10.23362923
1691753490313296,0.02148629,0.01379504,0.00329341,10.34919357
1691753490316918,0.00905222,0.00802066,0.00347770,10.27839470
1691753490320995,-0.01690196,-0.01771936,0.00378586,10.45161152
1691753490324942,-0.02235778,-0.01441353,0.00368967,10.48453808
1691753490329133,-0.02001818,-0.01081221,0.00372426,10.36271286
1691753490331805,0.00156215,-0.02678612,0.00410235,10.22079372
1691753490335913,0.02640992,0.03639837,0.00311515,10.20661449
1691753490339762,0.01640303,0.02358948,0.00337782,10.20125580
1691753490342658,0.00608103,0.02303264,0.00341357,10.22219658
1691753490345972,-0.02357165,0.00042104,0.00358324,10.46027184
1691753490350005,-0.00222640,0.00781727,0.00333016,10.47431374
1691753490354347,-0.02975383,0.06951533,0.00324310,10.32917595
1691753490357091,0.01178423,0.04275401,0.00399641,10.22386360
1691753490360603,0.04033377,-0.02399956,0.00506372,10.33331776
1691753490364512,0.04449389,0.02027426,0.00435665,10.30828094
1691753490367813,0.04202265,0.00250224,0.00469319,10.22098541
1691753490371941,-0.00353496,-0.01662686,0.00485595,10.53195286
1691753490375811,-0.00665750,-0.00415516,0.00467914,10.47897243
1691753490378754,-0.01551963,0.00073485,0.00470429,10.29473877
1691753490382418,0.01779523,-0.00762537,0.00487323,10.30025864
1691753490385914,0.05027462,0.02504122,0.00431899,10.20857143
1691753490389975,0.04863577,0.04053265,0.00406400,10.17466640
1691753490394071,0.02135534,0.03798705,0.00414337,10.26434231
1691753490398118,-0.03139027,0.01098024,0.00459023,10.44709301
1691753490400391,-0.06602719,0.04051419,0.00434195,10.39010906
1691753490404131,0.02303173,0.04076774,0.00452034,10.31297588
1691753490408041,0.05034741,0.04454245,0.00496126,10.15329742
1691753490411999,0.05588723,0.00471967,0.00569333,10.31520462
1691753490416084,0.06330458,0.01193138,0.00552763,10.30841923
1691753490420980,-0.01330548,0.02039466,0.00554551,10.50816917
1691753490422271,-0.02707628,0.01539969,0.00567178,10.42951202
1691753490425939,-0.01628738,0.02534376,0.00555320,10.41960526
1691753490430008,0.05301916,-0.02776846,0.00646962,10.25628662
1691753490437208,0.04251797,-0.00280723,0.00615836,10.17378426
1691753490437806,0.03347571,0.05828296,0.00509771,10.23355865
1691753490440559,0.02880536,0.03293273,0.00545253,10.26987362
1691753490444482,-0.01464901,0.00761540,0.00595546,10.49514580
1691753490448497,-0.04344071,0.02006994,0.00587714,10.38998795
1691753490451895,0.16918392,0.18284972,0.00155040,9.72657967
1691753490455122,0.04298489,0.02656805,0.00663489,10.44398117
1691753490459323,0.00922657,-0.01584252,0.00747651,10.40662479
1691753490463065,-0.01987267,0.01178437,0.00704462,10.34280300
1691753490466006,-0.00214992,0.01377834,0.00692092,10.38649464
1691753490470224,-0.02136048,-0.01127302,0.00728230,10.56384659
1691753490474080,-0.03021468,0.01550767,0.00696017,10.36606884
1691753490477815,0.00883965,-0.02581172,0.00744633,10.27415180
1691753490480428,0.05605022,-0.00369518,0.00717343,10.33978081
1691753490484151,0.01566986,0.03020108,0.00667844,10.23229027
1691753490488236,-0.00874207,0.05253534,0.00624346,10.17353153
1691753490492048,-0.01227274,-0.01132589,0.00704041,10.50644112
1691753490495233,-0.01584580,-0.00638442,0.00693037,10.39248371
1691753490498986,-0.01204256,0.00917523,0.00664002,10.22381306
1691753490503057,0.00832282,0.05891171,0.00595553,10.24475193
1691753490506029,0.06025264,0.05930938,0.00619814,10.16308022
1691753490509950,0.03492294,0.02436599,0.00683044,10.16332245
1691753490514408,0.11872481,0.16057017,0.00252041,9.90010548
1691753490516895,-0.02769095,-0.01530395,0.00658340,10.71693707
1691753490521065,-0.02423778,-0.04882651,0.00692173,10.57535076
1691753490525166,-0.02700362,-0.02507851,0.00651089,10.44601345
1691753490527751,0.00213080,-0.03461834,0.00667383,10.26963520
1691753490532038,0.06310342,-0.13388497,0.00875731,7.79402399
1691753490535770,0.03822939,-0.07238917,0.00713041,7.83065033
1691753490538687,-0.03526197,-0.09313083,0.00681835,8.05427647
1691753490542391,-0.01168076,-0.10347278,0.00688082,7.99735880
1691753490546222,0.02155805,-0.11699042,0.00711339,7.88203335
1691753490550289,0.01910290,-0.10280638,0.00666091,7.80502939
1691753490554180,-0.00524245,-0.09464627,0.00613275,7.82783127
1691753490558114,0.04575910,-0.09334870,0.00624058,7.93441248
1691753490560751,0.09358590,-0.04210079,0.00508826,7.76617384
1691753490564129,0.25039318,0.08727442,0.00021758,7.41799688
1691753490571707,0.04748260,-0.08698840,0.00483846,8.29180622
1691753490572689,0.12703258,-0.00143831,0.00281599,8.01344299
1691753490576015,-0.02218222,-0.05666352,0.00355466,8.46878624
1691753490578833,-0.03571151,-0.13008253,0.00434795,8.47010803
1691753490582449,0.01646451,-0.09751020,0.00405922,8.39581966
1691753490586012,0.03746477,-0.03646962,0.00300348,8.45431328
1691753490590026,-0.00814618,-0.08413362,0.00361289,8.64772129
1691753490593180,0.01489126,-0.12256191,0.00427928,8.72477150
1691753490597161,-0.02436950,-0.02559399,0.00245741,8.84229469
1691753490601268,-0.02336553,-0.07005788,0.00283752,8.89605045
1691753490605730,0.01224423,-0.05806744,0.00263718,8.84113121
1691753490609366,-0.02156267,-0.05948381,0.00237975,9.00127029
1691753490612761,-0.03504156,-0.03263739,0.00180302,9.14548492
1691753490615979,0.00336061,-0.01451742,0.00143791,9.07729244
1691753490618746,0.00674473,-0.00384938,0.00116419,9.15909576
1691753490622421,0.00191387,-0.01110297,0.00120597,9.28118038
1691753490626124,-0.00515414,0.01920450,0.00086901,9.40554523
1691753490630280,0.04764391,0.04761913,-0.00000962,9.29232883
1691753490634363,-0.02478023,0.00468548,0.00088787,9.54800224
1691753490636886,-0.03469753,0.01671413,0.00064210,9.66651917
1691753490640619,-0.04049880,0.01983580,0.00043609,9.71329117
1691753490644168,-0.04186226,0.02044118,0.00026625,9.74625015
1691753490648237,-0.03997595,0.00809523,0.00027225,9.76455593
1691753490652172,-0.03864408,0.04263531,-0.00003165,9.80048752
1691753490655061,-0.04260804,0.05070509,0.00002640,9.83719540
1691753490658684,-0.03845066,0.04932962,0.00047549,9.85040665
1691753490662747,-0.04031013,0.03430376,0.00070014,9.87564373
1691753490666135,-0.03870268,0.03880706,0.00058937,9.89852333
1691753490670193,-0.03604464,0.04408062,0.00052274,9.92165756
1691753490674308,0.01189853,0.05412830,0.00007309,9.85692596
1691753490676853,-0.02281067,0.03537532,0.00054910,9.94404507
1691753490680538,-0.02199409,0.03575399,0.00068240,9.97614765
1691753490684238,-0.02181727,0.03783743,0.00066543,9.99648857
1691753490688401,-0.01901761,0.04025994,0.00059516,10.01473141
1691753490692178,-0.01782892,0.03840201,0.00059383,10.03562927
1691753490696176,-0.02843336,0.05275253,0.00036513,10.04624939
1691753490698721,-0.02682658,0.04551274,0.00047662,10.07277012
1691753490703369,-0.03568909,0.02842967,0.00080950,10.13984489
1691753490705910,-0.04050412,0.02900404,0.00077694,10.16860962
1691753490710185,-0.03744847,0.02745355,0.00078607,10.17291546
1691753490713265,-0.02986409,0.02765352,0.00076019,10.18554401
1691753490717267,-0.03393205,0.03453574,0.00064512,10.19803429
1691753490722087,-0.01655885,0.03018746,0.00068426,10.21638775
1691753490724999,-0.02121765,0.04560073,0.00042085,10.19854259
1691753490728180,-0.02835720,0.05746306,0.00022773,10.20409870
1691753490731540,-0.03620130,0.05400959,0.00034064,10.22645855
1691753490735019,-0.03149307,0.04443606,0.00115456,10.29905891
1691753490738708,-0.03708798,0.04415512,0.00159064,10.34151745
1691753490742371,-0.00740410,0.07959643,0.00155652,10.22015381
1691753490746399,-0.01698791,0.03218120,0.00341797,10.35612106
1691753490750269,-0.02719302,0.01711372,0.00381501,10.38171482
1691753490754177,-0.01132093,0.07447958,0.00276767,10.24596596
1691753490757291,-0.03794214,0.02937435,0.00368735,10.40330982
1691753490760518,-0.04839544,0.00388242,0.00408580,10.46386433
1691753490765137,-0.04838355,0.02391305,0.00380370,10.44149590
1691753490768365,-0.01346132,0.07163215,0.00281977,10.27495956
1691753490772295,-0.02782631,0.02544455,0.00368362,10.38074875
1691753490775436,-0.02860239,0.04581705,0.00340092,10.33952141
1691753490779207,-0.03427621,0.05486574,0.00328383,10.33689785
1691753490783200,-0.03111183,0.03596734,0.00347823,10.34767056
1691753490785732,-0.04237488,0.01451459,0.00382555,10.43945217
1691753490789845,-0.04607606,0.02595265,0.00358152,10.46082401
1691753490793196,-0.04847965,0.02588701,0.00366569,10.42191696
1691753490798325,-0.02974672,0.04191714,0.00468550,10.34290409
1691753490801603,-0.01874257,0.04602718,0.00529167,10.32218075
1691753490805179,-0.02552480,0.04225388,0.00531228,10.36783695
1691753490807672,-0.04436134,0.02477942,0.00566631,10.44875622
1691753490811277,-0.04612782,0.02071938,0.00574709,10.44427490
1691753490816183,-0.04387198,0.02299636,0.00574411,10.41247749
1691753490819394,-0.02858303,0.02497510,0.00582541,10.39023209
1691753490822419,-0.01666527,0.02945353,0.00580864,10.33483219
1691753490825849,-0.01911254,0.04643667,0.00543280,10.29381371
1691753490829772,-0.02229046,0.03245451,0.00549582,10.36149406
1691753490833236,-0.02999017,0.02460571,0.00566323,10.35252762
1691753490836842,-0.00113022,0.05221772,0.00520723,10.24486828
1691753490840574,-0.00706843,0.01606944,0.00573705,10.33803749
1691753490844122,-0.00830376,0.04545999,0.00594966,10.27838135
1691753490848077,-0.00694950,0.04640507,0.00655427,10.27051926
1691753490851675,-0.02281647,0.01070612,0.00713454,10.37648773
1691753490855217,-0.02557611,-0.00009254,0.00714290,10.39231396
1691753490859289,-0.02577028,0.00983128,0.00709501,10.36923409
1691753490863799,-0.00683028,-0.01613448,0.00762345,10.36159420
1691753490866237,-0.00956791,0.01429201,0.00707944,10.31108189
1691753490872123,-0.00132567,0.01845666,0.00669405,10.30356598
1691753490873297,-0.00670741,0.01645389,0.00670538,10.29273701
1691753490877798,-0.02026867,0.00708898,0.00685271,10.31454945
1691753490881402,-0.01920452,0.01422952,0.00654273,10.30777740
1691753490884027,-0.01317074,0.01052636,0.00652578,10.28933430
1691753490888567,-0.00265805,0.00744433,0.00662585,10.27757072
1691753490891402,-0.00499524,0.01981068,0.00634646,10.24050045
1691753490895301,-0.00449722,0.03528993,0.00640281,10.21910667
1691753490898734,-0.01184945,-0.00875248,0.00703488,10.31149006
1691753490902385,-0.01351290,-0.00880916,0.00700541,10.30720425
1691753490906429,-0.00632598,-0.00706601,0.00688428,10.28141594
1691753490909735,-0.00054060,-0.01374996,0.00687259,10.29913044
1691753490913117,0.00520825,-0.01253724,0.00691469,10.28573322
1691753490917243,0.00063787,0.00239556,0.00668140,10.24992371
1691753490920824,0.00448778,0.00643272,0.00635979,10.24571705
1691753490925212,0.00286157,-0.01594606,0.00658515,10.29965878
1691753490928477,0.00167768,-0.01617054,0.00657748,10.29276657
1691753490931427,-0.00061570,-0.00958143,0.00624381,10.27852249
1691753490935446,0.00818066,-0.01485417,0.00613305,10.27892876
1691753490938648,0.01226739,-0.01300571,0.00617026,10.25219536
1691753490942503,0.00930101,-0.00154280,0.00595486,10.22628689
1691753490946639,0.03955712,0.03784337,0.00506596,10.17437935
1691753490950527,0.01361209,0.00325376,0.00598490,10.24156857
1691753490953225,0.00545339,-0.02934498,0.00641968,10.28718948
1691753490957644,0.00592760,-0.02983155,0.00621693,10.29608536
1691753490961529,0.01703075,-0.03938342,0.00627570,10.29923916
1691753490964168,0.02164090,-0.03818310,0.00628552,10.27735806
1691753490968064,0.01679472,-0.02667409,0.00602786,10.25235271
1691753490971383,0.02103060,-0.02568629,0.00583263,10.24928474
1691753490975069,0.02432244,-0.05417184,0.00622615,10.31278515
1691753490978741,0.02136084,-0.04987121,0.00608695,10.30208588
1691753490982430,0.00840829,-0.02944067,0.00564612,10.27366161
1691753490986434,0.01939483,-0.04113173,0.00579703,10.26663876
1691753490990509,0.03702312,-0.04849229,0.00596890,10.26392460
1691753490993136,0.02687018,-0.02678178,0.00552643,10.23249626
1691753490996992,0.02748546,-0.01978170,0.00522901,10.22579384
1691753491000499,0.02970533,-0.04844633,0.00560176,10.28469849
1691753491004525,0.01872769,-0.01367286,0.00533789,10.25535679
1691753491008574,0.01854046,-0.01883579,0.00564077,10.24720764
1691753491012261,0.02803432,-0.02156230,0.00587594,10.25287819
1691753491015078,0.05925578,-0.07923567,0.00694747,10.29606915
1691753491018597,0.04036539,-0.04121039,0.00612276,10.25339699
1691753491022563,0.04183122,-0.03645792,0.00575009,10.25866890
1691753491026581,0.03448325,-0.06147156,0.00596452,10.30897141
1691753491030676,0.03348594,-0.07202639,0.00603998,10.32297230
1691753491033149,0.01985756,-0.04547753,0.00550553,10.29450417
1691753491036812,0.03128041,-0.05636585,0.00551828,10.29648113
1691753491040631,0.04606094,-0.05992175,0.00557173,10.28349590
1691753491044500,0.04304479,-0.03877150,0.00512994,10.26103497
1691753491052274,0.02896122,-0.01981786,0.00458821,10.24069214
1691753491052791,0.03129801,-0.02933902,0.00450512,10.25963783
1691753491054983,0.03225476,-0.05456285,0.00494348,10.31491756
1691753491058807,0.02217802,-0.04366242,0.00470942,10.29904079
1691753491062579,0.02707670,-0.04850440,0.00459547,10.29430676
1691753491066513,0.04806539,-0.06345977,0.00498566,10.31417179
1691753491072223,0.04104053,-0.03891183,0.00459133,10.29442787
1691753491073480,0.02762488,-0.02016389,0.00399046,10.27294731
1691753491076826,0.02828486,-0.00256769,0.00381591,10.26680851
1691753491080662,0.02977275,-0.02861488,0.00462289,10.32293892
1691753491087905,0.01985520,-0.04441945,0.00465465,10.35811138
1691753491088434,0.02004386,-0.05045225,0.00452288,10.34486389
1691753491092271,0.04145649,-0.06139595,0.00472950,10.35833645
1691753491095037,0.03186094,-0.03425736,0.00425459,10.32910252
1691753491098782,0.02316521,-0.01113441,0.00367276,10.29987717
1691753491102553,0.02786896,-0.01514828,0.00365259,10.30629730
1691753491106722,0.01819972,-0.03420299,0.00386603,10.35396957
1691753491110608,0.00979805,-0.02347951,0.00350217,10.36317921
1691753491113235,0.01158192,-0.03078552,0.00353652,10.37444401
1691753491116879,0.02293297,-0.03876984,0.00365710,10.37881660
1691753491120818,0.02844401,-0.03350472,0.00370568,10.35152435
1691753491124714,0.03590084,0.02265404,0.00233359,10.26149940
1691753491128655,0.02783656,-0.01785160,0.00275893,10.33642006
1691753491131323,0.01797673,-0.04196807,0.00297411,10.40464592
1691753491135527,0.00089226,0.00499321,0.00220707,10.35044956
1691753491139726,0.00467724,0.01227479,0.00221772,10.34092140
1691753491142285,0.02192652,-0.03463247,0.00317839,10.38421631
1691753491146915,0.00619073,0.00163630,0.00265755,10.34038162
1691753491149682,0.00667412,0.01034720,0.00234998,10.32357025
1691753491154815,0.00203807,0.00982809,0.00215640,10.32288837
1691753491157263,-0.00031409,-0.00959512,0.00249228,10.38055706
1691753491160654,-0.01448220,0.01156826,0.00229262,10.36343765
1691753491164758,-0.01255696,0.00464695,0.00250463,10.34990978
1691753491169039,0.00592241,-0.00465222,0.00289722,10.35511494
1691753491171644,0.02134787,0.04987699,0.00178368,10.26647758
1691753491175445,-0.00580530,0.02837553,0.00229187,10.31148052
1691753491178537,-0.01383812,-0.00923283,0.00294859,10.39677620
1691753491182610,-0.00919492,0.01915550,0.00290385,10.36046696
1691753491186653,0.00441260,0.05892006,0.00270911,10.27140236
1691753491190598,-0.00479980,-0.00742479,0.00426106,10.36991310
1691753491193046,-0.00123172,-0.00515221,0.00439074,10.35851192
1691753491196956,-0.00297225,0.01106933,0.00418447,10.32993507
1691753491200685,-0.01656276,0.00361235,0.00439269,10.37357903
1691753491204789,-0.02540624,0.00594635,0.00446261,10.37166595
1691753491208685,-0.01639723,0.00255572,0.00471201,10.34686470
1691753491211233,-0.01738356,0.01367554,0.00458347,10.34230518
1691753491215033,-0.01249988,0.02534489,0.00449843,10.30412006
1691753491218726,-0.00656259,0.03109023,0.00441231,10.28952408
1691753491222665,0.01717342,0.05980725,0.00345210,10.24343586
1691753491226687,-0.01978385,0.02281842,0.00439772,10.32456589
1691753491230546,-0.02351982,0.04184606,0.00465138,10.30005836
1691753491233240,-0.01352664,0.03425285,0.00513349,10.29470062
1691753491237762,-0.00577060,0.01519082,0.00557616,10.31332493
1691753491240575,-0.01005726,0.02984253,0.00535906,10.29090786
1691753491244736,-0.01245091,0.03069546,0.00536348,10.28863335
1691753491252112,-0.01814373,0.00811354,0.00582953,10.33224869
1691753491252273,-0.02922554,0.02057512,0.00569227,10.32767296
1691753491255154,-0.00469847,0.04944925,0.00516129,10.25557232
1691753491260124,-0.00334186,0.00211313,0.00614861,10.31562328
1691753491262757,-0.00585940,0.01616789,0.00593216,10.29415607
1691753491266709,-0.01976253,0.03958162,0.00558724,10.26474857
1691753491270466,-0.02152344,0.03835945,0.00562480,10.25552082
1691753491273603,-0.02495521,0.01301779,0.00613400,10.29940605
1691753491276864,-0.03584623,0.03690429,0.00563927,10.28369999
1691753491280790,-0.00701457,0.05454345,0.00524208,10.23697281
1691753491284706,-0.00872292,0.00283336,0.00635821,10.29192924
1691753491287879,-0.00749494,0.03422719,0.00662037,10.27234840
1691753491291719,-0.01749979,0.04502580,0.00705897,10.26037502
1691753491295716,-0.00209812,0.06250066,0.00733757,10.22465134
1691753491299630,-0.01587689,0.02221743,0.00907013,10.30068684
1691753491302152,-0.02209880,-0.00362359,0.00963326,10.35332680
1691753491305985,-0.03280126,0.01249333,0.00935805,10.32883453
1691753491309900,-0.01490060,-0.01270175,0.00987080,10.34588623
1691753491313875,-0.00727723,-0.00015370,0.00971947,10.31544399
1691753491317765,-0.01778004,0.02067072,0.00941347,10.28594303
1691753491320577,0.00144697,0.04407772,0.00880184,10.24040127
1691753491324026,-0.01405860,-0.00547068,0.00975594,10.32031250
1691753491328007,-0.02279858,-0.00339321,0.00967051,10.34306622
1691753491332189,-0.02562862,0.00465663,0.00957855,10.33566666
1691753491335661,-0.00136880,0.03091880,0.00902848,10.26685810
1691753491339580,-0.00664629,-0.01151716,0.00987882,10.31690884
1691753491342654,-0.01159493,0.00721629,0.00950478,10.30165386
1691753491345910,0.00848152,0.04881756,0.00901897,10.23724937
1691753491349815,-0.01487131,0.01312006,0.01003493,10.30053711
1691753491353873,-0.01698873,-0.01213852,0.01040503,10.35153961
1691753491357855,-0.03066624,0.01069034,0.00990559,10.31454849
1691753491360725,-0.00364885,0.02918733,0.00942781,10.25854206
1691753491364099,-0.00472148,-0.01839394,0.01032371,10.31247520
1691753491368663,-0.01152614,0.00442977,0.00981031,10.29400063
1691753491371578,0.00189629,0.03450897,0.00877860,10.24048328
1691753491376048,-0.01499933,-0.02256915,0.00969678,10.32498074
1691753491379570,-0.02494312,-0.01305414,0.00932694,10.32726479
1691753491382321,-0.03333579,-0.00822087,0.00911175,10.31905174
1691753491385863,-0.00778510,0.01487068,0.00856381,10.25708485
1691753491391668,-0.01204160,-0.03010074,0.00934646,10.30736065
1691753491393758,-0.01389522,-0.01426808,0.00892434,10.28985786
1691753491396823,-0.01730807,-0.00605479,0.00858681,10.28404140
1691753491400946,-0.02183877,0.01660667,0.00848040,10.26195145
1691753491404878,-0.02445992,0.00665868,0.00885056,10.29587936
1691753491407914,-0.02550103,-0.02480562,0.00920339,10.33413887
1691753491412202,-0.00044775,0.00974130,0.00848128,10.25962830
1691753491416217,-0.00775544,-0.02497374,0.00902483,10.29603004
1691753491418535,-0.00494714,-0.01708226,0.00864889,10.29130459
1691753491422983,0.00336455,0.01789257,0.00765992,10.23599815
1691753491426871,-0.01493957,-0.01120317,0.00811297,10.26741982
1691753491429911,-0.02336005,-0.03125027,0.00807254,10.31507874
1691753491433567,-0.02462780,-0.02856000,0.00772914,10.31451416
1691753491436896,0.00905464,-0.00907586,0.00727232,10.24419880
1691753491440822,-0.01099231,-0.03971294,0.00760683,10.28908920
1691753491445094,-0.01478218,-0.02595218,0.00720704,10.27889729
1691753491447880,-0.01651622,-0.01882276,0.00698118,10.27149868
1691753491451812,-0.01675088,-0.01957755,0.00680615,10.27282524
1691753491455970,-0.02249599,-0.02267954,0.00627797,10.30771446
1691753491459650,-0.01712274,-0.00725713,0.00597813,10.29347801
1691753491462371,-0.01528298,-0.00022954,0.00606563,10.28163910
1691753491465861,-0.00907794,-0.02988225,0.00636207,10.29007435
1691753491470062,-0.00490997,-0.02134207,0.00599646,10.27982712
1691753491473933,-0.00095526,-0.01883735,0.00571112,10.26665306
1691753491478313,-0.00724994,-0.01113429,0.00522629,10.24972439
1691753491480490,-0.01193004,-0.02742373,0.00477906,10.27744007
1691753491484480,-0.00335018,-0.04389299,0.00437244,10.29673958
1691753491488375,-0.00886755,-0.02876483,0.00374339,10.27137947
1691753491492169,-0.00443530,-0.03177813,0.00356758,10.26418495
1691753491496089,-0.00005424,-0.01916287,0.00292634,10.25437069
1691753491500020,0.00589112,-0.01338161,0.00249215,10.25031281
1691753491502270,-0.00409983,-0.00701319,0.00198057,10.25314426
1691753491506032,-0.00666747,-0.02093547,0.00156149,10.28683472
1691753491510016,-0.00701451,-0.02014798,0.00107895,10.28744793
1691753491519176,-0.00094392,-0.02950739,0.00101055,10.28291798
1691753491519359,0.00376995,-0.02844518,0.00081777,10.26425457
1691753491521473,0.00601383,-0.01065336,0.00012977,10.25131798
1691753491524204,0.00900891,0.00741653,-0.00025492,10.24149036
1691753491528419,0.00951450,-0.01013257,0.00019065,10.26286030
1691753491532234,-0.00152568,0.01140350,0.00003724,10.25602531
1691753491537786,0.00157496,-0.02244149,0.00031171,10.28052807
1691753491538580,0.01645818,-0.04599626,0.00066212,10.27170753
1691753491542341,0.01904868,-0.03205084,0.00035537,10.25561905
1691753491546183,0.01694174,-0.01439050,-0.00023809,10.24468994
1691753491549969,0.02362820,-0.01903124,-0.00041738,10.24801540
1691753491554045,0.01191382,-0.02511769,-0.00043258,10.27815723
1691753491557777,0.00146382,-0.00919616,-0.00099400,10.27573681
1691753491560482,0.00724595,-0.01257730,-0.00116195,10.28154755
1691753491564184,0.01920839,-0.03078281,-0.00092891,10.27512932
1691753491568094,0.02115783,-0.01572848,-0.00124287,10.26517963
1691753491572044,0.02334796,-0.00574394,-0.00164372,10.26221752
1691753491574962,0.03032075,-0.00975862,-0.00176912,10.26577377
1691753491579310,0.01643182,-0.01700459,-0.00174547,10.29001999
1691753491583019,0.00630626,-0.00530808,-0.00206655,10.28962421
1691753491586710,0.01115540,-0.01215159,-0.00209462,10.29819489
1691753491589712,0.02287471,-0.02213343,-0.00200401,10.29355526
1691753491595326,0.02607545,-0.01010236,-0.00221258,10.27054119
1691753491597096,0.02626421,0.01395138,-0.00259075,10.25041485
1691753491601040,0.02239057,0.02210942,-0.00267262,10.25005817
1691753491605157,0.01389736,0.01783704,-0.00212453,10.26880646
1691753491607788,0.01015529,-0.01132119,-0.00160753,10.30633163
1691753491611921,0.02251068,-0.02298496,-0.00145572,10.31085682
1691753491615126,0.03915980,-0.02660387,-0.00129259,10.30749226
1691753491619086,0.04230854,-0.01943979,-0.00140280,10.29132843
