timestamp,roll,pitch,thrust,yaw,aux1,aux2,aux3,aux4
1691761070806048,1500,1500,1000,1500,1000,0,0,0
1691761070816069,1500,1500,1000,1500,1000,0,0,0
1691761070826044,1500,1500,1000,1500,1000,0,0,0
1691761070835980,1500,1500,1000,1500,1000,0,0,0
1691761070845998,1500,1500,1000,1500,1000,0,0,0
1691761070856014,1500,1500,1000,1500,1000,0,0,0
1691761070866053,1500,1500,1000,1500,1000,0,0,0
1691761070876018,1500,1500,1000,1500,1000,0,0,0
1691761070886019,1500,1500,1000,1500,1000,0,0,0
1691761070896034,1500,1500,1000,1500,1000,0,0,0
1691761070906108,1500,1500,1000,1500,1000,0,0,0
1691761070916060,1500,1500,1000,1500,1000,0,0,0
1691761070926030,1500,1500,1000,1500,1000,0,0,0
1691761070936042,1500,1500,1000,1500,1000,0,0,0
1691761070946014,1500,1500,1000,1500,1000,0,0,0
1691761070956831,1500,1506,1254,1514,1000,0,0,0
1691761070959472,1500,1507,1279,1516,1000,0,0,0
1691761070963077,1500,1506,1282,1516,1000,0,0,0
1691761070967101,1500,1504,1284,1516,1000,0,0,0
1691761070972049,1500,1507,1283,1516,1000,0,0,0
1691761070975120,1500,1507,1283,1516,1000,0,0,0
1691761070977643,1500,1506,1284,1516,1000,0,0,0
1691761070981408,1500,1507,1284,1516,1000,0,0,0
1691761070985089,1500,1504,1285,1516,1000,0,0,0
1691761070988937,1500,1507,1285,1516,1000,0,0,0
1691761070993413,1500,1507,1285,1516,1000,0,0,0
1691761070996057,1500,1507,1285,1516,1000,0,0,0
1691761071000128,1500,1502,1287,1515,1000,0,0,0
1691761071004001,1499,1499,1288,1515,1000,0,0,0
1691761071006531,1500,1504,1287,1515,1000,0,0,0
1691761071010774,1501,1506,1287,1515,1000,0,0,0
1691761071014017,1501,1507,1286,1515,1000,0,0,0
1691761071019479,1501,1507,1287,1515,1000,0,0,0
1691761071021884,1501,1505,1288,1514,1000,0,0,0
1691761071026957,1501,1506,1288,1514,1000,0,0,0
1691761071033732,1501,1506,1288,1514,1000,0,0,0
1691761071033926,1502,1509,1284,1514,1000,0,0,0
1691761071036090,1501,1505,1286,1513,1000,0,0,0
1691761071039972,1501,1499,1287,1512,1000,0,0,0
1691761071044155,1503,1509,1278,1512,1000,0,0,0
1691761071046531,1501,1499,1283,1511,1000,0,0,0
1691761071050403,1501,1501,1277,1511,1000,0,0,0
1691761071053948,1501,1500,1277,1510,1000,0,0,0
1691761071057949,1501,1504,1275,1510,1000,0,0,0
1691761071061445,1502,1511,1266,1509,1000,0,0,0
1691761071064988,1499,1496,1274,1509,1000,0,0,0
1691761071069390,1501,1501,1264,1508,1000,0,0,0
1691761071072346,1501,1501,1263,1507,1000,0,0,0
1691761071077267,1498,1491,1269,1507,1000,0,0,0
1691761071079962,1498,1493,1262,1506,1000,0,0,0
1691761071083713,1498,1488,1264,1505,1000,0,0,0
1691761071087088,1503,1509,1247,1505,1000,0,0,0
1691761071092110,1502,1510,1246,1504,1000,0,0,0
1691761071094070,1500,1502,1253,1504,1000,0,0,0
1691761071098602,1498,1491,1261,1503,1000,0,0,0
1691761071103410,1496,1489,1260,1503,1000,0,0,0
1691761071105974,1499,1495,1251,1502,1000,0,0,0
1691761071108715,1500,1501,1247,1502,1000,0,0,0
1691761071112563,1503,1506,1247,1501,1000,0,0,0
1691761071117213,1500,1506,1247,1501,1000,0,0,0
1691761071120269,1501,1509,1246,1501,1000,0,0,0
1691761071124308,1502,1506,1245,1501,1000,0,0,0
1691761071126681,1498,1504,1246,1500,1000,0,0,0
1691761071130480,1497,1498,1245,1500,1000,0,0,0
1691761071134281,1499,1498,1247,1500,1000,0,0,0
1691761071138175,1496,1481,1252,1500,1000,0,0,0
1691761071142241,1496,1483,1250,1499,1000,0,0,0
1691761071146537,1500,1490,1250,1499,1000,0,0,0
1691761071149417,1500,1498,1246,1499,1000,0,0,0
1691761071153415,1505,1504,1243,1499,1000,0,0,0
1691761071156130,1499,1490,1253,1498,1000,0,0,0
1691761071160312,1502,1512,1238,1498,1000,0,0,0
1691761071163404,1501,1512,1240,1498,1000,0,0,0
1691761071170091,1501,1507,1243,1498,1000,0,0,0
1691761071171944,1499,1502,1248,1498,1000,0,0,0
1691761071179479,1500,1502,1246,1498,1000,0,0,0
1691761071179649,1501,1501,1244,1498,1000,0,0,0
1691761071182381,1501,1500,1244,1498,1000,0,0,0
1691761071184842,1498,1485,1253,1498,1000,0,0,0
1691761071188448,1498,1483,1252,1498,1000,0,0,0
1691761071192436,1501,1504,1240,1498,1000,0,0,0
1691761071196340,1501,1505,1242,1498,1000,0,0,0
1691761071202334,1501,1502,1245,1498,1000,0,0,0
1691761071204238,1498,1498,1250,1498,1000,0,0,0
1691761071208836,1499,1497,1241,1498,1000,0,0,0
1691761071210781,1501,1505,1243,1498,1000,0,0,0
1691761071214501,1503,1504,1244,1498,1000,0,0,0
1691761071218392,1501,1501,1248,1498,1000,0,0,0
1691761071222221,1500,1498,1249,1498,1000,0,0,0
1691761071224957,1501,1499,1248,1498,1000,0,0,0
1691761071228540,1501,1500,1248,1498,1000,0,0,0
1691761071232238,1503,1502,1250,1498,1000,0,0,0
1691761071236544,1498,1485,1257,1498,1000,0,0,0
1691761071240155,1498,1489,1252,1498,1000,0,0,0
1691761071244073,1498,1494,1249,1498,1000,0,0,0
1691761071246735,1500,1495,1250,1498,1000,0,0,0
1691761071250451,1501,1497,1249,1498,1000,0,0,0
1691761071254259,1500,1494,1249,1498,1000,0,0,0
1691761071258547,1498,1490,1247,1498,1000,0,0,0
1691761071262296,1503,1501,1247,1499,1000,0,0,0
1691761071264714,1498,1488,1256,1498,1000,0,0,0
1691761071268527,1499,1493,1253,1499,1000,0,0,0
1691761071272177,1500,1494,1253,1499,1000,0,0,0
1691761071276205,1500,1493,1252,1499,1000,0,0,0
1691761071280204,1499,1493,1251,1499,1000,0,0,0
1691761071285035,1500,1493,1248,1499,1000,0,0,0
1691761071286652,1496,1490,1248,1499,1000,0,0,0
1691761071290412,1498,1498,1246,1499,1000,0,0,0
1691761071294269,1499,1494,1247,1499,1000,0,0,0
1691761071298176,1497,1487,1256,1499,1000,0,0,0
1691761071302528,1496,1494,1253,1499,1000,0,0,0
1691761071304729,1497,1497,1250,1499,1000,0,0,0
1691761071308621,1500,1494,1249,1499,1000,0,0,0
1691761071312620,1499,1494,1250,1499,1000,0,0,0
1691761071316547,1495,1492,1248,1499,1000,0,0,0
1691761071320160,1500,1500,1246,1499,1000,0,0,0
1691761071323006,1503,1505,1243,1499,1000,0,0,0
1691761071327726,1497,1492,1259,1499,1000,0,0,0
1691761071331216,1498,1490,1256,1499,1000,0,0,0
1691761071334014,1498,1490,1253,1499,1000,0,0,0
1691761071339139,1498,1493,1251,1500,1000,0,0,0
1691761071341748,1497,1493,1250,1500,1000,0,0,0
1691761071345434,1498,1493,1249,1500,1000,0,0,0
1691761071349540,1496,1494,1250,1500,1000,0,0,0
1691761071353107,1498,1500,1242,1500,1000,0,0,0
1691761071356733,1502,1507,1238,1500,1000,0,0,0
1691761071360656,1498,1494,1256,1500,1000,0,0,0
1691761071363625,1497,1497,1255,1500,1000,0,0,0
1691761071367463,1497,1496,1252,1500,1000,0,0,0
1691761071371641,1499,1495,1251,1500,1000,0,0,0
1691761071376323,1497,1496,1254,1500,1000,0,0,0
1691761071377433,1497,1497,1246,1501,1000,0,0,0
1691761071381408,1501,1505,1245,1501,1000,0,0,0
1691761071385365,1497,1491,1256,1501,1000,0,0,0
1691761071389435,1497,1497,1255,1501,1000,0,0,0
1691761071392113,1497,1499,1252,1501,1000,0,0,0
1691761071396135,1499,1497,1250,1501,1000,0,0,0
1691761071400337,1499,1499,1250,1501,1000,0,0,0
1691761071403130,1495,1497,1248,1501,1000,0,0,0
1691761071407511,1501,1503,1247,1501,1000,0,0,0
1691761071410341,1497,1491,1258,1501,1000,0,0,0
1691761071413920,1498,1498,1254,1501,1000,0,0,0
1691761071417905,1500,1500,1253,1501,1000,0,0,0
1691761071421309,1500,1500,1253,1501,1000,0,0,0
1691761071425493,1497,1502,1253,1501,1000,0,0,0
1691761071429434,1499,1499,1247,1501,1000,0,0,0
1691761071432240,1501,1506,1248,1501,1000,0,0,0
1691761071436330,1510,1532,1241,1502,1000,0,0,0
1691761071440366,1498,1498,1260,1501,1000,0,0,0
1691761071443193,1497,1493,1259,1501,1000,0,0,0
1691761071446617,1498,1494,1257,1501,1000,0,0,0
1691761071450604,1494,1486,1261,1501,1000,0,0,0
1691761071454374,1495,1494,1246,1501,1000,0,0,0
1691761071458158,1501,1504,1247,1501,1000,0,0,0
1691761071462121,1498,1501,1259,1501,1000,0,0,0
1691761071464946,1499,1499,1255,1501,1000,0,0,0
1691761071468517,1501,1499,1253,1501,1000,0,0,0
1691761071472295,1500,1500,1256,1501,1000,0,0,0
1691761071476354,1500,1495,1254,1501,1000,0,0,0
1691761071480276,1508,1514,1245,1501,1000,0,0,0
1691761071484269,1498,1490,1261,1501,1000,0,0,0
1691761071486652,1498,1492,1263,1501,1000,0,0,0
1691761071490389,1499,1505,1253,1501,1000,0,0,0
1691761071494474,1499,1507,1250,1501,1000,0,0,0
1691761071498301,1498,1494,1259,1500,1000,0,0,0
1691761071502528,1501,1507,1246,1501,1000,0,0,0
1691761071504719,1503,1516,1244,1501,1000,0,0,0
1691761071508626,1499,1501,1258,1500,1000,0,0,0
1691761071512382,1501,1504,1257,1501,1000,0,0,0
1691761071516478,1501,1505,1257,1501,1000,0,0,0
1691761071519756,1500,1503,1254,1501,1000,0,0,0
1691761071523378,1502,1497,1255,1500,1000,0,0,0
1691761071527779,1511,1515,1250,1501,1000,0,0,0
1691761071531145,1499,1487,1263,1500,1000,0,0,0
1691761071533955,1498,1490,1262,1500,1000,0,0,0
1691761071537618,1502,1506,1255,1500,1000,0,0,0
1691761071541471,1502,1509,1252,1500,1000,0,0,0
1691761071545507,1497,1495,1262,1500,1000,0,0,0
1691761071549478,1500,1495,1251,1500,1000,0,0,0
1691761071552383,1507,1524,1242,1501,1000,0,0,0
1691761071555712,1498,1502,1261,1500,1000,0,0,0
1691761071559556,1499,1498,1261,1500,1000,0,0,0
1691761071563497,1500,1508,1256,1500,1000,0,0,0
1691761071567403,1504,1514,1248,1500,1000,0,0,0
1691761071571343,1504,1505,1256,1500,1000,0,0,0
1691761071574432,1498,1488,1264,1500,1000,0,0,0
1691761071580054,1500,1494,1264,1500,1000,0,0,0
1691761071581415,1501,1499,1260,1500,1000,0,0,0
1691761071585504,1504,1513,1250,1500,1000,0,0,0
1691761071589539,1500,1511,1257,1500,1000,0,0,0
1691761071592182,1504,1520,1248,1500,1000,0,0,0
1691761071595873,1499,1496,1263,1500,1000,0,0,0
1691761071599561,1500,1496,1264,1500,1000,0,0,0
1691761071604433,1498,1496,1264,1500,1000,0,0,0
1691761071607821,1501,1499,1258,1500,1000,0,0,0
1691761071611233,1499,1500,1259,1500,1000,0,0,0
1691761071613858,1504,1516,1244,1500,1000,0,0,0
1691761071618511,1503,1505,1260,1500,1000,0,0,0
1691761071621751,1499,1494,1268,1499,1000,0,0,0
1691761071625669,1500,1498,1265,1499,1000,0,0,0
1691761071629683,1500,1498,1266,1499,1000,0,0,0
1691761071632078,1502,1504,1258,1499,1000,0,0,0
1691761071636016,1504,1510,1255,1499,1000,0,0,0
1691761071639486,1499,1499,1268,1499,1000,0,0,0
1691761071643533,1503,1512,1261,1499,1000,0,0,0
1691761071647510,1502,1512,1260,1499,1000,0,0,0
1691761071650343,1500,1501,1264,1499,1000,0,0,0
1691761071654076,1499,1491,1271,1499,1000,0,0,0
1691761071657590,1500,1497,1267,1499,1000,0,0,0
1691761071661171,1499,1501,1263,1499,1000,0,0,0
1691761071664870,1501,1516,1252,1499,1000,0,0,0
1691761071668558,1499,1499,1266,1499,1000,0,0,0
1691761071672579,1501,1495,1268,1499,1000,0,0,0
1691761071676513,1500,1498,1265,1499,1000,0,0,0
1691761071680401,1504,1517,1250,1500,1000,0,0,0
1691761071683199,1501,1502,1264,1499,1000,0,0,0
1691761071686746,1502,1504,1264,1499,1000,0,0,0
1691761071690582,1499,1495,1269,1499,1000,0,0,0
1691761071694589,1498,1503,1263,1500,1000,0,0,0
1691761071698498,1501,1500,1259,1499,1000,0,0,0
1691761071701357,1498,1495,1265,1499,1000,0,0,0
1691761071704866,1498,1493,1267,1499,1000,0,0,0
1691761071708563,1502,1506,1259,1500,1000,0,0,0
1691761071712607,1501,1504,1261,1500,1000,0,0,0
1691761071716533,1499,1504,1259,1500,1000,0,0,0
1691761071721192,1499,1504,1263,1500,1000,0,0,0
1691761071723393,1497,1499,1266,1500,1000,0,0,0
1691761071726700,1499,1499,1261,1500,1000,0,0,0
1691761071730603,1500,1499,1261,1500,1000,0,0,0
1691761071734629,1500,1501,1263,1500,1000,0,0,0
1691761071737533,1497,1497,1266,1500,1000,0,0,0
1691761071741693,1503,1503,1254,1500,1000,0,0,0
1691761071745600,1499,1492,1266,1500,1000,0,0,0
1691761071748358,1499,1498,1265,1500,1000,0,0,0
1691761071752418,1500,1498,1263,1500,1000,0,0,0
1691761071758461,1500,1499,1259,1500,1000,0,0,0
1691761071759477,1502,1509,1255,1500,1000,0,0,0
1691761071763025,1497,1496,1266,1500,1000,0,0,0
1691761071766634,1498,1494,1267,1500,1000,0,0,0
1691761071770673,1499,1498,1258,1500,1000,0,0,0
1691761071774764,1505,1523,1251,1501,1000,0,0,0
1691761071777686,1498,1495,1266,1500,1000,0,0,0
1691761071781625,1498,1480,1270,1500,1000,0,0,0
1691761071785956,1499,1490,1263,1500,1000,0,0,0
1691761071789495,1503,1515,1253,1501,1000,0,0,0
1691761071792142,1497,1490,1266,1500,1000,0,0,0
1691761071795793,1498,1490,1266,1500,1000,0,0,0
1691761071799761,1497,1491,1265,1500,1000,0,0,0
1691761071804135,1495,1488,1263,1500,1000,0,0,0
1691761071807820,1497,1493,1265,1500,1000,0,0,0
1691761071810748,1494,1493,1267,1500,1000,0,0,0
1691761071814413,1495,1497,1261,1501,1000,0,0,0
1691761071818691,1498,1494,1261,1500,1000,0,0,0
1691761071821770,1496,1483,1267,1500,1000,0,0,0
1691761071826078,1494,1486,1262,1500,1000,0,0,0
1691761071828437,1504,1526,1245,1501,1000,0,0,0
1691761071832154,1498,1498,1263,1500,1000,0,0,0
1691761071835998,1497,1494,1265,1500,1000,0,0,0
1691761071839476,1494,1496,1259,1500,1000,0,0,0
1691761071843229,1495,1488,1264,1500,1000,0,0,0
1691761071846887,1497,1495,1263,1500,1000,0,0,0
1691761071850826,1495,1497,1264,1500,1000,0,0,0
1691761071854634,1496,1499,1256,1500,1000,0,0,0
1691761071858686,1503,1517,1253,1501,1000,0,0,0
1691761071861795,1497,1491,1268,1500,1000,0,0,0
1691761071867447,1496,1490,1266,1500,1000,0,0,0
1691761071868488,1496,1491,1264,1500,1000,0,0,0
1691761071872636,1498,1492,1259,1500,1000,0,0,0
1691761071876674,1496,1494,1266,1500,1000,0,0,0
1691761071879434,1495,1494,1261,1500,1000,0,0,0
1691761071883460,1496,1497,1259,1500,1000,0,0,0
1691761071886662,1498,1500,1257,1500,1000,0,0,0
1691761071890909,1496,1493,1264,1500,1000,0,0,0
1691761071895635,1495,1498,1262,1500,1000,0,0,0
1691761071898485,1495,1499,1264,1500,1000,0,0,0
1691761071901181,1499,1502,1254,1500,1000,0,0,0
1691761071904862,1496,1499,1265,1500,1000,0,0,0
1691761071909462,1495,1498,1262,1500,1000,0,0,0
1691761071913342,1497,1500,1262,1500,1000,0,0,0
1691761071917816,1498,1498,1263,1500,1000,0,0,0
1691761071921914,1497,1489,1264,1499,1000,0,0,0
1691761071922999,1497,1500,1262,1499,1000,0,0,0
1691761071927523,1498,1500,1261,1499,1000,0,0,0
1691761071930729,1501,1499,1261,1499,1000,0,0,0
1691761071934798,1499,1502,1257,1499,1000,0,0,0
1691761071937441,1503,1524,1252,1500,1000,0,0,0
1691761071941191,1498,1501,1265,1499,1000,0,0,0
1691761071944881,1499,1497,1264,1499,1000,0,0,0
1691761071948402,1497,1499,1262,1499,1000,0,0,0
1691761071952251,1497,1505,1255,1499,1000,0,0,0
1691761071955811,1496,1491,1262,1499,1000,0,0,0
1691761071959917,1499,1498,1266,1499,1000,0,0,0
1691761071963931,1499,1503,1263,1499,1000,0,0,0
1691761071967718,1499,1503,1262,1499,1000,0,0,0
1691761071970383,1502,1506,1257,1499,1000,0,0,0
1691761071973981,1497,1489,1268,1499,1000,0,0,0
1691761071977914,1499,1504,1262,1499,1000,0,0,0
1691761071981905,1498,1506,1263,1499,1000,0,0,0
1691761071985919,1503,1505,1251,1499,1000,0,0,0
1691761071988251,1500,1497,1265,1499,1000,0,0,0
1691761071992174,1499,1504,1262,1499,1000,0,0,0
1691761071995666,1500,1505,1263,1499,1000,0,0,0
1691761072000078,1504,1509,1253,1499,1000,0,0,0
1691761072004920,1501,1501,1262,1499,1000,0,0,0
1691761072007817,1499,1506,1265,1499,1000,0,0,0
1691761072011388,1499,1506,1265,1499,1000,0,0,0
1691761072016557,1503,1506,1252,1499,1000,0,0,0
1691761072017925,1507,1530,1250,1500,1000,0,0,0
1691761072021921,1499,1504,1266,1499,1000,0,0,0
1691761072026020,1500,1500,1265,1499,1000,0,0,0
1691761072028735,1500,1499,1265,1499,1000,0,0,0
1691761072032390,1501,1504,1255,1499,1000,0,0,0
1691761072035978,1497,1504,1261,1499,1000,0,0,0
1691761072039964,1502,1498,1262,1499,1000,0,0,0
1691761072043993,1503,1499,1260,1499,1000,0,0,0
1691761072046554,1502,1503,1262,1499,1000,0,0,0
1691761072051008,1502,1508,1255,1499,1000,0,0,0
1691761072054942,1502,1498,1264,1499,1000,0,0,0
1691761072057638,1504,1505,1261,1499,1000,0,0,0
1691761072061338,1502,1508,1259,1499,1000,0,0,0
1691761072065016,1507,1530,1250,1500,1000,0,0,0
1691761072069109,1503,1500,1266,1499,1000,0,0,0
1691761072072934,1503,1498,1265,1499,1000,0,0,0
1691761072076808,1501,1499,1262,1499,1000,0,0,0
1691761072079412,1501,1490,1264,1499,1000,0,0,0
1691761072083163,1505,1504,1255,1499,1000,0,0,0
1691761072087025,1507,1525,1254,1500,1000,0,0,0
1691761072091129,1499,1498,1267,1499,1000,0,0,0
1691761072095031,1500,1498,1266,1499,1000,0,0,0
1691761072097525,1501,1497,1265,1499,1000,0,0,0
1691761072101384,1498,1501,1260,1499,1000,0,0,0
1691761072104934,1500,1498,1261,1499,1000,0,0,0
1691761072109929,1502,1501,1263,1499,1000,0,0,0
1691761072113387,1503,1502,1261,1499,1000,0,0,0
1691761072116867,1502,1503,1261,1499,1000,0,0,0
1691761072120014,1508,1524,1253,1500,1000,0,0,0
1691761072124884,1502,1499,1268,1500,1000,0,0,0
1691761072127220,1502,1495,1268,1499,1000,0,0,0
1691761072131419,1500,1500,1261,1499,1000,0,0,0
1691761072134204,1498,1498,1266,1499,1000,0,0,0
1691761072137491,1500,1483,1270,1499,1000,0,0,0
1691761072141848,1502,1497,1261,1499,1000,0,0,0
1691761072145004,1501,1502,1260,1499,1000,0,0,0
1691761072149410,1501,1500,1264,1499,1000,0,0,0
1691761072153385,1501,1502,1261,1499,1000,0,0,0
1691761072155826,1503,1502,1262,1499,1000,0,0,0
1691761072159533,1500,1499,1264,1499,1000,0,0,0
1691761072163022,1503,1502,1257,1499,1000,0,0,0
1691761072166892,1501,1493,1268,1499,1000,0,0,0
1691761072171376,1500,1498,1267,1499,1000,0,0,0
1691761072174453,1500,1499,1265,1499,1000,0,0,0
1691761072177636,1502,1496,1264,1499,1000,0,0,0
1691761072181165,1500,1497,1264,1499,1000,0,0,0
1691761072185200,1501,1494,1265,1499,1000,0,0,0
1691761072189086,1501,1494,1265,1499,1000,0,0,0
1691761072193431,1502,1498,1256,1499,1000,0,0,0
1691761072195999,1501,1491,1264,1499,1000,0,0,0
1691761072200150,1501,1494,1266,1499,1000,0,0,0
1691761072204108,1500,1496,1263,1499,1000,0,0,0
1691761072206661,1501,1505,1255,1499,1000,0,0,0
1691761072210489,1499,1497,1265,1499,1000,0,0,0
1691761072214029,1500,1497,1266,1499,1000,0,0,0
1691761072218142,1498,1496,1264,1499,1000,0,0,0
1691761072222042,1499,1503,1256,1499,1000,0,0,0
1691761072224900,1497,1491,1265,1499,1000,0,0,0
1691761072229289,1501,1495,1264,1499,1000,0,0,0
1691761072233519,1501,1496,1264,1499,1000,0,0,0
1691761072235723,1500,1498,1258,1499,1000,0,0,0
1691761072239494,1506,1516,1255,1500,1000,0,0,0
1691761072243086,1501,1492,1268,1499,1000,0,0,0
1691761072247033,1499,1489,1266,1499,1000,0,0,0
1691761072251044,1500,1491,1262,1499,1000,0,0,0
1691761072254878,1498,1491,1265,1499,1000,0,0,0
1691761072257753,1499,1487,1265,1499,1000,0,0,0
1691761072261260,1498,1494,1261,1499,1000,0,0,0
1691761072265027,1498,1498,1261,1499,1000,0,0,0
1691761072269421,1498,1495,1265,1499,1000,0,0,0
1691761072273135,1505,1515,1253,1500,1000,0,0,0
1691761072277892,1497,1495,1264,1499,1000,0,0,0
1691761072279420,1497,1492,1267,1499,1000,0,0,0
1691761072283517,1499,1494,1259,1499,1000,0,0,0
1691761072287052,1505,1514,1255,1500,1000,0,0,0
1691761072293253,1496,1489,1267,1499,1000,0,0,0
1691761072295894,1497,1487,1267,1499,1000,0,0,0
1691761072298030,1499,1489,1268,1499,1000,0,0,0
1691761072302291,1498,1491,1264,1499,1000,0,0,0
1691761072304763,1498,1496,1260,1499,1000,0,0,0
1691761072308644,1504,1514,1255,1500,1000,0,0,0
1691761072312126,1496,1483,1271,1499,1000,0,0,0
1691761072316283,1496,1491,1265,1499,1000,0,0,0
1691761072320144,1497,1497,1258,1499,1000,0,0,0
1691761072324242,1497,1491,1267,1499,1000,0,0,0
1691761072327404,1499,1493,1266,1499,1000,0,0,0
1691761072330359,1497,1496,1262,1499,1000,0,0,0
1691761072334393,1494,1497,1265,1499,1000,0,0,0
1691761072338151,1499,1491,1267,1499,1000,0,0,0
1691761072342215,1500,1491,1265,1499,1000,0,0,0
1691761072344803,1498,1494,1259,1499,1000,0,0,0
1691761072348538,1504,1515,1254,1500,1000,0,0,0
1691761072352282,1498,1492,1267,1499,1000,0,0,0
1691761072356168,1497,1491,1266,1499,1000,0,0,0
1691761072360301,1495,1493,1260,1499,1000,0,0,0
1691761072365172,1495,1494,1262,1499,1000,0,0,0
1691761072366733,1499,1493,1262,1499,1000,0,0,0
1691761072370351,1499,1496,1264,1499,1000,0,0,0
1691761072374288,1498,1498,1256,1499,1000,0,0,0
1691761072378220,1496,1489,1264,1499,1000,0,0,0
1691761072382198,1499,1497,1263,1499,1000,0,0,0
1691761072385057,1499,1499,1262,1499,1000,0,0,0
1691761072389523,1501,1499,1256,1499,1000,0,0,0
1691761072392225,1497,1486,1262,1499,1000,0,0,0
1691761072396548,1498,1495,1262,1499,1000,0,0,0
1691761072400421,1500,1498,1261,1499,1000,0,0,0
1691761072402886,1499,1499,1256,1499,1000,0,0,0
1691761072407214,1496,1500,1262,1499,1000,0,0,0
1691761072411150,1498,1499,1261,1499,1000,0,0,0
1691761072413966,1500,1500,1260,1499,1000,0,0,0
1691761072417909,1500,1503,1257,1499,1000,0,0,0
1691761072421365,1505,1522,1249,1500,1000,0,0,0
1691761072424927,1498,1498,1263,1499,1000,0,0,0
1691761072428589,1497,1498,1263,1499,1000,0,0,0
1691761072432172,1498,1497,1261,1499,1000,0,0,0
1691761072436407,1499,1497,1257,1499,1000,0,0,0
1691761072440159,1500,1498,1256,1499,1000,0,0,0
1691761072443067,1505,1515,1254,1500,1000,0,0,0
1691761072446635,1496,1489,1263,1499,1000,0,0,0
1691761072450502,1498,1495,1263,1499,1000,0,0,0
1691761072454308,1499,1498,1263,1499,1000,0,0,0
1691761072458485,1501,1502,1256,1499,1000,0,0,0
1691761072462151,1498,1496,1263,1499,1000,0,0,0
1691761072464809,1498,1502,1262,1499,1000,0,0,0
1691761072468889,1499,1503,1261,1499,1000,0,0,0
1691761072472747,1504,1524,1251,1500,1000,0,0,0
1691761072476299,1497,1495,1264,1499,1000,0,0,0
1691761072480192,1498,1498,1264,1499,1000,0,0,0
1691761072483121,1500,1499,1265,1499,1000,0,0,0
1691761072487384,1500,1500,1261,1499,1000,0,0,0
1691761072491276,1499,1503,1258,1499,1000,0,0,0
1691761072494300,1500,1507,1256,1500,1000,0,0,0
1691761072498133,1506,1523,1255,1500,1000,0,0,0
1691761072502132,1498,1499,1267,1499,1000,0,0,0
1691761072504686,1498,1499,1266,1499,1000,0,0,0
1691761072508589,1498,1499,1264,1499,1000,0,0,0
1691761072512192,1504,1520,1253,1500,1000,0,0,0
1691761072516407,1497,1495,1265,1499,1000,0,0,0
1691761072521174,1496,1496,1265,1499,1000,0,0,0
1691761072523076,1498,1499,1264,1499,1000,0,0,0
1691761072526802,1499,1502,1264,1499,1000,0,0,0
1691761072530345,1497,1503,1262,1499,1000,0,0,0
1691761072534158,1500,1506,1259,1499,1000,0,0,0
1691761072538160,1499,1497,1268,1499,1000,0,0,0
1691761072541401,1499,1503,1260,1499,1000,0,0,0
1691761072544778,1498,1504,1263,1499,1000,0,0,0
1691761072548373,1507,1521,1257,1500,1000,0,0,0
1691761072552278,1499,1497,1266,1499,1000,0,0,0
1691761072556219,1499,1499,1268,1499,1000,0,0,0
1691761072560386,1498,1500,1265,1499,1000,0,0,0
1691761072562991,1500,1499,1263,1499,1000,0,0,0
1691761072566837,1500,1503,1262,1499,1000,0,0,0
1691761072570373,1504,1522,1258,1500,1000,0,0,0
1691761072575439,1498,1500,1271,1499,1000,0,0,0
1691761072578326,1498,1495,1269,1499,1000,0,0,0
1691761072582293,1498,1499,1263,1499,1000,0,0,0
1691761072585908,1496,1494,1267,1499,1000,0,0,0
1691761072588317,1499,1494,1266,1499,1000,0,0,0
1691761072592451,1500,1496,1266,1499,1000,0,0,0
1691761072597256,1498,1500,1264,1499,1000,0,0,0
1691761072601102,1499,1503,1261,1499,1000,0,0,0
1691761072603107,1499,1492,1265,1499,1000,0,0,0
1691761072606676,1500,1497,1266,1499,1000,0,0,0
1691761072610513,1499,1500,1263,1499,1000,0,0,0
1691761072614387,1498,1492,1269,1499,1000,0,0,0
1691761072618324,1500,1498,1265,1499,1000,0,0,0
1691761072621343,1499,1502,1264,1499,1000,0,0,0
1691761072625500,1499,1505,1259,1499,1000,0,0,0
1691761072630723,1497,1494,1270,1499,1000,0,0,0
1691761072632033,1498,1498,1264,1499,1000,0,0,0
1691761072638041,1499,1500,1263,1499,1000,0,0,0
1691761072639593,1499,1505,1259,1499,1000,0,0,0
1691761072644090,1498,1492,1268,1499,1000,0,0,0
1691761072647366,1498,1496,1263,1499,1000,0,0,0
1691761072651409,1499,1499,1263,1499,1000,0,0,0
1691761072654049,1499,1498,1260,1499,1000,0,0,0
1691761072657630,1506,1515,1257,1500,1000,0,0,0
1691761072661458,1498,1493,1266,1499,1000,0,0,0
1691761072665654,1497,1492,1266,1499,1000,0,0,0
1691761072669437,1497,1492,1263,1499,1000,0,0,0
1691761072672150,1497,1494,1266,1499,1000,0,0,0
1691761072676262,1498,1493,1261,1499,1000,0,0,0
1691761072679492,1498,1496,1263,1499,1000,0,0,0
1691761072683544,1504,1514,1255,1500,1000,0,0,0
1691761072687360,1497,1492,1264,1499,1000,0,0,0
1691761072691418,1497,1493,1264,1499,1000,0,0,0
1691761072694038,1498,1495,1260,1499,1000,0,0,0
1691761072697547,1497,1496,1266,1499,1000,0,0,0
1691761072702013,1496,1495,1259,1499,1000,0,0,0
1691761072705481,1498,1493,1260,1499,1000,0,0,0
1691761072709527,1504,1512,1254,1499,1000,0,0,0
1691761072712161,1498,1487,1264,1499,1000,0,0,0
1691761072715955,1495,1490,1257,1499,1000,0,0,0
1691761072720096,1496,1493,1259,1499,1000,0,0,0
1691761072724743,1504,1512,1252,1499,1000,0,0,0
1691761072727846,1497,1488,1262,1499,1000,0,0,0
1691761072732664,1496,1491,1259,1499,1000,0,0,0
1691761072736383,1498,1494,1256,1499,1000,0,0,0
1691761072737394,1507,1512,1251,1499,1000,0,0,0
1691761072741484,1497,1489,1262,1499,1000,0,0,0
1691761072744965,1495,1491,1260,1499,1000,0,0,0
1691761072748427,1496,1494,1256,1499,1000,0,0,0
1691761072752626,1506,1515,1249,1500,1000,0,0,0
1691761072756459,1499,1490,1263,1499,1000,0,0,0
1691761072759549,1498,1491,1260,1499,1000,0,0,0
1691761072763163,1497,1493,1254,1499,1000,0,0,0
1691761072766698,1506,1512,1250,1500,1000,0,0,0
1691761072770323,1499,1516,1257,1500,1000,0,0,0
1691761072773897,1495,1485,1260,1499,1000,0,0,0
1691761072777598,1496,1487,1256,1499,1000,0,0,0
1691761072781406,1500,1490,1256,1499,1000,0,0,0
1691761072785458,1500,1496,1256,1499,1000,0,0,0
1691761072793218,1498,1499,1255,1499,1000,0,0,0
1691761072793497,1509,1517,1250,1500,1000,0,0,0
1691761072795684,1501,1495,1261,1499,1000,0,0,0
1691761072800934,1498,1494,1262,1499,1000,0,0,0
1691761072806170,1499,1497,1256,1499,1000,0,0,0
1691761072808011,1508,1516,1251,1500,1000,0,0,0
1691761072810320,1500,1517,1262,1500,1000,0,0,0
1691761072815086,1498,1517,1260,1500,1000,0,0,0
1691761072817497,1498,1482,1261,1499,1000,0,0,0
1691761072821615,1500,1486,1258,1499,1000,0,0,0
1691761072826150,1500,1493,1257,1499,1000,0,0,0
1691761072829000,1500,1497,1258,1499,1000,0,0,0
1691761072832305,1502,1497,1259,1499,1000,0,0,0
1691761072835878,1508,1517,1255,1500,1000,0,0,0
1691761072839497,1500,1496,1266,1500,1000,0,0,0
1691761072843995,1499,1495,1263,1499,1000,0,0,0
1691761072847623,1502,1498,1260,1500,1000,0,0,0
1691761072850443,1500,1492,1266,1499,1000,0,0,0
1691761072853935,1500,1501,1260,1500,1000,0,0,0
1691761072857569,1501,1502,1262,1500,1000,0,0,0
1691761072861752,1501,1505,1260,1500,1000,0,0,0
1691761072865569,1507,1524,1254,1500,1000,0,0,0
1691761072868653,1499,1495,1268,1499,1000,0,0,0
1691761072872046,1499,1497,1263,1499,1000,0,0,0
1691761072875861,1501,1500,1261,1500,1000,0,0,0
1691761072879682,1500,1502,1259,1500,1000,0,0,0
1691761072883703,1501,1502,1260,1500,1000,0,0,0
1691761072887647,1508,1519,1255,1500,1000,0,0,0
1691761072890246,1502,1520,1265,1500,1000,0,0,0
1691761072894073,1498,1495,1265,1500,1000,0,0,0
1691761072897570,1499,1494,1264,1499,1000,0,0,0
1691761072901728,1502,1498,1261,1500,1000,0,0,0
1691761072905634,1506,1517,1257,1500,1000,0,0,0
1691761072910429,1498,1493,1271,1500,1000,0,0,0
1691761072912050,1499,1494,1266,1500,1000,0,0,0
1691761072916384,1499,1498,1263,1500,1000,0,0,0
1691761072919994,1504,1519,1256,1500,1000,0,0,0
1691761072924980,1498,1495,1268,1500,1000,0,0,0
1691761072927406,1499,1494,1264,1500,1000,0,0,0
1691761072930697,1499,1499,1263,1500,1000,0,0,0
1691761072934745,1499,1501,1263,1500,1000,0,0,0
1691761072938390,1506,1519,1257,1500,1000,0,0,0
1691761072941287,1498,1494,1268,1500,1000,0,0,0
1691761072945435,1497,1496,1267,1500,1000,0,0,0
1691761072948643,1498,1500,1266,1500,1000,0,0,0
1691761072952877,1505,1517,1257,1500,1000,0,0,0
1691761072956586,1498,1498,1268,1500,1000,0,0,0
1691761072959558,1497,1499,1268,1500,1000,0,0,0
1691761072963055,1502,1516,1260,1500,1000,0,0,0
1691761072966943,1496,1494,1266,1500,1000,0,0,0
1691761072970876,1497,1497,1264,1500,1000,0,0,0
1691761072974880,1497,1499,1263,1500,1000,0,0,0
1691761072978453,1497,1499,1262,1500,1000,0,0,0
1691761072981219,1504,1517,1257,1500,1000,0,0,0
1691761072985055,1496,1496,1264,1500,1000,0,0,0
1691761072988649,1496,1495,1264,1500,1000,0,0,0
1691761072992751,1502,1513,1259,1500,1000,0,0,0
1691761072996696,1495,1499,1265,1500,1000,0,0,0
1691761072999559,1496,1489,1265,1500,1000,0,0,0
1691761073003011,1497,1492,1264,1500,1000,0,0,0
1691761073006872,1497,1496,1265,1500,1000,0,0,0
1691761073010819,1498,1499,1259,1500,1000,0,0,0
1691761073014900,1506,1519,1255,1501,1000,0,0,0
1691761073017712,1497,1496,1268,1500,1000,0,0,0
1691761073021105,1496,1494,1265,1500,1000,0,0,0
1691761073025102,1502,1514,1255,1500,1000,0,0,0
1691761073028746,1495,1492,1265,1500,1000,0,0,0
1691761073032980,1494,1493,1262,1500,1000,0,0,0
1691761073035822,1495,1495,1262,1500,1000,0,0,0
1691761073039570,1496,1498,1262,1500,1000,0,0,0
1691761073044872,1502,1516,1255,1500,1000,0,0,0
1691761073046801,1494,1489,1265,1500,1000,0,0,0
1691761073050436,1494,1494,1263,1500,1000,0,0,0
1691761073054065,1496,1496,1264,1500,1000,0,0,0
1691761073057881,1504,1514,1256,1500,1000,0,0,0
1691761073061922,1496,1494,1265,1500,1000,0,0,0
1691761073066032,1495,1494,1265,1500,1000,0,0,0
1691761073069726,1501,1513,1258,1500,1000,0,0,0
1691761073072006,1496,1490,1265,1499,1000,0,0,0
1691761073075994,1495,1491,1263,1499,1000,0,0,0
1691761073079901,1494,1495,1263,1500,1000,0,0,0
1691761073084047,1495,1498,1261,1500,1000,0,0,0
1691761073087176,1502,1513,1257,1500,1000,0,0,0
1691761073090801,1496,1483,1263,1499,1000,0,0,0
1691761073094926,1496,1492,1260,1499,1000,0,0,0
1691761073097770,1497,1495,1259,1499,1000,0,0,0
1691761073101280,1506,1514,1253,1500,1000,0,0,0
1691761073104878,1496,1491,1264,1499,1000,0,0,0
1691761073108979,1494,1493,1264,1499,1000,0,0,0
1691761073113032,1496,1493,1263,1499,1000,0,0,0
1691761073116841,1498,1493,1262,1499,1000,0,0,0
1691761073119540,1501,1515,1257,1500,1000,0,0,0
1691761073123097,1502,1518,1253,1500,1000,0,0,0
1691761073127860,1495,1490,1266,1499,1000,0,0,0
1691761073131171,1497,1487,1266,1499,1000,0,0,0
1691761073138013,1500,1507,1258,1500,1000,0,0,0
1691761073138223,1493,1493,1263,1499,1000,0,0,0
1691761073141613,1495,1487,1262,1499,1000,0,0,0
1691761073145072,1497,1491,1260,1499,1000,0,0,0
1691761073149545,1496,1493,1260,1499,1000,0,0,0
1691761073153046,1495,1496,1263,1499,1000,0,0,0
1691761073156469,1498,1492,1261,1499,1000,0,0,0
1691761073160050,1499,1495,1260,1499,1000,0,0,0
1691761073164095,1504,1516,1255,1500,1000,0,0,0
1691761073167654,1497,1492,1265,1499,1000,0,0,0
1691761073170170,1497,1492,1263,1499,1000,0,0,0
1691761073174048,1499,1494,1264,1499,1000,0,0,0
1691761073177987,1502,1512,1259,1499,1000,0,0,0
1691761073182054,1505,1514,1253,1500,1000,0,0,0
1691761073185536,1498,1490,1263,1499,1000,0,0,0
1691761073188396,1497,1488,1265,1499,1000,0,0,0
1691761073192183,1497,1490,1260,1499,1000,0,0,0
1691761073196030,1506,1510,1252,1499,1000,0,0,0
1691761073200041,1496,1487,1263,1499,1000,0,0,0
1691761073204029,1495,1492,1262,1499,1000,0,0,0
1691761073206478,1496,1494,1259,1499,1000,0,0,0
1691761073210432,1504,1512,1254,1499,1000,0,0,0
1691761073213940,1498,1490,1261,1499,1000,0,0,0
1691761073218031,1498,1494,1258,1499,1000,0,0,0
1691761073221955,1498,1497,1258,1499,1000,0,0,0
1691761073225892,1498,1498,1263,1499,1000,0,0,0
1691761073228380,1500,1495,1259,1499,1000,0,0,0
1691761073233658,1500,1499,1258,1499,1000,0,0,0
1691761073235900,1501,1501,1260,1499,1000,0,0,0
1691761073240393,1508,1521,1249,1499,1000,0,0,0
1691761073244040,1499,1494,1261,1499,1000,0,0,0
1691761073246457,1499,1497,1261,1499,1000,0,0,0
1691761073250685,1501,1496,1259,1499,1000,0,0,0
1691761073254041,1502,1500,1255,1499,1000,0,0,0
1691761073258148,1502,1501,1257,1499,1000,0,0,0
1691761073262056,1507,1517,1254,1499,1000,0,0,0
1691761073266033,1508,1518,1252,1499,1000,0,0,0
1691761073269130,1498,1493,1263,1499,1000,0,0,0
1691761073273027,1498,1496,1262,1499,1000,0,0,0
1691761073276254,1500,1497,1261,1499,1000,0,0,0
1691761073279644,1501,1500,1259,1499,1000,0,0,0
1691761073283221,1507,1519,1254,1500,1000,0,0,0
1691761073287197,1507,1519,1255,1500,1000,0,0,0
1691761073291113,1498,1501,1264,1499,1000,0,0,0
1691761073295910,1499,1494,1261,1499,1000,0,0,0
1691761073297528,1503,1496,1207,1499,1000,0,0,0
1691761073301232,1511,1520,1195,1500,1000,0,0,0
1691761073305028,1505,1525,1199,1500,1000,0,0,0
1691761073309393,1501,1487,1199,1499,1000,0,0,0
1691761073313101,1502,1493,1199,1499,1000,0,0,0
1691761073315771,1505,1497,1197,1499,1000,0,0,0
1691761073321099,1505,1497,1199,1499,1000,0,0,0
1691761073323182,1506,1497,1200,1499,1000,0,0,0
1691761073327149,1505,1498,1202,1499,1000,0,0,0
1691761073331078,1504,1497,1202,1499,1000,0,0,0
1691761073334989,1504,1500,1203,1499,1000,0,0,0
1691761073338534,1506,1502,1206,1499,1000,0,0,0
1691761073341623,1505,1504,1206,1499,1000,0,0,0
1691761073345445,1504,1502,1209,1499,1000,0,0,0
1691761073349101,1504,1501,1211,1499,1000,0,0,0
1691761073353447,1502,1498,1215,1499,1000,0,0,0
1691761073355591,1504,1506,1215,1499,1000,0,0,0
1691761073359627,1505,1507,1214,1499,1000,0,0,0
1691761073363033,1503,1505,1219,1499,1000,0,0,0
1691761073367473,1502,1503,1221,1499,1000,0,0,0
1691761073370978,1502,1501,1223,1499,1000,0,0,0
1691761073375085,1501,1497,1227,1499,1000,0,0,0
1691761073377500,1501,1504,1227,1499,1000,0,0,0
1691761073381149,1508,1517,1224,1499,1000,0,0,0
1691761073385223,1505,1512,1230,1499,1000,0,0,0
1691761073389481,1500,1501,1234,1499,1000,0,0,0
1691761073392226,1499,1499,1236,1499,1000,0,0,0
1691761073395695,1499,1499,1237,1499,1000,0,0,0
1691761073399583,1499,1499,1239,1499,1000,0,0,0
1691761073403163,1498,1498,1239,1499,1000,0,0,0
1691761073407218,1498,1499,1240,1499,1000,0,0,0
1691761073411223,1498,1499,1241,1499,1000,0,0,0
1691761073414984,1498,1499,1242,1499,1000,0,0,0
1691761073417551,1498,1499,1243,1499,1000,0,0,0
1691761073421192,1497,1499,1245,1499,1000,0,0,0
1691761073425288,1497,1499,1246,1499,1000,0,0,0
1691761073429087,1497,1499,1247,1499,1000,0,0,0
1691761073432131,1499,1505,1246,1499,1000,0,0,0
1691761073436225,1500,1506,1247,1499,1000,0,0,0
1691761073440075,1500,1506,1247,1499,1000,0,0,0
1691761073443977,1496,1500,1249,1499,1000,0,0,0
1691761073446989,1495,1497,1250,1499,1000,0,0,0
1691761073451220,1495,1497,1251,1499,1000,0,0,0
1691761073454303,1495,1497,1251,1499,1000,0,0,0
1691761073457497,1495,1497,1252,1499,1000,0,0,0
1691761073461250,1495,1497,1253,1499,1000,0,0,0
1691761073465173,1495,1497,1253,1499,1000,0,0,0
1691761073469404,1497,1501,1254,1499,1000,0,0,0
1691761073472066,1499,1502,1254,1499,1000,0,0,0
1691761073475876,1496,1494,1256,1499,1000,0,0,0
1691761073479490,1495,1495,1257,1499,1000,0,0,0
1691761073483516,1495,1495,1257,1499,1000,0,0,0
1691761073486557,1496,1495,1258,1499,1000,0,0,0
1691761073491631,1498,1503,1259,1499,1000,0,0,0
1691761073494127,1498,1503,1259,1500,1000,0,0,0
1691761073497590,1496,1492,1262,1499,1000,0,0,0
1691761073501461,1495,1494,1261,1499,1000,0,0,0
1691761073505130,1495,1495,1261,1499,1000,0,0,0
1691761073509460,1497,1501,1261,1499,1000,0,0,0
1691761073512989,1498,1502,1260,1500,1000,0,0,0
1691761073515831,1495,1491,1263,1499,1000,0,0,0
1691761073519555,1494,1493,1261,1499,1000,0,0,0
1691761073523221,1494,1494,1261,1499,1000,0,0,0
1691761073527273,1497,1500,1261,1499,1000,0,0,0
1691761073531153,1497,1502,1259,1500,1000,0,0,0
1691761073533962,1494,1493,1262,1499,1000,0,0,0
1691761073538097,1494,1493,1262,1499,1000,0,0,0
1691761073541286,1495,1494,1262,1499,1000,0,0,0
1691761073545162,1497,1500,1261,1500,1000,0,0,0
1691761073549112,1494,1490,1264,1499,1000,0,0,0
1691761073553484,1495,1491,1263,1499,1000,0,0,0
1691761073556458,1496,1493,1262,1499,1000,0,0,0
1691761073560329,1497,1500,1261,1500,1000,0,0,0
1691761073562830,1495,1490,1263,1499,1000,0,0,0
1691761073566640,1495,1493,1261,1499,1000,0,0,0
1691761073570229,1495,1495,1261,1499,1000,0,0,0
1691761073574197,1495,1496,1259,1499,1000,0,0,0
1691761073578249,1498,1501,1259,1500,1000,0,0,0
1691761073582044,1496,1494,1260,1499,1000,0,0,0
1691761073584732,1496,1496,1259,1499,1000,0,0,0
1691761073588292,1496,1496,1260,1499,1000,0,0,0
1691761073592277,1498,1502,1259,1500,1000,0,0,0
1691761073596252,1496,1493,1262,1499,1000,0,0,0
1691761073601986,1496,1495,1260,1499,1000,0,0,0
1691761073602997,1497,1496,1261,1499,1000,0,0,0
1691761073606643,1497,1496,1260,1499,1000,0,0,0
1691761073610331,1500,1503,1259,1500,1000,0,0,0
1691761073614234,1497,1493,1261,1499,1000,0,0,0
1691761073617665,1497,1495,1260,1499,1000,0,0,0
1691761073621200,1498,1495,1260,1499,1000,0,0,0
1691761073625486,1500,1501,1259,1500,1000,0,0,0
1691761073629411,1498,1494,1260,1499,1000,0,0,0
1691761073632149,1498,1495,1259,1499,1000,0,0,0
1691761073635688,1498,1496,1258,1499,1000,0,0,0
1691761073639589,1500,1502,1258,1500,1000,0,0,0
1691761073643433,1498,1498,1259,1500,1000,0,0,0
1691761073647047,1498,1497,1259,1499,1000,0,0,0
1691761073650443,1498,1497,1258,1499,1000,0,0,0
1691761073653929,1499,1498,1259,1499,1000,0,0,0
1691761073657871,1500,1502,1258,1500,1000,0,0,0
1691761073661187,1499,1495,1260,1499,1000,0,0,0
1691761073665292,1499,1497,1259,1499,1000,0,0,0
1691761073669504,1499,1498,1258,1499,1000,0,0,0
1691761073672052,1501,1502,1258,1500,1000,0,0,0
1691761073675811,1499,1499,1258,1500,1000,0,0,0
1691761073679478,1499,1497,1258,1499,1000,0,0,0
1691761073683539,1499,1498,1258,1499,1000,0,0,0
1691761073686676,1499,1498,1257,1499,1000,0,0,0
1691761073690371,1501,1502,1257,1500,1000,0,0,0
1691761073694377,1500,1496,1258,1499,1000,0,0,0
1691761073698379,1500,1498,1257,1499,1000,0,0,0
1691761073701593,1500,1498,1257,1499,1000,0,0,0
1691761073705383,1501,1502,1257,1500,1000,0,0,0
1691761073709533,1502,1506,1258,1500,1000,0,0,0
1691761073711980,1500,1499,1258,1500,1000,0,0,0
1691761073716047,1500,1498,1257,1500,1000,0,0,0
1691761073719602,1501,1498,1257,1500,1000,0,0,0
1691761073723390,1502,1503,1257,1500,1000,0,0,0
1691761073727487,1500,1496,1258,1500,1000,0,0,0
1691761073731205,1500,1498,1257,1500,1000,0,0,0
1691761073733972,1500,1499,1256,1500,1000,0,0,0
1691761073737416,1500,1499,1256,1500,1000,0,0,0
1691761073741441,1503,1504,1256,1500,1000,0,0,0
1691761073744750,1501,1498,1256,1500,1000,0,0,0
1691761073748414,1501,1500,1256,1500,1000,0,0,0
1691761073752446,1501,1500,1256,1500,1000,0,0,0
1691761073756432,1502,1504,1256,1500,1000,0,0,0
1691761073760546,1503,1505,1256,1500,1000,0,0,0
1691761073762807,1502,1498,1257,1500,1000,0,0,0
1691761073766696,1501,1500,1256,1500,1000,0,0,0
1691761073770369,1501,1500,1256,1500,1000,0,0,0
1691761073774482,1501,1500,1256,1500,1000,0,0,0
1691761073778350,1504,1504,1256,1500,1000,0,0,0
1691761073781107,1505,1506,1256,1500,1000,0,0,0
1691761073784869,1502,1500,1256,1500,1000,0,0,0
1691761073788399,1501,1500,1256,1500,1000,0,0,0
1691761073792497,1501,1500,1256,1500,1000,0,0,0
1691761073796588,1503,1504,1256,1500,1000,0,0,0
1691761073800723,1504,1505,1256,1500,1000,0,0,0
1691761073804538,1502,1497,1257,1500,1000,0,0,0
1691761073808024,1502,1499,1257,1500,1000,0,0,0
1691761073810455,1502,1500,1257,1500,1000,0,0,0
1691761073814409,1503,1504,1257,1500,1000,0,0,0
1691761073818533,1505,1505,1257,1500,1000,0,0,0
1691761073820995,1502,1498,1258,1500,1000,0,0,0
1691761073824933,1501,1499,1258,1500,1000,0,0,0
1691761073828325,1502,1499,1258,1500,1000,0,0,0
1691761073832035,1501,1500,1257,1500,1000,0,0,0
1691761073835925,1504,1505,1257,1500,1000,0,0,0
1691761073840336,1502,1500,1258,1500,1000,0,0,0
1691761073843507,1501,1500,1257,1500,1000,0,0,0
1691761073847406,1501,1501,1257,1500,1000,0,0,0
1691761073851289,1503,1506,1257,1500,1000,0,0,0
1691761073854044,1501,1502,1257,1500,1000,0,0,0
1691761073857571,1500,1501,1257,1500,1000,0,0,0
1691761073861873,1501,1502,1257,1500,1000,0,0,0
1691761073865453,1501,1501,1257,1500,1000,0,0,0
1691761073869500,1503,1506,1257,1500,1000,0,0,0
1691761073872109,1501,1500,1258,1500,1000,0,0,0
1691761073875914,1501,1501,1258,1500,1000,0,0,0
1691761073879521,1501,1501,1257,1500,1000,0,0,0
1691761073883601,1501,1501,1258,1500,1000,0,0,0
1691761073887592,1504,1508,1257,1500,1000,0,0,0
1691761073890309,1501,1501,1258,1500,1000,0,0,0
1691761073895066,1500,1501,1257,1500,1000,0,0,0
1691761073898995,1500,1501,1257,1500,1000,0,0,0
1691761073901683,1502,1506,1257,1500,1000,0,0,0
1691761073904868,1503,1508,1256,1500,1000,0,0,0
1691761073908660,1501,1500,1258,1500,1000,0,0,0
1691761073912780,1500,1500,1257,1500,1000,0,0,0
1691761073916509,1500,1501,1257,1500,1000,0,0,0
1691761073919573,1502,1504,1257,1500,1000,0,0,0
1691761073922992,1503,1506,1257,1500,1000,0,0,0
1691761073926694,1500,1499,1258,1500,1000,0,0,0
1691761073930545,1499,1500,1257,1500,1000,0,0,0
1691761073934594,1499,1500,1257,1500,1000,0,0,0
1691761073937446,1501,1503,1257,1500,1000,0,0,0
1691761073941757,1502,1506,1256,1500,1000,0,0,0
1691761073945981,1499,1500,1257,1500,1000,0,0,0
1691761073949581,1498,1499,1257,1500,1000,0,0,0
1691761073952646,1498,1500,1256,1500,1000,0,0,0
1691761073956445,1500,1503,1256,1500,1000,0,0,0
1691761073959591,1498,1501,1257,1500,1000,0,0,0
1691761073963276,1498,1499,1257,1500,1000,0,0,0
1691761073967001,1498,1499,1256,1500,1000,0,0,0
1691761073970753,1498,1500,1257,1500,1000,0,0,0
1691761073975152,1500,1503,1257,1500,1000,0,0,0
1691761073978373,1498,1500,1257,1500,1000,0,0,0
1691761073981053,1498,1498,1257,1500,1000,0,0,0
1691761073984993,1498,1498,1257,1500,1000,0,0,0
1691761073988519,1498,1498,1257,1500,1000,0,0,0
1691761073992731,1500,1502,1257,1500,1000,0,0,0
1691761073997472,1498,1496,1258,1500,1000,0,0,0
1691761073999602,1498,1497,1257,1500,1000,0,0,0
1691761074003053,1498,1498,1257,1500,1000,0,0,0
1691761074006545,1499,1502,1257,1500,1000,0,0,0
1691761074012844,1500,1504,1257,1500,1000,0,0,0
1691761074014450,1498,1497,1258,1500,1000,0,0,0
1691761074019083,1497,1497,1257,1500,1000,0,0,0
1691761074020987,1497,1498,1257,1500,1000,0,0,0
1691761074024935,1499,1502,1257,1500,1000,0,0,0
1691761074028646,1497,1498,1257,1500,1000,0,0,0
1691761074033546,1497,1497,1257,1500,1000,0,0,0
1691761074036537,1497,1497,1257,1500,1000,0,0,0
1691761074039593,1497,1497,1257,1500,1000,0,0,0
1691761074043128,1498,1501,1257,1500,1000,0,0,0
1691761074046661,1497,1495,1258,1499,1000,0,0,0
1691761074050864,1496,1497,1257,1500,1000,0,0,0
1691761074054823,1496,1498,1257,1500,1000,0,0,0
1691761074058515,1498,1501,1256,1500,1000,0,0,0
1691761074061290,1496,1496,1257,1499,1000,0,0,0
1691761074065161,1496,1497,1257,1499,1000,0,0,0
1691761074068714,1496,1498,1256,1499,1000,0,0,0
1691761074072606,1498,1501,1257,1500,1000,0,0,0
1691761074075923,1498,1503,1256,1500,1000,0,0,0
1691761074079539,1497,1498,1257,1499,1000,0,0,0
1691761074083009,1497,1497,1257,1499,1000,0,0,0
1691761074086827,1497,1497,1257,1499,1000,0,0,0
1691761074090758,1496,1498,1256,1499,1000,0,0,0
1691761074095469,1498,1501,1256,1500,1000,0,0,0
1691761074097622,1497,1493,1258,1499,1000,0,0,0
1691761074101792,1497,1495,1257,1499,1000,0,0,0
1691761074106108,1497,1497,1257,1499,1000,0,0,0
1691761074108585,1497,1498,1256,1499,1000,0,0,0
1691761074112242,1499,1501,1256,1499,1000,0,0,0
1691761074116588,1497,1495,1257,1499,1000,0,0,0
1691761074119820,1497,1497,1256,1499,1000,0,0,0
1691761074123959,1497,1497,1256,1499,1000,0,0,0
1691761074127921,1498,1500,1256,1499,1000,0,0,0
1691761074130224,1499,1502,1256,1499,1000,0,0,0
1691761074134056,1497,1496,1257,1499,1000,0,0,0
1691761074137958,1497,1496,1257,1499,1000,0,0,0
1691761074141836,1497,1497,1257,1499,1000,0,0,0
1691761074145776,1497,1498,1256,1499,1000,0,0,0
1691761074148326,1499,1501,1256,1499,1000,0,0,0
1691761074153024,1498,1495,1258,1499,1000,0,0,0
1691761074156135,1498,1497,1257,1499,1000,0,0,0
1691761074159926,1498,1498,1257,1499,1000,0,0,0
1691761074163828,1498,1498,1257,1499,1000,0,0,0
1691761074166891,1500,1501,1256,1499,1000,0,0,0
1691761074170281,1498,1500,1256,1499,1000,0,0,0
1691761074173835,1498,1498,1257,1499,1000,0,0,0
1691761074177796,1498,1498,1257,1499,1000,0,0,0
1691761074182094,1499,1498,1257,1499,1000,0,0,0
1691761074184830,1500,1502,1257,1499,1000,0,0,0
1691761074188433,1500,1505,1258,1499,1000,0,0,0
1691761074192837,1499,1497,1258,1499,1000,0,0,0
1691761074196493,1499,1497,1258,1499,1000,0,0,0
1691761074199676,1499,1498,1257,1499,1000,0,0,0
1691761074203022,1501,1501,1257,1499,1000,0,0,0
1691761074206871,1501,1502,1257,1499,1000,0,0,0
1691761074210946,1499,1495,1259,1499,1000,0,0,0
1691761074215906,1499,1497,1258,1499,1000,0,0,0
1691761074217509,1500,1498,1258,1499,1000,0,0,0
1691761074221207,1500,1498,1258,1499,1000,0,0,0
1691761074225104,1501,1502,1257,1499,1000,0,0,0
1691761074229008,1500,1495,1259,1499,1000,0,0,0
1691761074233600,1500,1497,1258,1499,1000,0,0,0
1691761074236583,1500,1498,1258,1499,1000,0,0,0
1691761074239606,1500,1498,1258,1499,1000,0,0,0
1691761074243031,1502,1502,1258,1499,1000,0,0,0
1691761074246800,1501,1494,1259,1499,1000,0,0,0
1691761074251217,1500,1497,1259,1499,1000,0,0,0
1691761074254041,1500,1498,1258,1499,1000,0,0,0
1691761074257770,1500,1499,1258,1499,1000,0,0,0
1691761074261252,1502,1503,1258,1499,1000,0,0,0
1691761074264829,1500,1501,1258,1499,1000,0,0,0
1691761074269522,1500,1499,1258,1499,1000,0,0,0
1691761074272853,1501,1499,1259,1499,1000,0,0,0
1691761074275796,1500,1500,1258,1499,1000,0,0,0
1691761074279500,1502,1505,1259,1499,1000,0,0,0
1691761074283942,1502,1509,1260,1499,1000,0,0,0
1691761074286417,1501,1499,1260,1499,1000,0,0,0
1691761074290150,1500,1499,1259,1499,1000,0,0,0
1691761074294007,1500,1500,1258,1499,1000,0,0,0
1691761074297904,1502,1504,1258,1499,1000,0,0,0
1691761074302103,1502,1506,1259,1499,1000,0,0,0
1691761074304952,1501,1499,1259,1499,1000,0,0,0
1691761074308997,1501,1498,1259,1499,1000,0,0,0
1691761074313061,1501,1498,1259,1499,1000,0,0,0
1691761074316143,1503,1503,1258,1499,1000,0,0,0
1691761074319594,1501,1496,1259,1499,1000,0,0,0
1691761074324080,1501,1498,1258,1499,1000,0,0,0
1691761074326941,1501,1499,1258,1499,1000,0,0,0
1691761074331087,1502,1503,1258,1499,1000,0,0,0
1691761074333883,1503,1505,1257,1499,1000,0,0,0
1691761074337920,1501,1500,1258,1499,1000,0,0,0
1691761074341974,1501,1499,1258,1499,1000,0,0,0
1691761074344916,1500,1500,1258,1499,1000,0,0,0
1691761074348337,1503,1505,1257,1500,1000,0,0,0
1691761074351932,1501,1500,1258,1499,1000,0,0,0
1691761074355686,1500,1499,1258,1499,1000,0,0,0
1691761074359753,1500,1499,1258,1499,1000,0,0,0
1691761074362981,1500,1500,1257,1499,1000,0,0,0
1691761074367006,1503,1505,1257,1500,1000,0,0,0
1691761074371475,1501,1498,1258,1499,1000,0,0,0
1691761074374856,1500,1499,1257,1499,1000,0,0,0
1691761074377531,1500,1500,1257,1499,1000,0,0,0
1691761074381118,1500,1500,1257,1499,1000,0,0,0
1691761074385025,1504,1506,1257,1500,1000,0,0,0
1691761074389002,1501,1499,1258,1499,1000,0,0,0
1691761074393466,1500,1500,1257,1499,1000,0,0,0
1691761074395966,1500,1500,1257,1499,1000,0,0,0
1691761074400070,1500,1500,1257,1499,1000,0,0,0
1691761074402995,1503,1505,1257,1500,1000,0,0,0
1691761074407033,1500,1499,1257,1499,1000,0,0,0
1691761074411093,1500,1499,1257,1499,1000,0,0,0
1691761074414773,1500,1499,1257,1499,1000,0,0,0
1691761074417494,1499,1500,1257,1499,1000,0,0,0
1691761074421162,1503,1506,1257,1500,1000,0,0,0
1691761074425161,1500,1500,1257,1499,1000,0,0,0
1691761074429095,1499,1500,1257,1499,1000,0,0,0
1691761074433351,1499,1500,1257,1499,1000,0,0,0
1691761074435726,1499,1500,1257,1499,1000,0,0,0
1691761074439552,1503,1506,1257,1500,1000,0,0,0
1691761074443497,1500,1500,1257,1499,1000,0,0,0
1691761074446947,1499,1500,1257,1499,1000,0,0,0
1691761074451086,1499,1500,1257,1499,1000,0,0,0
1691761074454813,1501,1504,1257,1500,1000,0,0,0
1691761074457649,1502,1506,1256,1500,1000,0,0,0
1691761074462146,1499,1500,1257,1499,1000,0,0,0
1691761074465040,1499,1500,1257,1499,1000,0,0,0
1691761074468420,1498,1499,1257,1499,1000,0,0,0
1691761074472307,1498,1500,1257,1499,1000,0,0,0
1691761074476076,1501,1504,1257,1500,1000,0,0,0
1691761074480124,1499,1499,1258,1499,1000,0,0,0
1691761074484312,1498,1498,1257,1499,1000,0,0,0
1691761074486436,1498,1499,1257,1499,1000,0,0,0
1691761074491287,1500,1502,1258,1500,1000,0,0,0
1691761074494062,1499,1495,1259,1499,1000,0,0,0
1691761074498077,1498,1498,1258,1499,1000,0,0,0
1691761074502115,1497,1499,1257,1499,1000,0,0,0
1691761074504845,1497,1499,1257,1499,1000,0,0,0
1691761074508914,1500,1503,1257,1500,1000,0,0,0
1691761074512113,1498,1499,1257,1499,1000,0,0,0
1691761074516641,1497,1499,1257,1499,1000,0,0,0
1691761074520790,1497,1499,1257,1499,1000,0,0,0
1691761074522868,1499,1503,1257,1500,1000,0,0,0
1691761074527263,1497,1500,1257,1500,1000,0,0,0
1691761074531054,1497,1498,1257,1499,1000,0,0,0
1691761074533892,1497,1499,1258,1499,1000,0,0,0
1691761074537469,1497,1499,1257,1499,1000,0,0,0
1691761074541265,1499,1503,1257,1500,1000,0,0,0
1691761074545316,1499,1506,1258,1500,1000,0,0,0
1691761074549043,1498,1499,1258,1500,1000,0,0,0
1691761074553034,1497,1499,1257,1500,1000,0,0,0
1691761074555618,1497,1499,1257,1500,1000,0,0,0
1691761074559570,1499,1502,1257,1500,1000,0,0,0
1691761074563090,1498,1504,1258,1500,1000,0,0,0
1691761074567122,1497,1498,1258,1500,1000,0,0,0
1691761074571081,1497,1497,1258,1499,1000,0,0,0
1691761074574028,1497,1497,1258,1499,1000,0,0,0
1691761074577603,1498,1501,1257,1500,1000,0,0,0
1691761074581080,1497,1499,1257,1500,1000,0,0,0
1691761074585243,1497,1497,1258,1499,1000,0,0,0
1691761074589153,1497,1497,1258,1499,1000,0,0,0
1691761074593067,1497,1498,1257,1499,1000,0,0,0
1691761074595530,1499,1502,1257,1500,1000,0,0,0
1691761074599610,1497,1498,1258,1500,1000,0,0,0
1691761074603143,1497,1497,1257,1499,1000,0,0,0
1691761074607273,1497,1498,1257,1499,1000,0,0,0
1691761074611544,1498,1502,1257,1500,1000,0,0,0
1691761074613859,1497,1496,1258,1499,1000,0,0,0
1691761074619444,1497,1498,1257,1499,1000,0,0,0
1691761074621167,1497,1498,1257,1499,1000,0,0,0
1691761074625617,1497,1498,1257,1499,1000,0,0,0
1691761074629346,1499,1502,1257,1499,1000,0,0,0
1691761074632046,1497,1497,1258,1499,1000,0,0,0
1691761074636214,1497,1498,1257,1499,1000,0,0,0
1691761074640395,1497,1498,1257,1499,1000,0,0,0
1691761074643497,1497,1498,1257,1499,1000,0,0,0
1691761074646594,1499,1503,1257,1499,1000,0,0,0
1691761074650500,1497,1498,1257,1499,1000,0,0,0
1691761074654282,1497,1498,1257,1499,1000,0,0,0
1691761074658303,1498,1498,1258,1499,1000,0,0,0
1691761074662112,1499,1501,1257,1499,1000,0,0,0
1691761074665247,1500,1503,1257,1499,1000,0,0,0
1691761074668886,1498,1497,1258,1499,1000,0,0,0
1691761074672149,1498,1498,1257,1499,1000,0,0,0
1691761074676494,1498,1498,1257,1499,1000,0,0,0
1691761074680581,1499,1501,1257,1499,1000,0,0,0
1691761074683120,1500,1502,1256,1499,1000,0,0,0
1691761074686703,1498,1497,1257,1499,1000,0,0,0
1691761074691297,1498,1498,1257,1499,1000,0,0,0
1691761074693993,1498,1498,1257,1499,1000,0,0,0
1691761074697537,1499,1501,1257,1499,1000,0,0,0
1691761074701302,1501,1503,1256,1499,1000,0,0,0
1691761074705963,1498,1499,1257,1499,1000,0,0,0
1691761074711277,1498,1498,1257,1499,1000,0,0,0
1691761074711927,1499,1498,1257,1499,1000,0,0,0
1691761074716512,1500,1501,1257,1499,1000,0,0,0
1691761074720471,1501,1503,1256,1499,1000,0,0,0
1691761074722977,1499,1497,1257,1499,1000,0,0,0
1691761074727453,1499,1498,1257,1499,1000,0,0,0
1691761074730098,1499,1498,1257,1499,1000,0,0,0
1691761074734311,1500,1501,1257,1499,1000,0,0,0
1691761074738310,1501,1502,1256,1499,1000,0,0,0
1691761074742138,1500,1495,1257,1499,1000,0,0,0
1691761074745389,1499,1497,1257,1499,1000,0,0,0
1691761074749588,1499,1498,1257,1499,1000,0,0,0
1691761074752576,1500,1497,1257,1499,1000,0,0,0
1691761074755856,1501,1501,1256,1499,1000,0,0,0
1691761074759642,1499,1496,1257,1499,1000,0,0,0
1691761074763478,1499,1497,1257,1499,1000,0,0,0
1691761074767528,1499,1498,1257,1499,1000,0,0,0
1691761074771151,1499,1498,1257,1499,1000,0,0,0
1691761074773992,1502,1502,1256,1499,1000,0,0,0
1691761074777943,1500,1498,1257,1499,1000,0,0,0
1691761074781442,1500,1498,1257,1499,1000,0,0,0
1691761074785569,1499,1499,1257,1499,1000,0,0,0
1691761074789590,1501,1502,1257,1499,1000,0,0,0
1691761074792183,1503,1503,1256,1499,1000,0,0,0
1691761074795837,1500,1497,1257,1499,1000,0,0,0
1691761074799659,1500,1498,1257,1499,1000,0,0,0
1691761074803876,1500,1498,1257,1499,1000,0,0,0
1691761074807641,1502,1502,1257,1499,1000,0,0,0
1691761074811311,1503,1503,1256,1499,1000,0,0,0
1691761074813985,1500,1497,1257,1499,1000,0,0,0
1691761074817699,1500,1498,1257,1499,1000,0,0,0
1691761074821491,1500,1498,1257,1499,1000,0,0,0
1691761074825547,1500,1499,1257,1499,1000,0,0,0
1691761074830098,1502,1502,1257,1499,1000,0,0,0
1691761074832106,1501,1496,1258,1499,1000,0,0,0
1691761074836073,1500,1497,1257,1499,1000,0,0,0
1691761074839190,1500,1498,1257,1499,1000,0,0,0
1691761074843576,1502,1501,1257,1499,1000,0,0,0
1691761074847509,1504,1503,1256,1499,1000,0,0,0
1691761074851479,1501,1497,1257,1499,1000,0,0,0
1691761074853960,1500,1498,1257,1499,1000,0,0,0
1691761074857646,1500,1498,1258,1499,1000,0,0,0
1691761074861531,1502,1502,1257,1499,1000,0,0,0
1691761074865525,1503,1503,1257,1499,1000,0,0,0
1691761074871047,1501,1498,1258,1499,1000,0,0,0
1691761074871973,1500,1498,1258,1499,1000,0,0,0
1691761074876104,1500,1498,1257,1499,1000,0,0,0
1691761074880604,1500,1499,1257,1499,1000,0,0,0
1691761074883269,1502,1502,1257,1499,1000,0,0,0
1691761074886879,1501,1496,1258,1499,1000,0,0,0
1691761074890623,1500,1498,1257,1499,1000,0,0,0
1691761074894594,1500,1499,1257,1499,1000,0,0,0
1691761074898556,1501,1502,1257,1499,1000,0,0,0
1691761074901254,1503,1504,1256,1500,1000,0,0,0
1691761074905089,1501,1499,1257,1499,1000,0,0,0
1691761074908631,1500,1498,1258,1499,1000,0,0,0
1691761074912495,1500,1498,1258,1499,1000,0,0,0
1691761074916425,1502,1502,1257,1500,1000,0,0,0
1691761074920358,1500,1500,1258,1499,1000,0,0,0
1691761074922918,1500,1498,1258,1499,1000,0,0,0
1691761074926591,1500,1498,1258,1499,1000,0,0,0
1691761074930741,1500,1498,1258,1499,1000,0,0,0
1691761074934308,1501,1502,1258,1500,1000,0,0,0
1691761074938543,1500,1500,1258,1499,1000,0,0,0
1691761074941231,1500,1498,1258,1499,1000,0,0,0
1691761074944937,1501,1498,1258,1499,1000,0,0,0
1691761074948488,1500,1498,1258,1499,1000,0,0,0
1691761074952586,1502,1502,1258,1500,1000,0,0,0
1691761074956528,1501,1495,1259,1499,1000,0,0,0
1691761074960296,1500,1497,1258,1499,1000,0,0,0
1691761074963710,1500,1498,1258,1499,1000,0,0,0
1691761074967547,1500,1498,1258,1499,1000,0,0,0
1691761074970407,1503,1504,1258,1500,1000,0,0,0
1691761074974204,1500,1499,1258,1499,1000,0,0,0
1691761074977717,1499,1499,1258,1499,1000,0,0,0
1691761074981871,1499,1499,1258,1499,1000,0,0,0
1691761074984904,1499,1500,1258,1499,1000,0,0,0
1691761074988543,1502,1506,1257,1500,1000,0,0,0
1691761074992632,1500,1501,1258,1499,1000,0,0,0
1691761074996504,1499,1500,1258,1499,1000,0,0,0
1691761074999681,1499,1500,1258,1499,1000,0,0,0
1691761075003665,1501,1505,1257,1500,1000,0,0,0
1691761075007606,1499,1499,1258,1499,1000,0,0,0
1691761075010361,1499,1499,1258,1499,1000,0,0,0
1691761075013930,1499,1500,1258,1499,1000,0,0,0
1691761075017545,1501,1504,1258,1500,1000,0,0,0
1691761075021578,1500,1507,1259,1500,1000,0,0,0
1691761075025777,1499,1500,1258,1499,1000,0,0,0
1691761075029991,1499,1499,1258,1499,1000,0,0,0
1691761075032983,1499,1499,1258,1499,1000,0,0,0
1691761075035859,1501,1502,1258,1499,1000,0,0,0
1691761075039851,1499,1496,1258,1499,1000,0,0,0
1691761075043628,1498,1499,1258,1499,1000,0,0,0
1691761075047581,1498,1499,1257,1499,1000,0,0,0
1691761075050411,1498,1499,1257,1499,1000,0,0,0
1691761075054011,1501,1504,1257,1500,1000,0,0,0
1691761075058521,1499,1500,1257,1499,1000,0,0,0
1691761075061866,1498,1500,1257,1499,1000,0,0,0
1691761075065725,1498,1500,1257,1499,1000,0,0,0
1691761075069572,1500,1505,1257,1500,1000,0,0,0
1691761075072090,1500,1507,1258,1500,1000,0,0,0
1691761075076147,1498,1501,1257,1499,1000,0,0,0
1691761075079710,1498,1500,1257,1499,1000,0,0,0
1691761075084125,1498,1500,1257,1499,1000,0,0,0
1691761075086601,1500,1504,1257,1499,1000,0,0,0
1691761075090745,1499,1506,1257,1500,1000,0,0,0
1691761075094803,1498,1501,1257,1499,1000,0,0,0
1691761075098498,1498,1500,1257,1499,1000,0,0,0
1691761075101309,1498,1500,1257,1499,1000,0,0,0
1691761075104981,1499,1504,1256,1499,1000,0,0,0
1691761075108830,1499,1506,1257,1500,1000,0,0,0
1691761075112821,1498,1500,1257,1499,1000,0,0,0
1691761075116791,1498,1500,1257,1499,1000,0,0,0
1691761075119586,1498,1499,1257,1499,1000,0,0,0
1691761075123181,1500,1503,1256,1499,1000,0,0,0
1691761075127544,1499,1497,1257,1499,1000,0,0,0
1691761075131984,1498,1498,1257,1499,1000,0,0,0
1691761075135510,1498,1499,1257,1499,1000,0,0,0
1691761075137474,1498,1499,1257,1499,1000,0,0,0
1691761075141236,1500,1503,1256,1499,1000,0,0,0
1691761075144904,1498,1499,1257,1499,1000,0,0,0
1691761075149005,1498,1499,1257,1499,1000,0,0,0
1691761075152807,1498,1499,1257,1499,1000,0,0,0
1691761075156683,1499,1503,1257,1499,1000,0,0,0
1691761075159611,1501,1505,1256,1500,1000,0,0,0
1691761075163052,1498,1500,1257,1499,1000,0,0,0
1691761075166908,1498,1500,1257,1499,1000,0,0,0
1691761075170920,1498,1500,1257,1499,1000,0,0,0
1691761075174936,1497,1500,1257,1499,1000,0,0,0
1691761075177585,1500,1505,1256,1500,1000,0,0,0
1691761075182348,1498,1499,1257,1499,1000,0,0,0
1691761075186316,1498,1499,1257,1499,1000,0,0,0
1691761075188444,1498,1500,1257,1499,1000,0,0,0
1691761075192501,1498,1500,1257,1499,1000,0,0,0
1691761075195860,1501,1505,1257,1500,1000,0,0,0
1691761075200218,1498,1500,1258,1499,1000,0,0,0
1691761075203918,1498,1500,1257,1499,1000,0,0,0
1691761075208588,1498,1499,1258,1499,1000,0,0,0
1691761075211345,1498,1499,1257,1499,1000,0,0,0
1691761075213953,1500,1505,1257,1499,1000,0,0,0
1691761075218116,1498,1500,1258,1499,1000,0,0,0
1691761075222014,1498,1499,1258,1499,1000,0,0,0
1691761075225999,1498,1499,1258,1499,1000,0,0,0
1691761075228455,1498,1499,1258,1499,1000,0,0,0
1691761075232361,1501,1505,1258,1499,1000,0,0,0
1691761075235826,1499,1499,1259,1499,1000,0,0,0
1691761075241013,1498,1499,1258,1499,1000,0,0,0
1691761075243865,1498,1499,1258,1499,1000,0,0,0
1691761075246514,1499,1499,1258,1499,1000,0,0,0
1691761075250442,1501,1505,1259,1499,1000,0,0,0
1691761075254056,1499,1498,1259,1499,1000,0,0,0
1691761075257777,1498,1499,1259,1499,1000,0,0,0
1691761075261571,1499,1499,1259,1499,1000,0,0,0
1691761075264872,1499,1499,1258,1499,1000,0,0,0
1691761075269494,1500,1504,1258,1499,1000,0,0,0
1691761075272818,1499,1499,1259,1499,1000,0,0,0
1691761075277820,1498,1499,1258,1499,1000,0,0,0
1691761075279592,1498,1499,1258,1499,1000,0,0,0
1691761075283194,1501,1505,1259,1499,1000,0,0,0
1691761075287246,1499,1500,1259,1499,1000,0,0,0
1691761075294167,1499,1499,1258,1499,1000,0,0,0
1691761075294654,1498,1499,1258,1499,1000,0,0,0
1691761075297821,1498,1499,1258,1499,1000,0,0,0
1691761075304926,1502,1505,1259,1499,1000,0,0,0
1691761075305482,1500,1498,1259,1499,1000,0,0,0
1691761075308962,1499,1498,1258,1499,1000,0,0,0
1691761075313005,1499,1499,1258,1499,1000,0,0,0
1691761075316833,1501,1503,1259,1499,1000,0,0,0
1691761075319953,1502,1504,1258,1499,1000,0,0,0
1691761075324068,1499,1499,1258,1499,1000,0,0,0
1691761075326817,1499,1498,1258,1499,1000,0,0,0
1691761075331479,1499,1498,1258,1499,1000,0,0,0
1691761075334894,1501,1502,1258,1499,1000,0,0,0
1691761075337547,1501,1503,1258,1499,1000,0,0,0
1691761075341547,1500,1498,1259,1499,1000,0,0,0
1691761075344996,1499,1497,1258,1499,1000,0,0,0
1691761075353995,1499,1498,1258,1499,1000,0,0,0
1691761075354253,1499,1498,1258,1499,1000,0,0,0
1691761075355873,1502,1503,1258,1499,1000,0,0,0
1691761075359661,1500,1498,1258,1499,1000,0,0,0
1691761075363053,1499,1498,1258,1499,1000,0,0,0
1691761075366874,1499,1498,1258,1499,1000,0,0,0
1691761075370930,1502,1503,1257,1499,1000,0,0,0
1691761075373738,1500,1497,1258,1499,1000,0,0,0
1691761075377962,1499,1498,1258,1499,1000,0,0,0
1691761075381889,1499,1498,1258,1499,1000,0,0,0
1691761075385983,1499,1498,1257,1499,1000,0,0,0
1691761075388715,1503,1504,1256,1499,1000,0,0,0
1691761075392179,1500,1499,1257,1499,1000,0,0,0
1691761075396341,1499,1498,1257,1499,1000,0,0,0
1691761075400015,1500,1498,1257,1499,1000,0,0,0
1691761075404026,1502,1503,1257,1499,1000,0,0,0
1691761075406534,1501,1507,1258,1499,1000,0,0,0
1691761075410461,1500,1499,1258,1499,1000,0,0,0
1691761075413889,1500,1498,1257,1499,1000,0,0,0
1691761075418050,1500,1498,1257,1499,1000,0,0,0
1691761075422227,1502,1502,1257,1499,1000,0,0,0
1691761075425362,1502,1503,1257,1499,1000,0,0,0
1691761075429126,1500,1497,1257,1499,1000,0,0,0
1691761075433172,1500,1497,1257,1499,1000,0,0,0
1691761075436284,1500,1498,1257,1499,1000,0,0,0
