timestamp,roll,pitch,yaw,norm_thrust
1691761070805840,0.00000000,0.00000000,0.00000000,0.00000000
1691761070815856,0.00000000,0.00000000,0.00000000,0.00000000
1691761070825842,0.00000000,0.00000000,0.00000000,0.00000000
1691761070835815,0.00000000,0.00000000,0.00000000,0.00000000
1691761070845834,0.00000000,0.00000000,0.00000000,0.00000000
1691761070855843,0.00000000,0.00000000,0.00000000,0.00000000
1691761070865842,0.00000000,0.00000000,0.00000000,0.00000000
1691761070875845,0.00000000,0.00000000,0.00000000,0.00000000
1691761070885848,0.00000000,0.00000000,0.00000000,0.00000000
1691761070895835,0.00000000,0.00000000,0.00000000,0.00000000
1691761070905841,0.00000000,0.00000000,0.00000000,0.00000000
1691761070915851,0.00000000,0.00000000,0.00000000,0.00000000
1691761070925843,0.00000000,0.00000000,0.00000000,0.00000000
1691761070935844,0.00000000,0.00000000,0.00000000,0.00000000
1691761070945854,0.00000000,0.00000000,0.00000000,0.00000000
1691761070956624,0.01369961,0.09593520,-0.20369117,11.29075623
1691761070959344,0.00938213,0.08974240,-0.20362356,11.29807568
1691761070962940,0.01173347,0.08274689,-0.20347150,11.30263615
1691761070966952,0.01049120,0.05689883,-0.20242356,11.37543774
1691761070971879,0.01137155,0.09930085,-0.20304504,11.33178997
1691761070974933,0.00888048,0.08776101,-0.20287584,11.34000015
1691761070977501,0.01029316,0.08351552,-0.20287661,11.38556671
1691761070981143,0.01053677,0.09184461,-0.20299943,11.37271214
1691761070984946,0.00844338,0.05689453,-0.20184360,11.41258621
1691761070988848,0.00644246,0.09365825,-0.20210561,11.43169975
1691761070993111,0.01141976,0.10028452,-0.20244341,11.40429115
1691761070995934,0.01088985,0.09755661,-0.20245092,11.40748692
1691761070999915,0.00347250,0.02591098,-0.19925870,11.50743961
1691761071003878,-0.00050757,-0.00659857,-0.19484772,11.53392696
1691761071006421,0.00925434,0.06973907,-0.19411324,11.50824451
1691761071010631,0.01657481,0.08343999,-0.19311661,11.48525810
1691761071013906,0.02175942,0.09778953,-0.19176674,11.45196247
1691761071019139,0.01874936,0.10043077,-0.19022927,11.48293304
1691761071021801,0.02116489,0.06794441,-0.18541087,11.52557945
1691761071026799,0.02078810,0.08202836,-0.18216918,11.54932976
1691761071033579,0.02106009,0.08559412,-0.17883441,11.51798916
1691761071033714,0.02561282,0.11891557,-0.17637253,11.37039185
1691761071035963,0.02183036,0.06916193,-0.17158556,11.45537853
1691761071039839,0.01955306,-0.01849471,-0.16090448,11.49769783
1691761071044015,0.04972306,0.12724154,-0.15797313,11.08306789
1691761071046453,0.01630368,-0.02089076,-0.14619423,11.38536453
1691761071050227,0.01237333,0.02094468,-0.14116129,11.06346798
1691761071053852,0.02557826,0.00115406,-0.13393031,11.10151386
1691761071057768,0.02354701,0.05810232,-0.12868629,10.99690628
1691761071061312,0.02533990,0.15680920,-0.12449879,10.62537575
1691761071064849,-0.01127293,-0.06361568,-0.11238896,11.03117752
1691761071069054,0.01800031,0.01903481,-0.10644253,10.53923512
1691761071072202,0.01398162,0.02187128,-0.09979151,10.55567169
1691761071077041,-0.01926557,-0.12057570,-0.08845703,10.79470730
1691761071079844,-0.01843428,-0.08108693,-0.08023978,10.45562744
1691761071083575,-0.02059723,-0.14702524,-0.06920020,10.58744240
1691761071086961,0.04939789,0.14734228,-0.06711724,9.83068275
1691761071091934,0.03277517,0.13303855,-0.06212308,9.86733437
1691761071093915,0.00222901,0.02296791,-0.05539592,10.19098282
1691761071098423,-0.01878642,-0.12554669,-0.04559800,10.48294735
1691761071103277,-0.05270734,-0.13033074,-0.03754636,10.40727997
1691761071105853,-0.00666445,-0.05122821,-0.03149695,10.01266289
1691761071108563,0.01242964,0.02556959,-0.02665283,9.89392853
1691761071112445,0.04696740,0.08965137,-0.02300979,9.91914654
1691761071117015,-0.00372486,0.08254662,-0.01951182,9.91369724
1691761071120128,0.02303199,0.11850137,-0.01747752,9.87489605
1691761071124112,0.03127070,0.07528892,-0.01444939,9.81489468
1691761071126529,-0.01999030,0.05191919,-0.01192001,9.85757256
1691761071130319,-0.03587885,-0.03203792,-0.00954123,9.80302906
1691761071134084,-0.00251144,-0.01514224,-0.00757389,9.91608715
1691761071138065,-0.05029374,-0.25963929,-0.00040977,10.10119343
1691761071142071,-0.04562482,-0.20672664,0.00318767,9.99424648
1691761071146439,0.00673994,-0.10341433,0.00643113,10.00476646
1691761071149063,0.01081393,-0.01494794,0.00864264,9.82458305
1691761071153109,0.07829385,0.06717333,0.00935038,9.71715260
1691761071155956,-0.00885895,-0.13767467,0.01565819,10.19575405
1691761071160170,0.03639217,0.18728362,0.01296613,9.48866749
1691761071163319,0.01763955,0.16225010,0.01444623,9.60974503
1691761071169903,0.02040476,0.08632503,0.01607486,9.75248241
1691761071171829,-0.01420173,0.02698724,0.01762496,9.97517776
1691761071179351,0.00557323,0.03808316,0.01792099,9.84707069
1691761071179520,0.02732542,0.01485276,0.01851357,9.75229454
1691761071182243,0.02502631,0.00881389,0.01897485,9.77520943
1691761071184722,-0.01727263,-0.20700334,0.02326072,10.20127201
1691761071188318,-0.01469263,-0.21500854,0.02497190,10.11448288
1691761071192307,0.02550247,0.08162224,0.02171912,9.55120087
1691761071196228,0.01453070,0.06700639,0.02199597,9.69098186
1691761071202171,0.01353934,0.02130064,0.02245253,9.84944725
1691761071204144,-0.01650159,-0.01959843,0.02315675,10.05024052
1691761071208693,-0.00331510,-0.03773989,0.02337498,9.63503170
1691761071210654,0.02438600,0.08068664,0.02129411,9.74797153
1691761071214376,0.05249475,0.05465433,0.02129982,9.79431820
1691761071218244,0.01819283,0.00982720,0.02192464,9.97440434
1691761071222118,0.00618877,-0.01954055,0.02188748,9.96633720
1691761071224825,0.01402078,-0.00299237,0.02117478,9.92879581
1691761071228425,0.01971452,0.00836712,0.02021482,9.95622158
1691761071232032,0.04313630,0.03843429,0.01819864,10.01109028
1691761071236415,-0.03071583,-0.20240866,0.02095070,10.33080864
1691761071240016,-0.01353185,-0.12387154,0.01993083,10.07679939
1691761071243947,-0.01445616,-0.06450597,0.01825250,9.97843552
1691761071246629,0.01311792,-0.04996876,0.01720438,10.02647209
1691761071250318,0.01615738,-0.03370104,0.01616226,9.99502087
1691761071254106,-0.00064016,-0.06925106,0.01565072,9.97798634
1691761071258366,-0.01910549,-0.12449435,0.01531694,9.87810421
1691761071262174,0.05163093,0.03432997,0.01169045,9.88630867
1691761071264601,-0.02108682,-0.15597877,0.01399837,10.31914806
1691761071268398,-0.00669008,-0.07886745,0.01234213,10.13516998
1691761071272044,0.01113798,-0.06275197,0.01147300,10.14578533
1691761071276094,0.00901959,-0.09014590,0.01146595,10.08428097
1691761071280076,-0.00718973,-0.07804024,0.01065110,10.04139423
1691761071284883,0.00160990,-0.08886015,0.01039649,9.94786549
1691761071286573,-0.04747668,-0.12310571,0.00988476,9.95899296
1691761071290284,-0.02097625,-0.00778237,0.00798088,9.83676338
1691761071294119,-0.00760535,-0.07763422,0.00891227,9.91619396
1691761071298068,-0.03469447,-0.16525504,0.00970292,10.29482651
1691761071302399,-0.04118501,-0.06553471,0.00807285,10.14007473
1691761071304653,-0.02594332,-0.02517977,0.00715038,10.02502251
1691761071308433,0.00314860,-0.06932274,0.00740743,9.99168110
1691761071312502,-0.00879737,-0.07123095,0.00684910,10.01893997
1691761071316380,-0.05818165,-0.09251996,0.00598950,9.93517780
1691761071320054,0.00797595,0.01088105,0.00352605,9.87077808
1691761071322919,0.04297166,0.07792363,0.00022714,9.71040630
1691761071327588,-0.03433219,-0.11688118,0.00288132,10.43049622
1691761071331091,-0.01490761,-0.12561265,0.00239936,10.26326370
1691761071333853,-0.01414664,-0.12057109,0.00133075,10.14701748
1691761071338947,-0.02063621,-0.08174615,-0.00019217,10.04758930
1691761071341590,-0.03253838,-0.07868721,-0.00129288,10.00919056
1691761071345199,-0.02128339,-0.08374058,-0.00262845,9.98755932
1691761071349198,-0.04040986,-0.06751350,-0.00391279,10.04461956
1691761071352980,-0.02052010,0.01510807,-0.00624396,9.64537048
1691761071356627,0.04034256,0.10520452,-0.01048630,9.52047157
1691761071360520,-0.02572525,-0.08834060,-0.00825807,10.32742691
1691761071363515,-0.03678858,-0.03178321,-0.00988454,10.22763443
1691761071367113,-0.03010530,-0.04319353,-0.01078061,10.10298920
1691761071371533,-0.00122303,-0.05817650,-0.01119682,10.07158375
1691761071376186,-0.03764988,-0.04296128,-0.01190614,10.17481232
1691761071377361,-0.02963764,-0.03167230,-0.01285449,9.81549549
1691761071381178,0.01898817,0.08395068,-0.01564564,9.83267021
1691761071385187,-0.03983572,-0.12109904,-0.01285283,10.32437038
1691761071389124,-0.03531707,-0.01980685,-0.01418647,10.23591805
1691761071391980,-0.03715515,-0.00313204,-0.01496167,10.09106159
1691761071396026,-0.00425952,-0.03005482,-0.01489305,9.99704647
1691761071400212,-0.01017985,0.00109287,-0.01556155,10.00393963
1691761071403013,-0.05604651,-0.03975538,-0.01549853,9.92638016
1691761071407368,0.02895262,0.04752618,-0.01707919,9.90221882
1691761071410173,-0.03579267,-0.12356146,-0.01463240,10.37337303
1691761071413809,-0.01788896,-0.01044695,-0.01583939,10.14826775
1691761071417776,0.00496685,0.01236689,-0.01622830,10.15224648
1691761071421180,0.01124117,0.01116544,-0.01638240,10.13907719
1691761071425264,-0.03628151,0.03105263,-0.01669660,10.13254833
1691761071429313,-0.01034405,-0.01163100,-0.01639949,9.86146355
1691761071432064,0.01954762,0.09226897,-0.01827974,9.95620823
1691761071436205,0.14535025,0.44602177,-0.02967345,9.62884617
1691761071440194,-0.03085302,-0.06139931,-0.01766698,10.51056099
1691761071443051,-0.03437522,-0.08325232,-0.01751437,10.36839581
1691761071446517,-0.01448020,-0.06727295,-0.01773099,10.30306244
1691761071450460,-0.07600784,-0.18080722,-0.01575872,10.46193504
1691761071454276,-0.05983066,-0.05361960,-0.01668423,9.80026150
1691761071457987,0.02177533,0.06879722,-0.01824085,9.92385578
1691761071462005,-0.02733063,0.01469474,-0.01738887,10.43457127
1691761071464834,-0.00806338,-0.00365867,-0.01712805,10.18476105
1691761071468400,0.01906032,-0.00492378,-0.01709362,10.11767960
1691761071472175,0.01196127,0.00732950,-0.01726825,10.25662899
1691761071476231,0.01155132,-0.06633451,-0.01533234,10.19278049
1691761071480192,0.12203083,0.20314480,-0.02095677,9.79922104
1691761071484119,-0.03462264,-0.15738638,-0.01342803,10.52687073
1691761071486549,-0.02378483,-0.08558305,-0.01282374,10.52818584
1691761071490187,0.00019117,0.09092533,-0.01462746,10.09750748
1691761071494353,-0.00143754,0.10118037,-0.01465858,10.00715923
1691761071498189,-0.02638275,-0.09073741,-0.01136222,10.43679523
1691761071502390,0.02165635,0.11098766,-0.01365304,9.78823280
1691761071504643,0.05093991,0.21907263,-0.01556711,9.76097679
1691761071508467,-0.01047191,0.00472150,-0.01212952,10.40970325
1691761071512264,0.02195402,0.05887872,-0.01284919,10.29083824
1691761071516334,0.01320070,0.06983207,-0.01289059,10.29873848
1691761071519621,0.01199360,0.04814337,-0.01258043,10.15949154
1691761071523260,0.02996301,-0.04028572,-0.01115880,10.24102974
1691761071527659,0.15924549,0.21941486,-0.01713846,9.99970818
1691761071531020,-0.02300627,-0.19542056,-0.00856019,10.60973358
1691761071533833,-0.02474856,-0.11636098,-0.00870666,10.47840881
1691761071537522,0.03695297,0.10247730,-0.01124336,10.17744255
1691761071541365,0.03179163,0.12113865,-0.01143337,10.08363056
1691761071545406,-0.03600061,-0.07795727,-0.00808420,10.54825115
1691761071549351,0.01283474,-0.05215885,-0.00782149,10.00951290
1691761071552270,0.10695122,0.34310719,-0.01600699,9.64184189
1691761071555625,-0.02636746,0.00801278,-0.00843751,10.53446293
1691761071559446,-0.01195137,-0.02611397,-0.00718772,10.48242283
1691761071563378,0.00806317,0.12017751,-0.00888870,10.23152447
1691761071567258,0.06660350,0.19487257,-0.01125693,9.90575027
1691761071571151,0.05719822,0.06091547,-0.00854547,10.29419327
1691761071574271,-0.02266776,-0.16245756,-0.00485697,10.60819244
1691761071579922,0.00353510,-0.06195318,-0.00514289,10.57635117
1691761071581216,0.02593922,-0.00168160,-0.00490655,10.41971111
1691761071585379,0.05422998,0.18516536,-0.00801762,9.95558739
1691761071589441,0.00101825,0.14515422,-0.00700401,10.32417297
1691761071592056,0.06308620,0.26450944,-0.01006841,9.88540649
1691761071595771,-0.00964512,-0.07645448,-0.00290660,10.62925243
1691761071599448,0.00511871,-0.04987699,-0.00236643,10.57028675
1691761071604328,-0.02213759,-0.04789198,-0.00132190,10.58722782
1691761071607669,0.01905357,0.00054704,-0.00106544,10.32986355
1691761071611113,-0.01447144,0.01410130,-0.00039226,10.36886787
1691761071613755,0.06563269,0.22840117,-0.00491805,9.71096706
1691761071618375,0.03618318,0.05289599,-0.00093774,10.48791027
1691761071621656,-0.00587324,-0.08194707,0.00239048,10.76172161
1691761071625522,0.01401181,-0.00773500,0.00232234,10.60589027
1691761071629587,-0.00092141,-0.01376672,0.00337005,10.67443657
1691761071631950,0.03794701,0.05987753,0.00291483,10.28436661
1691761071635873,0.05394446,0.14698461,0.00174142,10.19357681
1691761071639315,-0.01062776,-0.02794649,0.00528869,10.79584122
1691761071643416,0.05338550,0.16969632,0.00097517,10.41181278
1691761071647406,0.02827083,0.15539698,0.00099431,10.42730808
1691761071650212,0.00712502,0.01022392,0.00363490,10.59385872
1691761071653956,-0.01220542,-0.12127407,0.00582634,10.88476086
1691761071657465,0.01326386,-0.02362562,0.00505005,10.67765331
1691761071661053,-0.00367757,0.01929982,0.00476983,10.50056458
1691761071664769,0.01874073,0.22562101,0.00021408,10.04505825
1691761071668419,-0.00591553,-0.02675156,0.00426899,10.72206020
1691761071672461,0.02002823,-0.05949489,0.00515264,10.76856041
1691761071676398,0.00174535,-0.01307487,0.00458315,10.59961700
1691761071680319,0.05727900,0.25157335,-0.00256994,9.96735954
1691761071683034,0.01980771,0.00862274,0.00170415,10.62174511
1691761071686635,0.02643728,0.05786976,-0.00008589,10.58628464
1691761071690419,-0.01604245,-0.06472099,0.00206662,10.80069733
1691761071694468,-0.01510880,0.06160628,-0.00032367,10.50281239
1691761071698364,0.01973629,-0.00094890,0.00049057,10.35011101
1691761071701118,-0.01707748,-0.06250303,0.00139482,10.64226246
1691761071704781,-0.01752466,-0.08382038,0.00233943,10.72460556
1691761071708427,0.03038953,0.10367899,-0.00169067,10.32181263
1691761071712507,0.02131879,0.05935948,-0.00147509,10.45740986
1691761071716407,-0.00669977,0.05214554,-0.00193780,10.35499382
1691761071721080,-0.00651821,0.06258141,-0.00324683,10.55494690
1691761071723208,-0.03285204,-0.01249708,-0.00264168,10.68993664
1691761071726574,-0.00482341,-0.00489767,-0.00329750,10.42071342
1691761071730496,0.00934363,-0.00168445,-0.00393607,10.47772884
1691761071734495,0.00233224,0.01453756,-0.00491987,10.53104401
1691761071737453,-0.03167025,-0.03303259,-0.00462650,10.69317245
1691761071741498,0.05374953,0.05128011,-0.00700212,10.13091660
1691761071745505,-0.01461078,-0.11368492,-0.00407025,10.69458485
1691761071748267,-0.00184353,-0.01486580,-0.00595372,10.60007191
1691761071752290,0.00878295,-0.02206514,-0.00612602,10.52659702
1691761071758284,0.00773372,-0.00098653,-0.00686941,10.36632156
1691761071759217,0.03046705,0.13983810,-0.01053744,10.19983959
1691761071762937,-0.03598275,-0.05969077,-0.00681762,10.73118591
1691761071766499,-0.02152072,-0.07841825,-0.00664384,10.72303295
1691761071770572,-0.01065079,-0.00668641,-0.00821259,10.29259872
1691761071774631,0.08166951,0.32758218,-0.01885284,10.03530979
1691761071777548,-0.02271716,-0.09877324,-0.00926062,10.72332478
1691761071781503,-0.02604992,-0.26321977,-0.00614055,10.83078957
1691761071785834,-0.00170960,-0.10635767,-0.00884059,10.51359081
1691761071789382,0.04469236,0.23199207,-0.01837716,10.10753441
1691761071792023,-0.04404714,-0.16078265,-0.01054385,10.71020985
1691761071795701,-0.02036949,-0.11704744,-0.01119286,10.66814041
1691761071799639,-0.03535909,-0.09878203,-0.01190488,10.63230228
1691761071804036,-0.05680993,-0.14551295,-0.01115108,10.54096508
1691761071807673,-0.03284822,-0.07413625,-0.01213705,10.62824821
1691761071810640,-0.06812094,-0.07607383,-0.01240712,10.69247913
1691761071814285,-0.05461339,-0.02683925,-0.01316355,10.44613743
1691761071818543,-0.01322096,-0.06633358,-0.01227676,10.44891357
1691761071821647,-0.04074723,-0.21922597,-0.00857737,10.73453999
1691761071825886,-0.07561804,-0.16887578,-0.00890958,10.46368027
1691761071828334,0.07539904,0.39400432,-0.02234079,9.76503658
1691761071832023,-0.03374982,-0.05215804,-0.01079437,10.62184811
1691761071835856,-0.03871316,-0.07405620,-0.01017933,10.61531830
1691761071839205,-0.07526544,-0.03807534,-0.01050034,10.33523464
1691761071843081,-0.05441111,-0.15283033,-0.00756636,10.58848572
1691761071846800,-0.02538902,-0.05195381,-0.00852459,10.53584766
1691761071850641,-0.05899926,-0.02780820,-0.00829507,10.59734440
1691761071854544,-0.03651736,0.00228443,-0.00830855,10.23617935
1691761071858554,0.04723890,0.25028193,-0.01459441,10.14322281
1691761071861682,-0.03589579,-0.13885659,-0.00539737,10.79395866
1691761071867242,-0.03918581,-0.12270835,-0.00527538,10.66596222
1691761071868348,-0.03771551,-0.10510393,-0.00535603,10.54986668
1691761071872540,-0.01562564,-0.08703146,-0.00532357,10.35771179
1691761071876542,-0.04435090,-0.06025222,-0.00542304,10.68894100
1691761071879146,-0.06334064,-0.07045661,-0.00513896,10.44704056
1691761071883215,-0.04452030,-0.03018712,-0.00552388,10.39143753
1691761071886557,-0.01934781,0.00892393,-0.00578413,10.28460884
1691761071890775,-0.04727890,-0.09265175,-0.00322806,10.61141872
1691761071895512,-0.05810451,-0.00991500,-0.00420104,10.47637844
1691761071898347,-0.05947358,-0.00077757,-0.00359633,10.59500313
1691761071901067,-0.00394836,0.03963313,-0.00399234,10.15309238
1691761071904776,-0.04528466,-0.00493849,-0.00256978,10.65384960
1691761071909132,-0.05181316,-0.02162009,-0.00175016,10.50942421
1691761071913125,-0.02866055,0.01431102,-0.00209573,10.47689724
1691761071917703,-0.01585411,-0.02819441,-0.00085020,10.56299400
1691761071921828,-0.03803844,-0.14091279,0.00370722,10.58507824
1691761071922919,-0.03601659,0.02599028,0.00174146,10.50669479
1691761071927133,-0.01226694,0.00322122,0.00237850,10.46980953
1691761071930621,0.01754734,-0.00363164,0.00274819,10.45313740
1691761071934666,-0.00546373,0.03035866,0.00250720,10.27630138
1691761071937361,0.04502586,0.33313197,-0.00430915,10.05813503
1691761071940993,-0.02062645,-0.01299569,0.00293128,10.67755318
1691761071944764,-0.00928947,-0.03615046,0.00354846,10.57119656
1691761071948278,-0.03665365,0.00132435,0.00309174,10.48921299
1691761071952067,-0.03299818,0.08110715,0.00186623,10.19538498
1691761071955626,-0.04207251,-0.13320397,0.00521296,10.54407120
1691761071959793,0.00126715,-0.00861822,0.00393646,10.67301655
1691761071963806,-0.01062898,0.05124616,0.00315837,10.52429676
1691761071967594,-0.01233633,0.05015382,0.00321253,10.51093197
1691761071970273,0.03342860,0.09077838,0.00220243,10.27519608
1691761071973827,-0.03153114,-0.15825781,0.00795868,10.80752182
1691761071977792,-0.00409801,0.08402855,0.00497563,10.47366238
1691761071981789,-0.02457799,0.08274502,0.00515945,10.55882072
1691761071985760,0.04777547,0.06267089,0.00492683,10.00195408
1691761071988172,0.00402207,-0.04724069,0.00715552,10.69327831
1691761071992055,-0.00458567,0.07180249,0.00542766,10.47947025
1691761071995553,0.00047469,0.07397854,0.00532288,10.56234932
1691761071999912,0.06962600,0.12312241,0.00381600,10.11554146
1691761072004829,0.01834658,0.01382915,0.00608503,10.54666805
1691761072007658,-0.00491610,0.08252887,0.00505072,10.61094856
1691761072011269,-0.00911901,0.07740355,0.00506835,10.62129021
1691761072016388,0.04437945,0.07664946,0.00456607,10.06127357
1691761072017751,0.10058193,0.41651261,-0.00414870,9.99720955
1691761072021792,-0.02147195,0.01449736,0.00485713,10.72224903
1691761072025848,0.00988067,-0.00440196,0.00502744,10.61610317
1691761072028625,0.01279988,-0.00715613,0.00503705,10.63468552
1691761072032222,0.01740716,0.06821874,0.00373607,10.16744137
1691761072035843,-0.03366499,0.06006276,0.00401988,10.46550655
1691761072039840,0.03782117,-0.02894371,0.00510226,10.51998138
1691761072043863,0.04954424,0.00063900,0.00442028,10.40717125
1691761072046462,0.03559012,0.04425500,0.00339830,10.48939037
1691761072050863,0.03359609,0.10943454,0.00177885,10.19831181
1691761072054785,0.02794813,-0.03381668,0.00410995,10.62267876
1691761072057480,0.05761432,0.07317092,0.00232998,10.43517590
1691761072061182,0.02415985,0.10806414,0.00186719,10.37555885
1691761072064913,0.10640819,0.41068330,-0.00715813,9.98432446
1691761072068964,0.03822017,-0.02829814,0.00244142,10.74110413
1691761072072808,0.04382322,-0.02457502,0.00228129,10.62022972
1691761072076666,0.01322958,-0.00145927,0.00172116,10.48820591
1691761072079180,0.01493862,-0.12918857,0.00412042,10.57283306
1691761072083002,0.07687697,0.07659759,0.00027853,10.17873764
1691761072086915,0.09748913,0.34416136,-0.00725428,10.17235851
1691761072090962,-0.01493817,-0.05096974,0.00133980,10.73791027
1691761072094928,0.01204099,-0.02140646,0.00107758,10.67669582
1691761072097450,0.02562968,-0.03630536,0.00141753,10.59564018
1691761072101199,-0.01813366,0.01872083,0.00065906,10.40916920
1691761072104827,0.00177772,-0.01923484,0.00116773,10.47150421
1691761072109803,0.03790831,0.02042392,0.00037267,10.53768349
1691761072113303,0.05125519,0.03031862,0.00025047,10.47042561
1691761072116672,0.03345976,0.03875784,0.00028252,10.43910503
1691761072119916,0.11047960,0.34168026,-0.00874030,10.10786629
1691761072124705,0.02059945,-0.04073706,0.00066135,10.80482769
1691761072127096,0.02999224,-0.05533632,0.00120428,10.75244045
1691761072131335,0.00277298,0.00973548,0.00019576,10.42672062
1691761072134042,-0.02398864,-0.02498411,0.00101181,10.66729069
1691761072137394,0.00659870,-0.23164345,0.00613020,10.82475758
1691761072141697,0.03942328,-0.01115507,0.00276794,10.43345833
1691761072144913,0.02367016,0.04196525,0.00208652,10.41930771
1691761072149120,0.01431184,0.00776512,0.00308738,10.57614422
1691761072153260,0.01372700,0.03419789,0.00277290,10.46364975
1691761072155735,0.04096120,0.03188647,0.00295651,10.49802399
1691761072159328,0.00779279,-0.01354501,0.00422907,10.60394955
1691761072162924,0.05005567,0.03822634,0.00319815,10.28816891
1691761072166735,0.00920179,-0.09039874,0.00587477,10.77112961
1691761072171251,0.00819640,-0.01334292,0.00452969,10.70630360
1691761072174312,0.00802351,-0.00577306,0.00448741,10.60739708
1691761072177507,0.03434538,-0.05411142,0.00551046,10.57932663
1691761072181046,0.00225184,-0.02706716,0.00492407,10.58718395
1691761072185038,0.02505947,-0.06945983,0.00587420,10.64058590
1691761072188948,0.02079081,-0.06880683,0.00600742,10.63966751
1691761072193147,0.03503518,-0.00785965,0.00475010,10.21453762
1691761072195884,0.02262489,-0.11195558,0.00704134,10.63143921
1691761072199956,0.01743264,-0.05897100,0.00600270,10.65352440
1691761072203986,0.00730440,-0.03531831,0.00571573,10.51940918
1691761072206562,0.01845417,0.08064575,0.00329447,10.16352081
1691761072210285,-0.00852498,-0.03813777,0.00571309,10.68581104
1691761072213908,0.00341632,-0.02970097,0.00574078,10.66897488
1691761072218031,-0.01437827,-0.03937303,0.00607347,10.57279491
1691761072221940,-0.00039627,0.05276211,0.00433686,10.21418476
1691761072224763,-0.02941190,-0.11955608,0.00758963,10.65166664
1691761072229022,0.01736038,-0.04766446,0.00679702,10.58067799
1691761072233308,0.01297856,-0.03895892,0.00674933,10.57696056
1691761072235627,0.00631931,-0.01111771,0.00628565,10.29671478
1691761072239255,0.09497602,0.22716646,-0.00079063,10.21510696
1691761072242956,0.00501297,-0.12084743,0.00799990,10.78504848
1691761072246910,-0.01081781,-0.13465400,0.00816524,10.67020512
1691761072250895,0.01299898,-0.10099835,0.00776380,10.46028996
1691761072254795,-0.02567128,-0.10259022,0.00759038,10.61613464
1691761072257515,-0.00819472,-0.16943441,0.00932326,10.62010765
1691761072261128,-0.01503818,-0.06144267,0.00724570,10.44660473
1691761072264904,-0.02349400,-0.01743230,0.00620172,10.46815586
1691761072269092,-0.01145548,-0.06268521,0.00710862,10.61668873
1691761072273013,0.08399825,0.22278698,-0.00082218,10.08685589
1691761072277769,-0.04213325,-0.08495319,0.00668150,10.64850044
1691761072279236,-0.02919365,-0.09427213,0.00679311,10.69756413
1691761072283145,-0.00089960,-0.06930333,0.00638934,10.35530376
1691761072286936,0.07069554,0.21026693,-0.00141314,10.18522930
1691761072293094,-0.05019409,-0.16676259,0.00703333,10.77213669
1691761072295808,-0.03475229,-0.16022363,0.00712057,10.67615414
1691761072297881,-0.00542201,-0.12229954,0.00671348,10.73519516
1691761072302130,-0.02032478,-0.10428291,0.00620963,10.56982613
1691761072304686,-0.02396620,-0.04237471,0.00491896,10.40569115
1691761072308494,0.05956993,0.20658307,-0.00216237,10.21142197
1691761072312002,-0.04832905,-0.24602768,0.00848934,10.92920685
1691761072316092,-0.05010202,-0.09737191,0.00592613,10.59732437
1691761072320005,-0.02843922,-0.02660666,0.00463666,10.29126835
1691761072324037,-0.02593520,-0.11666703,0.00637035,10.74271011
1691761072327288,-0.01090601,-0.07777768,0.00573018,10.65981865
1691761072330254,-0.02932747,-0.03332044,0.00469894,10.46160889
1691761072334252,-0.06717338,-0.03082879,0.00453142,10.62255192
1691761072338029,-0.00103772,-0.11592066,0.00641344,10.69626904
1691761072342045,0.01081897,-0.10243052,0.00612303,10.60092449
1691761072344675,-0.01753780,-0.07035971,0.00496965,10.37448025
1691761072348400,0.05776512,0.22235215,-0.00350116,10.14862823
1691761072352105,-0.01963138,-0.13124534,0.00510483,10.74986649
1691761072355996,-0.02889939,-0.11238970,0.00457652,10.63623047
1691761072360121,-0.05355510,-0.08489297,0.00379415,10.38955975
1691761072364981,-0.05336957,-0.06176059,0.00353517,10.52080536
1691761072366568,-0.00027913,-0.08927617,0.00442584,10.50607300
1691761072370266,-0.00863288,-0.04512781,0.00340074,10.58699989
1691761072374083,-0.01632116,-0.01306453,0.00275698,10.22370338
1691761072378098,-0.04348194,-0.14741069,0.00600129,10.60347939
1691761072382033,-0.00257389,-0.02050843,0.00374190,10.52268314
1691761072384952,-0.01112660,-0.00806827,0.00348760,10.48433495
1691761072389266,0.01874556,-0.00800760,0.00350058,10.21622276
1691761072392097,-0.04106884,-0.18240541,0.00726675,10.52031040
1691761072396442,-0.01237043,-0.05068427,0.00470755,10.50382423
1691761072400311,0.00179246,-0.01025456,0.00367654,10.44490433
1691761072402808,-0.00326171,-0.01028526,0.00368045,10.23475838
1691761072407073,-0.04785701,0.01027056,0.00344537,10.51504517
1691761072411032,-0.01476888,-0.01082469,0.00377524,10.44883537
1691761072413877,0.00584876,0.01285235,0.00311526,10.40374374
1691761072417737,0.00660043,0.04229823,0.00238547,10.28300285
1691761072421173,0.07619026,0.30765778,-0.00586863,9.96258068
1691761072424783,-0.03204891,-0.04742854,0.00324572,10.60414505
1691761072428492,-0.03397975,-0.01711604,0.00241572,10.55155087
1691761072432031,-0.02263604,-0.03939374,0.00307301,10.45294189
1691761072436296,-0.00494089,-0.02408517,0.00295294,10.27412128
1691761072440034,0.00290032,-0.01347597,0.00239096,10.25013542
1691761072442921,0.07192057,0.21922342,-0.00429556,10.17560101
1691761072446517,-0.05603604,-0.16539685,0.00450475,10.57027721
1691761072450246,-0.02205388,-0.05085840,0.00268064,10.55469990
1691761072454213,-0.00603111,-0.01793471,0.00199914,10.53351212
1691761072458346,0.01718939,0.03125538,0.00101720,10.23213482
1691761072462036,-0.02948534,-0.05606876,0.00293353,10.59079933
1691761072464713,-0.01602712,0.03876346,0.00121880,10.47357655
1691761072468756,-0.00855009,0.04977656,0.00105844,10.46950150
1691761072472629,0.06359707,0.33042318,-0.00661022,10.00799465
1691761072476167,-0.04301895,-0.09078880,0.00365819,10.61862278
1691761072480070,-0.01671397,-0.02080181,0.00250754,10.57382202
1691761072482989,0.00614551,0.00161932,0.00208549,10.61956787
1691761072487135,0.00315993,0.01302689,0.00189203,10.45279694
1691761072491129,-0.00216879,0.05127821,0.00108784,10.34766865
1691761072494170,0.00344367,0.10500325,-0.00015175,10.22931957
1691761072498033,0.08476616,0.32094136,-0.00693730,10.21162510
1691761072502029,-0.02930289,-0.04530587,0.00277967,10.73373508
1691761072504616,-0.01543002,-0.00218507,0.00201267,10.65472317
1691761072508453,-0.01379206,-0.00290922,0.00201039,10.56680584
1691761072512110,0.06159788,0.28158587,-0.00567541,10.10325813
1691761072516230,-0.04551974,-0.09484304,0.00311246,10.68494129
1691761072521054,-0.03795107,-0.03766173,0.00223045,10.63349152
1691761072522978,-0.02190982,-0.00516184,0.00194678,10.57679558
1691761072526668,-0.00122766,0.03088133,0.00146988,10.58801270
1691761072530218,-0.03172629,0.03927860,0.00155402,10.50054073
1691761072534029,0.01685723,0.09147873,0.00021044,10.34955120
1691761072538054,-0.00881735,-0.04627097,0.00357342,10.79347420
1691761072541159,-0.00539043,0.05617379,0.00195387,10.40073681
1691761072544661,-0.02308021,0.05266039,0.00220412,10.54614162
1691761072548265,0.10759897,0.29994792,-0.00665646,10.27094269
1691761072552158,-0.01346391,-0.06177697,0.00376277,10.70895100
1691761072556122,-0.01153482,-0.00094068,0.00300038,10.73559570
1691761072560233,-0.01671497,0.00891776,0.00287271,10.58850002
1691761072562887,0.00689489,-0.00618248,0.00325346,10.51250839
1691761072566646,0.00868624,0.04437042,0.00248226,10.50173855
1691761072570241,0.06011147,0.30546698,-0.00571713,10.31647873
1691761072575282,-0.02590863,-0.02901090,0.00249010,10.89793873
1691761072578217,-0.01825183,-0.06984211,0.00369574,10.76458454
1691761072582060,-0.01625034,0.00206033,0.00247740,10.51779366
1691761072585768,-0.05266515,-0.07395514,0.00409682,10.72945213
1691761072588240,-0.00420368,-0.07479187,0.00448573,10.65495872
1691761072592323,0.00399961,-0.04001644,0.00403745,10.66963863
1691761072597102,-0.02817309,0.00649283,0.00297318,10.58286285
1691761072600944,-0.00829887,0.04426137,0.00195186,10.44180965
1691761072603010,-0.00823424,-0.10745048,0.00523487,10.65821552
1691761072606565,0.01113887,-0.02138132,0.00357601,10.65649605
1691761072610376,-0.00230102,0.00421863,0.00308641,10.52311516
1691761072614241,-0.01834779,-0.10977832,0.00578723,10.79196930
1691761072618197,0.00378154,-0.00875809,0.00386114,10.62475872
1691761072621165,-0.01127439,0.03139499,0.00320340,10.59530830
1691761072625377,-0.00246066,0.07239024,0.00243375,10.36611366
1691761072630604,-0.03849670,-0.08486499,0.00597770,10.87430191
1691761072631906,-0.01053897,-0.01752847,0.00499135,10.54392338
1691761072637939,0.00050406,0.01274305,0.00453808,10.53844738
1691761072639445,-0.01265981,0.07330924,0.00330092,10.34375286
1691761072643966,-0.02555879,-0.11502990,0.00742925,10.77949142
1691761072647235,-0.01428996,-0.03512150,0.00604348,10.53760719
1691761072651182,-0.01027028,-0.00412552,0.00556327,10.54832745
1691761072653961,-0.01172980,-0.01955065,0.00594438,10.42264748
1691761072657469,0.09115220,0.21438545,-0.00140896,10.26812840
1691761072661359,-0.02651860,-0.10564240,0.00694996,10.71794319
1691761072665498,-0.03564475,-0.09570763,0.00669664,10.67702484
1691761072669305,-0.03215715,-0.09437715,0.00675334,10.54644871
1691761072672047,-0.03275843,-0.06549975,0.00630347,10.65269470
1691761072676144,-0.02097028,-0.07812936,0.00664498,10.44464493
1691761072679414,-0.02153356,-0.03451163,0.00585121,10.53734684
1691761072683412,0.05861977,0.21003406,-0.00074869,10.17932892
1691761072687225,-0.04344245,-0.12852210,0.00736229,10.62701416
1691761072691215,-0.02895640,-0.07575982,0.00651679,10.57438183
1691761072693947,-0.01663500,-0.05932533,0.00631681,10.38121796
1691761072697459,-0.03953704,-0.04521178,0.00610351,10.67122078
1691761072701868,-0.04370535,-0.06148537,0.00648964,10.37040615
1691761072705393,-0.02089410,-0.07963954,0.00701406,10.40275860
1691761072709410,0.07119486,0.17674188,0.00028473,10.15289021
1691761072712076,-0.03414303,-0.19332762,0.00908999,10.62886715
1691761072715759,-0.06103107,-0.11467651,0.00735650,10.26805687
1691761072719986,-0.04788276,-0.07681409,0.00690852,10.38886642
1691761072724521,0.07397480,0.18438224,0.00008438,10.08693695
1691761072727734,-0.04720760,-0.17659128,0.00862793,10.53538227
1691761072732484,-0.04791532,-0.09839410,0.00737588,10.34612846
1691761072736267,-0.02114583,-0.06227868,0.00685418,10.25036812
1691761072737310,0.11012644,0.18667966,-0.00058091,10.03695679
1691761072741357,-0.04201470,-0.16073188,0.00836869,10.55119705
1691761072744840,-0.05293763,-0.09853581,0.00720899,10.43015480
1691761072748315,-0.04112912,-0.06461089,0.00664188,10.25926113
1691761072752506,0.09977911,0.22505330,-0.00180029,9.93961620
1691761072756351,-0.01216402,-0.15366735,0.00807779,10.61046410
1691761072759268,-0.02199843,-0.11087008,0.00699081,10.40635681
1691761072763043,-0.02850841,-0.08166946,0.00610385,10.16372108
1691761072766533,0.09499395,0.18021788,-0.00170726,9.99687862
1691761072770205,-0.01737666,0.20677149,-0.00152277,10.35359573
1691761072773778,-0.05931417,-0.22860597,0.00615093,10.41446590
1691761072777463,-0.03775381,-0.15070903,0.00521356,10.23662186
1691761072781231,0.01071369,-0.11222059,0.00501308,10.25459671
1691761072785337,0.00712537,-0.03489937,0.00356131,10.25094128
1691761072793066,-0.02201999,0.00258446,0.00264523,10.19703865
1691761072793248,0.12973665,0.25135660,-0.00554345,10.01565933
1691761072795611,0.00429831,-0.08623742,0.00376870,10.50008965
1691761072800792,-0.01805529,-0.06568943,0.00331007,10.48330975
1691761072805953,-0.00119968,-0.02884807,0.00243101,10.22507381
1691761072807893,0.12157878,0.23496646,-0.00592311,10.04736328
1691761072810217,0.00135206,0.22414510,-0.00401254,10.56619835
1691761072814994,-0.02664786,0.22202560,-0.00420457,10.39917755
1691761072817398,-0.02243210,-0.27173680,0.00414124,10.45850182
1691761072821502,0.01334909,-0.16980599,0.00312629,10.32390022
1691761072826001,0.00188920,-0.07533524,0.00116289,10.31581020
1691761072828908,0.00459606,-0.02173738,0.00007720,10.34984303
1691761072832153,0.03319328,-0.02940840,0.00027432,10.37337399
1691761072835763,0.12198812,0.24994637,-0.00787358,10.18311596
1691761072839318,-0.00246239,-0.06814811,0.00058579,10.71952438
1691761072843868,-0.00237453,-0.05376359,0.00031252,10.52142906
1691761072847533,0.03771265,-0.01872930,-0.00029354,10.41030884
1691761072850282,0.00074314,-0.10552977,0.00143962,10.70382690
1691761072853841,0.00155503,0.02905628,-0.00100997,10.37459946
1691761072857451,0.01522319,0.03825694,-0.00124028,10.49626160
1691761072861623,0.01870579,0.06676526,-0.00180743,10.42599010
1691761072865457,0.10413355,0.33671045,-0.01016213,10.13354206
1691761072868538,-0.01145016,-0.09552885,0.00113678,10.79864311
1691761072871966,-0.00449701,-0.03034666,0.00008985,10.50872421
1691761072875725,0.01568758,0.00747418,-0.00050570,10.46932220
1691761072879572,0.01129380,0.03735817,-0.00092223,10.35045719
1691761072883569,0.02175914,0.03417939,-0.00084785,10.43022442
1691761072887558,0.11408594,0.27081499,-0.00829714,10.21765232
1691761072890101,0.01685452,0.26071054,-0.00654910,10.67663574
1691761072893934,-0.02670431,-0.08967727,0.00041676,10.63055134
1691761072897429,-0.00644386,-0.06574132,0.00017831,10.59440517
1691761072901605,0.03042237,-0.02036012,-0.00059616,10.43501186
1691761072905498,0.09033075,0.24408463,-0.00843845,10.30451679
1691761072910285,-0.02828435,-0.11673054,0.00042849,10.90740204
1691761072911966,-0.00633989,-0.07024368,-0.00019785,10.63474560
1691761072916236,-0.00291436,-0.01390184,-0.00129788,10.54083920
1691761072919883,0.06828437,0.26951486,-0.00970821,10.23792744
1691761072924833,-0.02386981,-0.08467326,-0.00091719,10.80259132
1691761072927252,-0.00791100,-0.06643168,-0.00111119,10.57136345
1691761072930607,-0.00474873,-0.00071966,-0.00231637,10.54133606
1691761072934626,-0.00197641,0.01722401,-0.00275293,10.55127716
1691761072938304,0.09157785,0.26731071,-0.01163478,10.29343128
1691761072941139,-0.03324180,-0.10105082,-0.00180190,10.79392433
1691761072945201,-0.02643823,-0.03456118,-0.00300052,10.69548702
1691761072948518,-0.02324912,0.00750892,-0.00376893,10.67428493
1691761072952747,0.07668918,0.25030339,-0.01186767,10.25309753
1691761072956494,-0.03369171,-0.04449545,-0.00381371,10.77792454
1691761072959338,-0.03517685,0.00106621,-0.00477988,10.72531319
1691761072962965,0.03500450,0.22997089,-0.01127577,10.37668324
1691761072966800,-0.04590749,-0.10418665,-0.00297224,10.69549274
1691761072970783,-0.03110629,-0.02466380,-0.00435627,10.56372166
1691761072974735,-0.02486692,-0.00347789,-0.00461119,10.51616192
1691761072978348,-0.03258013,-0.00454648,-0.00420316,10.49942017
1691761072981112,0.06155862,0.24825321,-0.01187123,10.27710819
1691761072984914,-0.04886102,-0.06928475,-0.00329306,10.61962700
1691761072988531,-0.04029472,-0.05707189,-0.00318585,10.55946159
1691761072992616,0.04145849,0.19393308,-0.00990653,10.35080624
1691761072996611,-0.06624134,-0.02756576,-0.00410930,10.65263844
1691761072999360,-0.03591973,-0.13910119,-0.00162896,10.62154675
1691761073002905,-0.02412320,-0.08433834,-0.00252960,10.56665802
1691761073006724,-0.02607865,-0.03527471,-0.00339659,10.63627625
1691761073010685,-0.01758910,-0.00743612,-0.00396099,10.33900833
1691761073014777,0.09535353,0.27018118,-0.01357899,10.22034931
1691761073017523,-0.04281153,-0.07280284,-0.00337956,10.77828979
1691761073021002,-0.05068066,-0.07769028,-0.00303059,10.60972595
1691761073024922,0.03996715,0.21099366,-0.01102991,10.18318939
1691761073028644,-0.06025355,-0.12840259,-0.00273753,10.67190552
1691761073032835,-0.06842293,-0.08686183,-0.00340555,10.50278187
1691761073035699,-0.05118062,-0.05063472,-0.00357195,10.48772430
1691761073039259,-0.04314579,-0.00854116,-0.00425279,10.50475311
1691761073044732,0.03567255,0.23466159,-0.01131754,10.17512894
1691761073046704,-0.07538225,-0.17119507,-0.00111810,10.67854118
1691761073050207,-0.06714665,-0.06796636,-0.00240694,10.54244328
1691761073053913,-0.04354229,-0.03948748,-0.00240604,10.56594086
1691761073057746,0.07242528,0.20188722,-0.00943868,10.20886135
1691761073061747,-0.04950787,-0.10148063,-0.00080288,10.66536045
1691761073065892,-0.06099537,-0.07312763,-0.00086744,10.61442375
1691761073069602,0.02854895,0.20081598,-0.00775687,10.31828594
1691761073071907,-0.05273033,-0.15571752,0.00110066,10.65429592
1691761073075773,-0.05231462,-0.11114273,0.00079712,10.54233932
1691761073079754,-0.07419176,-0.04669643,-0.00015754,10.52517128
1691761073083813,-0.06018679,-0.01391450,-0.00034549,10.45008373
1691761073087030,0.04164756,0.18590003,-0.00578766,10.27181244
1691761073090672,-0.05095129,-0.24206801,0.00461307,10.54961014
1691761073094783,-0.04312929,-0.08483205,0.00184802,10.38895702
1691761073097600,-0.03222903,-0.05090724,0.00133381,10.37914848
1691761073101133,0.09804182,0.20249760,-0.00627020,10.09196281
1691761073104768,-0.05650825,-0.13968813,0.00299476,10.64895630
1691761073108826,-0.07471928,-0.08551556,0.00199663,10.56803608
1691761073112881,-0.04595475,-0.08573929,0.00243886,10.55495262
1691761073116672,-0.01999262,-0.08394879,0.00289018,10.50693703
1691761073119432,0.02042787,0.22184935,-0.00466627,10.26072884
1691761073122988,0.03365058,0.23012233,-0.00544564,10.11259365
1691761073127734,-0.06446597,-0.15906259,0.00363961,10.72650909
1691761073131033,-0.03231820,-0.15427250,0.00436064,10.63993073
1691761073137864,0.00485091,0.12286867,-0.00177368,10.29021931
1691761073137987,-0.08854733,-0.09665573,0.00287359,10.56652737
1691761073141482,-0.04873757,-0.16413149,0.00480442,10.49432468
1691761073144946,-0.02390105,-0.10634480,0.00420263,10.39356041
1691761073149319,-0.05121940,-0.08098905,0.00395278,10.41609287
1691761073152950,-0.05046907,-0.03724891,0.00354166,10.56193447
1691761073156395,-0.01497970,-0.09567882,0.00532623,10.43196106
1691761073159891,-0.00070266,-0.05193792,0.00490615,10.42158890
1691761073163914,0.06929398,0.23819523,-0.00295664,10.18669033
1691761073167547,-0.04613731,-0.12645793,0.00647681,10.67823601
1691761073170098,-0.02807945,-0.08775363,0.00637918,10.53724098
1691761073173853,-0.00951933,-0.06687512,0.00661937,10.56803799
1691761073177856,0.03184692,0.18486455,0.00063612,10.34014606
1691761073181865,0.07848417,0.18244645,-0.00022096,10.12874699
1691761073185429,-0.03501816,-0.14670669,0.00816157,10.59406185
1691761073188318,-0.03308901,-0.15148383,0.00873099,10.62404633
1691761073192060,-0.03535451,-0.11137788,0.00833910,10.39740276
1691761073195930,0.08844042,0.16462152,0.00117264,10.05401802
1691761073199895,-0.05836773,-0.18497750,0.00923774,10.58947372
1691761073203923,-0.05519243,-0.09269435,0.00832336,10.49371338
1691761073206379,-0.03908600,-0.06096776,0.00832087,10.36783886
1691761073210302,0.06538744,0.17887929,0.00237948,10.15255070
1691761073213847,-0.03021752,-0.14863235,0.01011916,10.48889351
1691761073217904,-0.01951030,-0.06017869,0.00889629,10.33992386
1691761073221856,-0.01261243,-0.02096193,0.00843811,10.35730648
1691761073225725,-0.02609191,-0.01467281,0.00849735,10.54532719
1691761073228302,0.00759969,-0.05719294,0.00974131,10.37699318
1691761073233518,0.00985499,-0.00125635,0.00889664,10.31452084
1691761073235819,0.01373660,0.01953827,0.00864428,10.41845703
1691761073240247,0.12186832,0.29465470,-0.00014711,9.93394089
1691761073243896,-0.01732870,-0.11309695,0.01066567,10.51636600
1691761073246379,-0.00666496,-0.02391505,0.00939299,10.44601154
1691761073250536,0.01733804,-0.03889097,0.00988054,10.37017345
1691761073253927,0.02745637,0.01025042,0.00861163,10.21995449
1691761073258000,0.02980280,0.02389162,0.00790750,10.29488850
1691761073261905,0.10235137,0.23713356,0.00148806,10.15874767
1691761073265863,0.10713670,0.22866639,0.00081170,10.10985279
1691761073268985,-0.03647759,-0.12111067,0.00848223,10.59431839
1691761073272907,-0.01522538,-0.04290016,0.00721161,10.50014305
1691761073276093,0.00944423,-0.02391990,0.00693873,10.47491360
1691761073279532,0.01752076,0.00960914,0.00623338,10.38584995
1691761073283026,0.09876767,0.27851993,-0.00130982,10.16211224
1691761073287039,0.09989668,0.24051562,-0.00094605,10.21534920
1691761073290971,-0.03420183,-0.00242183,0.00518710,10.62694454
1691761073295733,-0.00978875,-0.08209154,0.00646519,10.43885994
1691761073297437,0.04356175,-0.04438475,0.00596181,8.07240772
1691761073301098,0.15212901,0.29698560,-0.00466532,7.77461195
1691761073304913,0.06118503,0.32338756,-0.00387335,8.00295258
1691761073309036,0.01423070,-0.21551462,0.00751720,7.96606970
1691761073312984,0.03396950,-0.07177284,0.00477277,7.96082258
1691761073315621,0.07829397,-0.02756451,0.00406445,7.90725565
1691761073320990,0.07522364,-0.02549602,0.00416289,8.00785542
1691761073323062,0.08218098,-0.02959364,0.00422569,8.03288078
1691761073326998,0.06979647,-0.02125432,0.00440839,8.11726189
1691761073330951,0.05658644,-0.03009111,0.00529813,8.09545135
1691761073334845,0.05692108,0.01284144,0.00468221,8.15141106
1691761073338425,0.08015644,0.03098343,0.00472872,8.28203773
1691761073341498,0.06971997,0.06493498,0.00438964,8.24278164
1691761073345260,0.05624262,0.03224831,0.00543380,8.40369606
1691761073348929,0.06115939,0.01983080,0.00634239,8.47886181
1691761073353310,0.02791705,-0.01943997,0.00788405,8.62496948
1691761073355492,0.06137619,0.09364879,0.00534693,8.62947845
1691761073359319,0.06549827,0.10025314,0.00569181,8.58546734
1691761073362908,0.04581108,0.06100464,0.00713313,8.79251957
1691761073367224,0.03647656,0.04018374,0.00780633,8.85687923
1691761073370869,0.03100031,0.00965385,0.00877223,8.93933678
1691761073374940,0.01254954,-0.03175003,0.01023228,9.09749985
1691761073377404,0.01545069,0.06680870,0.00814445,9.09247971
1691761073381037,0.11198615,0.24061421,0.00077280,8.96107292
1691761073385059,0.07150552,0.15402359,0.00305623,9.23303032
1691761073389152,0.00117552,0.00598320,0.00759929,9.39467239
1691761073392112,-0.00438356,-0.00708502,0.00796671,9.45754910
1691761073395589,-0.00961395,-0.00746703,0.00795572,9.52616882
1691761073399384,-0.00575754,-0.01161834,0.00804808,9.57524586
1691761073403019,-0.01588034,-0.01452343,0.00808545,9.59657001
1691761073407060,-0.02393046,-0.00889224,0.00812657,9.62926483
1691761073411080,-0.02392987,-0.00578077,0.00824645,9.65420246
1691761073414872,-0.02319474,-0.01062597,0.00841947,9.70199871
1691761073417457,-0.02472372,-0.00956629,0.00846218,9.75030136
1691761073421087,-0.02868621,-0.01123176,0.00828532,9.81994343
1691761073425121,-0.02973780,-0.01161995,0.00799054,9.85772324
1691761073428977,-0.03536445,-0.00590989,0.00800501,9.89246082
1691761073431942,-0.00591806,0.08208184,0.00460118,9.86325932
1691761073436095,0.00510331,0.08368469,0.00342850,9.88965607
1691761073439933,0.00541569,0.08236706,0.00221137,9.91938877
1691761073443835,-0.04937823,-0.00186363,0.00444162,10.00880146
1691761073446883,-0.05360688,-0.03823587,0.00528173,10.04210091
1691761073451082,-0.05447855,-0.03235431,0.00505056,10.05490780
1691761073454181,-0.05742828,-0.02863645,0.00497902,10.06405735
1691761073457357,-0.05725296,-0.03163747,0.00499230,10.08270931
1691761073461025,-0.05078712,-0.03825445,0.00514761,10.12624741
1691761073465046,-0.05058762,-0.03631957,0.00516199,10.14164162
1691761073469084,-0.02653698,0.03169593,0.00272307,10.18507576
1691761073471969,-0.00956637,0.03816450,0.00152213,10.18225384
1691761073475725,-0.04355545,-0.07782834,0.00448113,10.27783775
1691761073479311,-0.05457550,-0.05736639,0.00384488,10.28614044
1691761073483181,-0.05152864,-0.05321659,0.00367094,10.31107521
1691761073486434,-0.04639043,-0.05686004,0.00372956,10.34039783
1691761073491509,-0.01705364,0.04824425,0.00028550,10.38896179
1691761073493982,-0.01416369,0.04691802,-0.00018980,10.36165619
1691761073497478,-0.04956939,-0.10346669,0.00361661,10.50157166
1691761073501184,-0.05736021,-0.06552928,0.00261762,10.47224522
1691761073505016,-0.06047778,-0.05734566,0.00242826,10.47902489
1691761073509101,-0.03413218,0.02319341,0.00013117,10.45640755
1691761073512860,-0.01747089,0.03250445,-0.00077053,10.40189362
1691761073515639,-0.06642709,-0.12459310,0.00322111,10.56560707
1691761073519378,-0.06937134,-0.07908136,0.00231049,10.46480656
1691761073523103,-0.06264234,-0.07213566,0.00220966,10.47432613
1691761073527109,-0.02993574,0.01753479,-0.00022740,10.44417667
1691761073531036,-0.02677016,0.03651381,-0.00122375,10.37783241
1691761073533827,-0.07078603,-0.09243698,0.00186453,10.50442410
1691761073537991,-0.06344040,-0.08253209,0.00178919,10.47898483
1691761073541153,-0.06128219,-0.06796452,0.00161739,10.48574066
1691761073545021,-0.02953419,0.01816801,-0.00089813,10.45283604
1691761073548978,-0.06812149,-0.13280867,0.00270814,10.58776665
1691761073553165,-0.05437759,-0.10036828,0.00221011,10.51582432
1691761073556367,-0.04952287,-0.07593888,0.00161485,10.51313019
1691761073560163,-0.02802657,0.01606912,-0.00098765,10.46122837
1691761073562736,-0.06565157,-0.13902026,0.00288142,10.56247330
1691761073566477,-0.05477555,-0.07521287,0.00167887,10.44736004
1691761073570120,-0.05104953,-0.05980423,0.00149542,10.44580841
1691761073574045,-0.05426913,-0.04780145,0.00156177,10.39389420
1691761073578101,-0.01915452,0.02675197,-0.00067571,10.37561035
1691761073581841,-0.04988888,-0.07259489,0.00165348,10.44632721
1691761073584607,-0.04713976,-0.04678164,0.00131503,10.39064503
1691761073588187,-0.04222085,-0.04714140,0.00161636,10.41924572
1691761073592150,-0.00952972,0.03607878,-0.00075548,10.39441490
1691761073596138,-0.04292193,-0.09407522,0.00243884,10.50451088
1691761073601818,-0.04250045,-0.04804505,0.00163715,10.42303658
1691761073602864,-0.03657918,-0.04150134,0.00178801,10.44935513
1691761073606532,-0.03184710,-0.04029339,0.00192136,10.40180111
1691761073610149,0.00366098,0.04793137,-0.00068855,10.39302540
1691761073614113,-0.03024814,-0.08877548,0.00250664,10.46502876
1691761073617523,-0.02970871,-0.05645192,0.00200439,10.42127514
1691761073621087,-0.02012368,-0.05661565,0.00212682,10.42121124
1691761073625257,0.00320542,0.02454905,-0.00049598,10.36047268
1691761073629138,-0.02657576,-0.08508441,0.00200191,10.43705654
1691761073631954,-0.02524777,-0.05117121,0.00138361,10.36910248
1691761073635566,-0.01878981,-0.04060590,0.00101394,10.35793781
1691761073639199,0.00515218,0.03381563,-0.00130363,10.34938335
1691761073643265,-0.02170658,-0.02063818,-0.00011622,10.36270046
1691761073646908,-0.02333375,-0.03925424,0.00041501,10.36266804
1691761073650285,-0.01882410,-0.02724018,0.00012138,10.35011005
1691761073653797,-0.01074749,-0.02244376,0.00009978,10.36590385
1691761073657723,0.01331818,0.04204929,-0.00169309,10.34120369
1691761073661043,-0.01219059,-0.06428269,0.00102862,10.42646885
1691761073665146,-0.00809677,-0.02951404,0.00045875,10.35689926
1691761073669158,-0.00678209,-0.01835254,0.00024938,10.35131550
1691761073671917,0.01938702,0.03604386,-0.00115110,10.35456753
1691761073675669,-0.00668330,-0.01675151,0.00009833,10.35402775
1691761073679160,-0.00455836,-0.03167979,0.00030861,10.34173870
1691761073683333,-0.00205295,-0.01802476,0.00003118,10.33198357
1691761073686546,-0.00191598,-0.01761988,0.00033151,10.31647587
1691761073690225,0.02400224,0.04207674,-0.00128761,10.29190350
1691761073694227,0.00423202,-0.05973088,0.00091777,10.36582375
1691761073698272,0.00309944,-0.02087902,0.00031153,10.31398487
1691761073701459,0.00559214,-0.02264141,0.00043876,10.32008076
1691761073705268,0.02617358,0.03407924,-0.00122430,10.31446648
1691761073709357,0.02626698,0.08705839,-0.00310293,10.36402416
1691761073711876,0.01015289,-0.02260697,-0.00072737,10.33394337
1691761073715877,0.00778331,-0.02021080,-0.00077408,10.31291103
1691761073719417,0.01456561,-0.01638322,-0.00079709,10.30153275
1691761073723297,0.03472942,0.04381859,-0.00252103,10.27810764
1691761073727281,0.00935542,-0.05965271,0.00009216,10.34252357
1691761073731080,0.00813528,-0.01725596,-0.00044949,10.28864479
1691761073733839,0.00935680,-0.00547581,-0.00060485,10.26737213
1691761073737269,0.00970286,-0.00102827,-0.00055989,10.26627254
1691761073741302,0.04295544,0.06001398,-0.00209207,10.23896122
1691761073744612,0.01685576,-0.02169387,0.00013457,10.27607727
1691761073748290,0.01214081,0.00160991,-0.00028322,10.25306892
1691761073752300,0.01368741,0.00986398,-0.00040020,10.24902153
1691761073756332,0.03860835,0.05976480,-0.00156564,10.26799774
1691761073760422,0.05056668,0.06741567,-0.00222306,10.24124050
1691761073762701,0.02514661,-0.02642645,0.00011063,10.29664516
1691761073766559,0.01855948,0.00304596,-0.00034397,10.27132607
1691761073770222,0.01553253,0.00710960,-0.00026044,10.26755524
1691761073774327,0.02490191,0.00121009,-0.00003367,10.28100491
1691761073778190,0.05332828,0.06881721,-0.00183590,10.27556324
1691761073780975,0.06763656,0.08869173,-0.00284065,10.24272919
1691761073784731,0.02462993,-0.00128793,-0.00058782,10.27826023
1691761073788267,0.02027242,0.00715374,-0.00072365,10.26400185
1691761073792349,0.02114279,0.01185292,-0.00081001,10.26669979
1691761073796463,0.04518471,0.06577566,-0.00217789,10.26759720
1691761073800562,0.05863085,0.07483356,-0.00286152,10.24006462
1691761073804424,0.03283493,-0.03867094,-0.00033913,10.31506538
1691761073807860,0.02533277,0.00173703,-0.00120011,10.28596973
1691761073810286,0.02529099,0.00470871,-0.00113457,10.29489994
1691761073814254,0.05147459,0.06018376,-0.00274795,10.31420803
1691761073818404,0.06558815,0.07628207,-0.00421521,10.29100704
1691761073820916,0.03056829,-0.03205314,-0.00149370,10.36304379
1691761073824787,0.02288904,-0.00424310,-0.00201103,10.32267189
1691761073828217,0.02938065,-0.00217483,-0.00207402,10.33810043
1691761073831921,0.02227356,0.00872131,-0.00229699,10.30114079
1691761073835755,0.05678387,0.08133645,-0.00500270,10.29165268
1691761073840178,0.02372858,-0.00563401,-0.00267111,10.33238983
1691761073843400,0.01798314,0.00736155,-0.00295116,10.30057907
1691761073847211,0.01716018,0.01646768,-0.00311614,10.30699825
1691761073851149,0.04697547,0.08494602,-0.00521237,10.31262207
1691761073853930,0.01183276,0.03241915,-0.00382725,10.30769730
1691761073857436,0.00930974,0.01765274,-0.00349982,10.30273724
1691761073861759,0.01353577,0.02709003,-0.00361623,10.30812550
1691761073865334,0.01465960,0.02398182,-0.00330477,10.31628227
1691761073869276,0.05195676,0.09077337,-0.00556499,10.31435680
1691761073871963,0.01664158,-0.00808745,-0.00297935,10.36170673
1691761073875754,0.01366916,0.01739441,-0.00330864,10.32066536
1691761073879331,0.01387105,0.01760562,-0.00302839,10.30823135
1691761073883476,0.01671072,0.01752605,-0.00275763,10.32452774
1691761073887466,0.06403204,0.10978207,-0.00581741,10.31608582
1691761073890167,0.01517971,0.00424500,-0.00267450,10.33651733
1691761073894881,0.00425356,0.01598515,-0.00275059,10.30487251
1691761073898841,0.00682730,0.02035660,-0.00266373,10.30229568
1691761073901503,0.04031397,0.09314276,-0.00483711,10.31587124
1691761073904754,0.04983975,0.10922808,-0.00592422,10.27606869
1691761073908512,0.01002207,-0.00813950,-0.00259330,10.32661629
1691761073912652,0.00195763,0.01048156,-0.00290267,10.29125500
1691761073916346,0.00295479,0.01319126,-0.00287483,10.30562496
1691761073919232,0.02832760,0.06724324,-0.00466026,10.31929111
1691761073922856,0.04018874,0.07826277,-0.00580599,10.28391647
1691761073926547,0.00372957,-0.01469704,-0.00329261,10.33270741
1691761073930434,-0.00672324,0.00684527,-0.00362632,10.30115223
1691761073934481,-0.00465013,0.00197991,-0.00310821,10.31013680
1691761073937344,0.01826993,0.05456749,-0.00486862,10.30472183
1691761073941590,0.03420704,0.08120174,-0.00669227,10.27317619
1691761073945875,-0.01063433,0.00432920,-0.00442029,10.29865456
1691761073949326,-0.01612885,-0.00149498,-0.00402785,10.27968121
1691761073952504,-0.01708700,0.00227617,-0.00385194,10.27648163
1691761073956328,0.01231890,0.05554304,-0.00573085,10.27336979
1691761073959398,-0.02063769,0.01228577,-0.00433759,10.28080654
1691761073963120,-0.02482199,-0.00389066,-0.00357960,10.28286076
1691761073966851,-0.02248778,-0.00219432,-0.00333663,10.27739239
1691761073970615,-0.02061749,0.00038394,-0.00318564,10.28820419
1691761073974960,0.00663441,0.05112490,-0.00449679,10.29775333
1691761073978212,-0.02138795,0.00043369,-0.00278295,10.30313873
1691761073980910,-0.02053966,-0.01649487,-0.00212305,10.31046295
1691761073984832,-0.01830387,-0.01322267,-0.00186430,10.31029606
1691761073988413,-0.02180259,-0.01490031,-0.00131272,10.30052376
1691761073992571,0.00854654,0.03851628,-0.00290168,10.29989529
1691761073997302,-0.01609862,-0.05462322,-0.00023781,10.35186005
1691761073999344,-0.02481189,-0.02309282,-0.00069126,10.31044769
1691761074002916,-0.02503970,-0.01730537,-0.00045090,10.30464268
1691761074006416,-0.00492663,0.03980903,-0.00206421,10.30799294
1691761074012689,0.00979813,0.05601025,-0.00288167,10.28389835
1691761074014353,-0.01907445,-0.04489707,-0.00003667,10.33642960
1691761074018924,-0.02934296,-0.02907206,-0.00026952,10.30481148
1691761074020912,-0.03025413,-0.02353000,-0.00033403,10.30494881
1691761074024791,-0.00854936,0.03121400,-0.00223901,10.29727459
1691761074028504,-0.03226396,-0.02039677,-0.00091334,10.31427193
1691761074033329,-0.03241257,-0.03832404,-0.00030188,10.31242561
1691761074036417,-0.03348542,-0.03193688,-0.00042842,10.30701828
1691761074039233,-0.03354873,-0.03034944,-0.00043739,10.28896236
1691761074042991,-0.01048375,0.02450176,-0.00199535,10.28304482
1691761074046532,-0.03633438,-0.05991851,0.00028634,10.33391857
1691761074050708,-0.03873518,-0.03005526,-0.00034247,10.28966904
1691761074054698,-0.03891949,-0.02058933,-0.00048629,10.28363037
1691761074058331,-0.01693340,0.02581400,-0.00168798,10.27627563
1691761074061143,-0.04282023,-0.05463817,0.00048276,10.31189728
1691761074065022,-0.04065384,-0.02442829,0.00001874,10.27770901
1691761074068560,-0.03810524,-0.01936984,0.00007411,10.27886581
1691761074072485,-0.01987862,0.02415881,-0.00096227,10.28183174
1691761074075755,-0.01191239,0.04198515,-0.00167223,10.25322723
1691761074079172,-0.03541936,-0.03214396,0.00028591,10.28805161
1691761074082863,-0.03615371,-0.03237261,0.00058484,10.28432274
1691761074086691,-0.03579757,-0.02866992,0.00089355,10.28061390
1691761074090635,-0.03819800,-0.01883197,0.00091784,10.26398945
1691761074095198,-0.01018094,0.02822234,-0.00042014,10.25727367
1691761074097521,-0.02955021,-0.08718067,0.00282747,10.33176994
1691761074101664,-0.03118351,-0.05109239,0.00254068,10.29438972
1691761074105903,-0.03351195,-0.03270884,0.00225803,10.28386211
1691761074108452,-0.03445164,-0.02249133,0.00210524,10.26860523
1691761074112120,-0.00499572,0.01812013,0.00110401,10.25816250
1691761074116445,-0.03297412,-0.06110149,0.00326416,10.28998566
1691761074119703,-0.03297716,-0.03362004,0.00280535,10.27665424
1691761074123809,-0.02925268,-0.02677211,0.00287772,10.27651978
1691761074127783,-0.01675825,0.01497581,0.00177472,10.27869511
1691761074130144,-0.01049020,0.02844093,0.00110162,10.25313473
1691761074133918,-0.03145528,-0.05678217,0.00335811,10.30118179
1691761074137846,-0.02606769,-0.03783015,0.00345740,10.29407787
1691761074141703,-0.02648533,-0.02469122,0.00355835,10.28560638
1691761074145655,-0.02836721,-0.01759356,0.00359643,10.27443886
1691761074148220,-0.00217833,0.02763888,0.00218952,10.26492310
1691761074152899,-0.02298165,-0.06805205,0.00521424,10.32636833
1691761074155943,-0.02330540,-0.03330343,0.00523266,10.29179764
1691761074159791,-0.02298433,-0.01777179,0.00511536,10.28158855
1691761074163732,-0.01788531,-0.01645399,0.00533955,10.28312492
1691761074166720,0.00412175,0.02859426,0.00433522,10.27273655
1691761074170144,-0.02090937,-0.00251623,0.00530673,10.27924442
1691761074173674,-0.01948826,-0.01808559,0.00590860,10.29104042
1691761074177683,-0.01216873,-0.01848133,0.00632022,10.30084896
1691761074181931,-0.01191367,-0.01356962,0.00662488,10.29036903
1691761074184704,0.00719827,0.03634375,0.00524643,10.28588867
1691761074188341,0.00617485,0.07662866,0.00357703,10.33551502
1691761074192668,-0.00193980,-0.03880652,0.00651894,10.34324741
1691761074196399,-0.00576247,-0.02990104,0.00673902,10.31920052
1691761074199306,-0.00351953,-0.02422362,0.00676845,10.31255436
1691761074202894,0.01596614,0.02678368,0.00536194,10.31850815
1691761074206759,0.02357543,0.03662188,0.00495012,10.30109406
1691761074210818,-0.00279311,-0.06950113,0.00792169,10.36873817
1691761074215714,-0.00273951,-0.02914434,0.00733592,10.33766651
1691761074217413,0.00276380,-0.02163063,0.00741770,10.33802700
1691761074221107,0.00260483,-0.01994866,0.00785366,10.32453537
1691761074224885,0.02580595,0.03195485,0.00640527,10.30842876
1691761074228901,0.01069648,-0.06082787,0.00870200,10.37849903
1691761074233207,0.00927191,-0.03538573,0.00850236,10.35321236
1691761074236482,0.00678509,-0.02125207,0.00840585,10.34022427
1691761074239276,0.00373543,-0.01283807,0.00826615,10.31851482
1691761074242888,0.03771767,0.04313093,0.00638793,10.32179832
1691761074246710,0.01291638,-0.07539092,0.00939924,10.40419769
1691761074251072,0.00773607,-0.03396573,0.00870723,10.36075878
1691761074253935,0.00493341,-0.01613587,0.00830197,10.34226322
1691761074257609,0.01085730,-0.01026634,0.00816630,10.35151100
1691761074261133,0.03672462,0.05425401,0.00641824,10.35296440
1691761074264732,0.00411486,0.00965595,0.00742172,10.34502697
1691761074269243,0.00683019,-0.00266395,0.00767058,10.35235691
1691761074272735,0.01639356,-0.00424655,0.00773099,10.37785530
1691761074275644,0.00940997,0.00071693,0.00775006,10.35357285
1691761074279341,0.03685399,0.07050459,0.00573898,10.36073685
1691761074283811,0.03379245,0.13195805,0.00328123,10.43811703
1691761074286328,0.01876584,-0.01542893,0.00679229,10.40929794
1691761074290029,0.01067981,-0.00740143,0.00664651,10.36154461
1691761074293856,0.00691361,0.00105396,0.00634409,10.35255623
1691761074297811,0.03801061,0.05986410,0.00436404,10.35306931
1691761074301916,0.02927476,0.08884855,0.00317581,10.38317776
1691761074304858,0.01302598,-0.01563559,0.00542147,10.37758636
1691761074308850,0.01510553,-0.02054462,0.00531746,10.36829567
1691761074312958,0.02109360,-0.01718698,0.00511370,10.36509228
1691761074315932,0.04482907,0.04382338,0.00299298,10.34076405
1691761074319333,0.01761062,-0.05753403,0.00523924,10.39914036
1691761074323884,0.01443549,-0.02203437,0.00437072,10.35483932
1691761074326808,0.01887374,-0.01091589,0.00401368,10.35770702
1691761074330943,0.03509611,0.04583333,0.00224150,10.35541534
1691761074333726,0.04984932,0.07382176,0.00047064,10.30673885
