timestamp,roll,pitch,thrust,yaw,aux1,aux2,aux3,aux4
1691768151001091,1500,1500,1000,1500,1000,0,0,0
1691768151011352,1500,1500,1000,1500,1000,0,0,0
1691768151021143,1500,1500,1000,1500,1000,0,0,0
1691768151031100,1500,1500,1000,1500,1000,0,0,0
1691768151041094,1500,1500,1000,1500,1000,0,0,0
1691768151051089,1500,1500,1000,1500,1000,0,0,0
1691768151061125,1500,1500,1000,1500,1000,0,0,0
1691768151071212,1500,1500,1000,1500,1000,0,0,0
1691768151081120,1500,1500,1000,1500,1000,0,0,0
1691768151091106,1500,1500,1000,1500,1000,0,0,0
1691768151101128,1500,1500,1000,1500,1000,0,0,0
1691768151111156,1500,1500,1000,1500,1000,0,0,0
1691768151121224,1500,1500,1000,1500,1000,0,0,0
1691768151131137,1500,1500,1000,1500,1000,0,0,0
1691768151144343,1492,1530,1252,1479,1000,0,0,0
1691768151147115,1490,1533,1278,1476,1000,0,0,0
1691768151150783,1491,1534,1280,1476,1000,0,0,0
1691768151154331,1491,1533,1281,1476,1000,0,0,0
1691768151158638,1491,1533,1281,1476,1000,0,0,0
1691768151162947,1490,1533,1282,1476,1000,0,0,0
1691768151165397,1490,1533,1282,1476,1000,0,0,0
1691768151169464,1491,1533,1282,1476,1000,0,0,0
1691768151173925,1491,1533,1283,1476,1000,0,0,0
1691768151176549,1491,1533,1283,1476,1000,0,0,0
1691768151180956,1491,1533,1283,1476,1000,0,0,0
1691768151184588,1490,1533,1284,1476,1000,0,0,0
1691768151187761,1490,1533,1284,1476,1000,0,0,0
1691768151192289,1491,1533,1285,1477,1000,0,0,0
1691768151194654,1490,1533,1284,1477,1000,0,0,0
1691768151198663,1490,1531,1284,1477,1000,0,0,0
1691768151202736,1490,1531,1285,1478,1000,0,0,0
1691768151205243,1490,1530,1285,1479,1000,0,0,0
1691768151209067,1490,1526,1283,1479,1000,0,0,0
1691768151212630,1490,1522,1283,1480,1000,0,0,0
1691768151216561,1490,1520,1282,1481,1000,0,0,0
1691768151220703,1490,1521,1283,1482,1000,0,0,0
1691768151223710,1486,1522,1288,1484,1000,0,0,0
1691768151227618,1485,1510,1285,1485,1000,0,0,0
1691768151231728,1487,1501,1281,1486,1000,0,0,0
1691768151234240,1486,1515,1284,1487,1000,0,0,0
1691768151238294,1482,1509,1288,1488,1000,0,0,0
1691768151241768,1485,1505,1288,1489,1000,0,0,0
1691768151245858,1487,1503,1285,1489,1000,0,0,0
1691768151249700,1489,1498,1278,1490,1000,0,0,0
1691768151254604,1489,1497,1272,1491,1000,0,0,0
1691768151256164,1492,1494,1269,1492,1000,0,0,0
1691768151259777,1490,1489,1264,1492,1000,0,0,0
1691768151265383,1497,1484,1260,1493,1000,0,0,0
1691768151267674,1498,1485,1256,1493,1000,0,0,0
1691768151271699,1498,1489,1251,1494,1000,0,0,0
1691768151274581,1501,1482,1257,1494,1000,0,0,0
1691768151280082,1501,1480,1252,1494,1000,0,0,0
1691768151282532,1502,1481,1251,1495,1000,0,0,0
1691768151285183,1511,1475,1250,1495,1000,0,0,0
1691768151288907,1506,1481,1241,1495,1000,0,0,0
1691768151294589,1506,1482,1241,1496,1000,0,0,0
1691768151296862,1504,1485,1240,1496,1000,0,0,0
1691768151300765,1510,1469,1252,1496,1000,0,0,0
1691768151303892,1508,1470,1244,1497,1000,0,0,0
1691768151307995,1506,1473,1240,1497,1000,0,0,0
1691768151310882,1509,1472,1237,1497,1000,0,0,0
1691768151314956,1510,1474,1235,1497,1000,0,0,0
1691768151318796,1509,1475,1238,1497,1000,0,0,0
1691768151322950,1502,1461,1252,1498,1000,0,0,0
1691768151325196,1512,1471,1234,1498,1000,0,0,0
1691768151328953,1516,1474,1236,1498,1000,0,0,0
1691768151332780,1517,1481,1236,1498,1000,0,0,0
1691768151336061,1514,1483,1237,1498,1000,0,0,0
1691768151342286,1501,1462,1252,1499,1000,0,0,0
1691768151346542,1499,1461,1252,1499,1000,0,0,0
1691768151348071,1511,1476,1229,1499,1000,0,0,0
1691768151352269,1514,1479,1234,1499,1000,0,0,0
1691768151354911,1551,1424,1201,1496,1000,0,0,0
1691768151358016,1560,1449,1196,1497,1000,0,0,0
1691768151362095,1532,1472,1222,1499,1000,0,0,0
1691768151366145,1519,1483,1236,1500,1000,0,0,0
1691768151370871,1504,1483,1250,1500,1000,0,0,0
1691768151374076,1499,1481,1249,1501,1000,0,0,0
1691768151379259,1513,1485,1234,1500,1000,0,0,0
1691768151380753,1513,1497,1232,1500,1000,0,0,0
1691768151383463,1506,1491,1241,1500,1000,0,0,0
1691768151387053,1499,1495,1245,1500,1000,0,0,0
1691768151390773,1496,1494,1246,1500,1000,0,0,0
1691768151395197,1497,1486,1251,1500,1000,0,0,0
1691768151398714,1493,1488,1251,1500,1000,0,0,0
1691768151402477,1495,1489,1251,1499,1000,0,0,0
1691768151405120,1497,1487,1252,1499,1000,0,0,0
1691768151408768,1493,1491,1249,1499,1000,0,0,0
1691768151412792,1492,1493,1249,1499,1000,0,0,0
1691768151416871,1491,1494,1249,1499,1000,0,0,0
1691768151419742,1492,1500,1244,1499,1000,0,0,0
1691768151423419,1491,1503,1246,1499,1000,0,0,0
1691768151426999,1490,1502,1246,1499,1000,0,0,0
1691768151430886,1489,1501,1247,1499,1000,0,0,0
1691768151434889,1490,1499,1249,1499,1000,0,0,0
1691768151439008,1490,1491,1253,1499,1000,0,0,0
1691768151442635,1491,1491,1251,1499,1000,0,0,0
1691768151445284,1491,1494,1253,1499,1000,0,0,0
1691768151448959,1491,1494,1252,1499,1000,0,0,0
1691768151452777,1491,1496,1252,1499,1000,0,0,0
1691768151456873,1496,1490,1245,1498,1000,0,0,0
1691768151459840,1497,1493,1246,1498,1000,0,0,0
1691768151463463,1494,1497,1249,1498,1000,0,0,0
1691768151467136,1493,1498,1250,1498,1000,0,0,0
1691768151470501,1492,1497,1249,1498,1000,0,0,0
1691768151474282,1490,1496,1247,1498,1000,0,0,0
1691768151478081,1491,1500,1249,1498,1000,0,0,0
1691768151481618,1488,1512,1264,1498,1000,0,0,0
1691768151485225,1485,1492,1249,1498,1000,0,0,0
1691768151488953,1494,1499,1242,1498,1000,0,0,0
1691768151493230,1495,1503,1243,1498,1000,0,0,0
1691768151497300,1496,1503,1245,1498,1000,0,0,0
1691768151499643,1494,1509,1245,1499,1000,0,0,0
1691768151503203,1494,1494,1253,1498,1000,0,0,0
1691768151507248,1496,1490,1252,1498,1000,0,0,0
1691768151510960,1489,1481,1259,1498,1000,0,0,0
1691768151514974,1489,1482,1258,1498,1000,0,0,0
1691768151518807,1492,1484,1255,1498,1000,0,0,0
1691768151521327,1493,1489,1254,1498,1000,0,0,0
1691768151525101,1495,1492,1247,1498,1000,0,0,0
1691768151528834,1494,1494,1251,1498,1000,0,0,0
1691768151532796,1492,1494,1253,1498,1000,0,0,0
1691768151538136,1498,1494,1254,1498,1000,0,0,0
1691768151542544,1498,1495,1251,1498,1000,0,0,0
1691768151543319,1499,1497,1250,1498,1000,0,0,0
1691768151548165,1499,1497,1249,1498,1000,0,0,0
1691768151550955,1502,1498,1245,1498,1000,0,0,0
1691768151554743,1501,1497,1251,1498,1000,0,0,0
1691768151559335,1502,1496,1252,1498,1000,0,0,0
1691768151562665,1502,1495,1251,1498,1000,0,0,0
1691768151565886,1501,1496,1250,1498,1000,0,0,0
1691768151570768,1503,1496,1248,1498,1000,0,0,0
1691768151572865,1503,1497,1248,1498,1000,0,0,0
1691768151578533,1462,1483,1271,1498,1000,0,0,0
1691768151581087,1473,1495,1273,1496,1000,0,0,0
1691768151584778,1478,1488,1268,1496,1000,0,0,0
1691768151586953,1485,1489,1262,1496,1000,0,0,0
1691768151591015,1492,1492,1258,1496,1000,0,0,0
1691768151595153,1499,1493,1254,1495,1000,0,0,0
1691768151599346,1507,1487,1251,1495,1000,0,0,0
1691768151601534,1513,1485,1250,1495,1000,0,0,0
1691768151605062,1512,1488,1251,1495,1000,0,0,0
1691768151609190,1513,1489,1251,1495,1000,0,0,0
1691768151612763,1516,1490,1251,1495,1000,0,0,0
1691768151617311,1513,1496,1251,1495,1000,0,0,0
1691768151620064,1511,1490,1257,1495,1000,0,0,0
1691768151624052,1516,1486,1252,1494,1000,0,0,0
1691768151628010,1518,1486,1250,1494,1000,0,0,0
1691768151630518,1517,1487,1250,1494,1000,0,0,0
1691768151634512,1517,1489,1250,1494,1000,0,0,0
1691768151637991,1519,1491,1250,1494,1000,0,0,0
1691768151642043,1520,1490,1251,1494,1000,0,0,0
1691768151646030,1523,1489,1249,1494,1000,0,0,0
1691768151649793,1523,1491,1249,1494,1000,0,0,0
1691768151652605,1523,1492,1247,1494,1000,0,0,0
1691768151656045,1522,1495,1248,1494,1000,0,0,0
1691768151660020,1519,1496,1249,1494,1000,0,0,0
1691768151663839,1519,1497,1248,1495,1000,0,0,0
1691768151668109,1521,1502,1247,1495,1000,0,0,0
1691768151670536,1518,1497,1250,1495,1000,0,0,0
1691768151674618,1516,1495,1252,1495,1000,0,0,0
1691768151677924,1515,1491,1253,1495,1000,0,0,0
1691768151681932,1516,1490,1254,1495,1000,0,0,0
1691768151688263,1515,1491,1253,1495,1000,0,0,0
1691768151689696,1516,1491,1250,1495,1000,0,0,0
1691768151692534,1516,1494,1252,1496,1000,0,0,0
1691768151696165,1513,1497,1252,1496,1000,0,0,0
1691768151700639,1512,1500,1249,1496,1000,0,0,0
1691768151704052,1511,1497,1252,1496,1000,0,0,0
1691768151707205,1512,1498,1253,1496,1000,0,0,0
1691768151711039,1511,1497,1251,1496,1000,0,0,0
1691768151714940,1511,1498,1252,1496,1000,0,0,0
1691768151718823,1513,1497,1252,1496,1000,0,0,0
1691768151721304,1512,1497,1252,1496,1000,0,0,0
1691768151725257,1509,1499,1251,1496,1000,0,0,0
1691768151729032,1510,1501,1251,1497,1000,0,0,0
1691768151733012,1510,1508,1247,1497,1000,0,0,0
1691768151737225,1618,1523,1183,1501,1000,0,0,0
1691768151739642,1544,1526,1227,1500,1000,0,0,0
1691768151744116,1517,1520,1245,1500,1000,0,0,0
1691768151747034,1505,1515,1251,1500,1000,0,0,0
1691768151751059,1498,1516,1253,1501,1000,0,0,0
1691768151754946,1495,1507,1260,1501,1000,0,0,0
1691768151758967,1492,1502,1257,1501,1000,0,0,0
1691768151761398,1491,1502,1256,1501,1000,0,0,0
1691768151765224,1492,1504,1257,1501,1000,0,0,0
1691768151769311,1489,1504,1255,1501,1000,0,0,0
1691768151773033,1483,1507,1257,1501,1000,0,0,0
1691768151777995,1482,1511,1257,1501,1000,0,0,0
1691768151779668,1484,1504,1259,1501,1000,0,0,0
1691768151783944,1482,1503,1259,1501,1000,0,0,0
1691768151787053,1481,1513,1254,1502,1000,0,0,0
1691768151792071,1482,1513,1255,1502,1000,0,0,0
1691768151795483,1482,1504,1262,1501,1000,0,0,0
1691768151800728,1484,1500,1262,1501,1000,0,0,0
1691768151802315,1484,1501,1262,1501,1000,0,0,0
1691768151805124,1482,1508,1259,1502,1000,0,0,0
1691768151809291,1479,1505,1261,1501,1000,0,0,0
1691768151813003,1485,1502,1259,1501,1000,0,0,0
1691768151817100,1485,1504,1258,1501,1000,0,0,0
1691768151819961,1481,1507,1258,1501,1000,0,0,0
1691768151823385,1479,1508,1261,1501,1000,0,0,0
1691768151827221,1480,1504,1261,1501,1000,0,0,0
1691768151831093,1481,1508,1257,1501,1000,0,0,0
1691768151835247,1480,1500,1261,1501,1000,0,0,0
1691768151838043,1481,1497,1258,1501,1000,0,0,0
1691768151841578,1482,1500,1261,1501,1000,0,0,0
1691768151845300,1480,1501,1260,1501,1000,0,0,0
1691768151849256,1483,1500,1259,1501,1000,0,0,0
1691768151853158,1485,1497,1258,1501,1000,0,0,0
1691768151857309,1471,1502,1278,1500,1000,0,0,0
1691768151860333,1468,1501,1276,1500,1000,0,0,0
1691768151863358,1469,1498,1271,1500,1000,0,0,0
1691768151867307,1489,1507,1261,1500,1000,0,0,0
1691768151871745,1507,1487,1237,1499,1000,0,0,0
1691768151876528,1503,1494,1242,1499,1000,0,0,0
1691768151884797,1501,1501,1248,1499,1000,0,0,0
1691768151885154,1493,1502,1256,1499,1000,0,0,0
1691768151885409,1494,1501,1255,1499,1000,0,0,0
1691768151888642,1490,1503,1253,1499,1000,0,0,0
1691768151892661,1491,1495,1259,1499,1000,0,0,0
1691768151896147,1489,1495,1262,1499,1000,0,0,0
1691768151900347,1496,1493,1256,1499,1000,0,0,0
1691768151904838,1495,1500,1256,1499,1000,0,0,0
1691768151906970,1496,1497,1261,1499,1000,0,0,0
1691768151910787,1490,1510,1274,1499,1000,0,0,0
1691768151914298,1484,1516,1280,1499,1000,0,0,0
1691768151918296,1483,1515,1275,1499,1000,0,0,0
1691768151922228,1488,1511,1270,1500,1000,0,0,0
1691768151925268,1491,1507,1267,1500,1000,0,0,0
1691768151928915,1491,1500,1266,1500,1000,0,0,0
1691768151932540,1495,1496,1265,1500,1000,0,0,0
1691768151936223,1500,1498,1259,1500,1000,0,0,0
1691768151939636,1506,1476,1231,1499,1000,0,0,0
1691768151943385,1514,1466,1226,1499,1000,0,0,0
1691768151946954,1509,1475,1250,1499,1000,0,0,0
1691768151951315,1507,1482,1256,1499,1000,0,0,0
1691768151956235,1505,1490,1257,1500,1000,0,0,0
1691768151958529,1505,1490,1260,1499,1000,0,0,0
1691768151962216,1505,1489,1262,1499,1000,0,0,0
1691768151966100,1504,1491,1260,1499,1000,0,0,0
1691768151969440,1506,1499,1258,1499,1000,0,0,0
1691768151974374,1505,1495,1261,1499,1000,0,0,0
1691768151977377,1504,1502,1259,1499,1000,0,0,0
1691768151980834,1500,1502,1256,1499,1000,0,0,0
1691768151983379,1500,1500,1260,1499,1000,0,0,0
1691768151987023,1499,1495,1265,1499,1000,0,0,0
1691768151990769,1499,1499,1267,1499,1000,0,0,0
1691768151994584,1504,1495,1261,1499,1000,0,0,0
1691768151999489,1488,1495,1275,1498,1000,0,0,0
1691768152002305,1486,1501,1273,1498,1000,0,0,0
1691768152006035,1487,1495,1275,1498,1000,0,0,0
1691768152008903,1519,1491,1242,1498,1000,0,0,0
1691768152012543,1513,1502,1252,1498,1000,0,0,0
1691768152016551,1515,1505,1251,1498,1000,0,0,0
1691768152020629,1511,1504,1257,1498,1000,0,0,0
1691768152024384,1509,1507,1262,1498,1000,0,0,0
1691768152027397,1504,1504,1256,1498,1000,0,0,0
1691768152032351,1502,1502,1262,1498,1000,0,0,0
1691768152034288,1502,1500,1264,1498,1000,0,0,0
1691768152041534,1503,1504,1254,1498,1000,0,0,0
1691768152045473,1500,1502,1262,1498,1000,0,0,0
1691768152048998,1502,1501,1261,1498,1000,0,0,0
1691768152052873,1504,1503,1257,1498,1000,0,0,0
1691768152056224,1506,1511,1243,1498,1000,0,0,0
1691768152059802,1506,1511,1249,1498,1000,0,0,0
1691768152063671,1489,1506,1273,1498,1000,0,0,0
1691768152067428,1484,1503,1271,1498,1000,0,0,0
1691768152071508,1486,1497,1276,1498,1000,0,0,0
1691768152074368,1516,1497,1246,1498,1000,0,0,0
1691768152078087,1514,1501,1249,1498,1000,0,0,0
1691768152081574,1511,1505,1254,1498,1000,0,0,0
1691768152086226,1512,1511,1254,1498,1000,0,0,0
1691768152088883,1493,1505,1275,1498,1000,0,0,0
1691768152092813,1490,1505,1275,1498,1000,0,0,0
1691768152096644,1489,1502,1268,1498,1000,0,0,0
1691768152100589,1502,1509,1260,1498,1000,0,0,0
1691768152104058,1517,1495,1242,1498,1000,0,0,0
1691768152107476,1514,1498,1249,1498,1000,0,0,0
1691768152115274,1506,1515,1267,1498,1000,0,0,0
1691768152115992,1503,1512,1268,1498,1000,0,0,0
1691768152117814,1511,1498,1246,1498,1000,0,0,0
1691768152121688,1506,1501,1255,1498,1000,0,0,0
1691768152125640,1504,1498,1265,1498,1000,0,0,0
1691768152129396,1505,1498,1265,1498,1000,0,0,0
1691768152133494,1503,1502,1262,1498,1000,0,0,0
1691768152136497,1505,1502,1261,1498,1000,0,0,0
1691768152140500,1489,1501,1277,1498,1000,0,0,0
1691768152143433,1488,1501,1276,1498,1000,0,0,0
1691768152147439,1486,1499,1270,1498,1000,0,0,0
1691768152151606,1490,1498,1269,1498,1000,0,0,0
1691768152155221,1490,1491,1268,1498,1000,0,0,0
1691768152157935,1494,1493,1265,1498,1000,0,0,0
1691768152161678,1497,1496,1264,1498,1000,0,0,0
1691768152165703,1501,1506,1275,1498,1000,0,0,0
1691768152169617,1505,1496,1252,1498,1000,0,0,0
1691768152173558,1502,1497,1253,1498,1000,0,0,0
1691768152176177,1535,1500,1223,1498,1000,0,0,0
1691768152180531,1521,1495,1252,1498,1000,0,0,0
1691768152184274,1513,1504,1254,1498,1000,0,0,0
1691768152187142,1508,1502,1258,1498,1000,0,0,0
1691768152190719,1507,1501,1256,1498,1000,0,0,0
1691768152196230,1502,1496,1262,1498,1000,0,0,0
1691768152197839,1501,1496,1261,1498,1000,0,0,0
1691768152201701,1502,1496,1259,1498,1000,0,0,0
1691768152205748,1487,1495,1276,1498,1000,0,0,0
1691768152209892,1488,1506,1284,1498,1000,0,0,0
1691768152212909,1481,1485,1267,1498,1000,0,0,0
1691768152216552,1511,1481,1232,1498,1000,0,0,0
1691768152220694,1510,1490,1246,1498,1000,0,0,0
1691768152224249,1505,1496,1257,1498,1000,0,0,0
1691768152227107,1504,1502,1258,1498,1000,0,0,0
1691768152230783,1502,1495,1259,1498,1000,0,0,0
1691768152234538,1503,1494,1260,1498,1000,0,0,0
1691768152238570,1504,1497,1260,1498,1000,0,0,0
1691768152242359,1487,1497,1276,1498,1000,0,0,0
1691768152245280,1482,1494,1274,1498,1000,0,0,0
1691768152249536,1483,1490,1271,1498,1000,0,0,0
1691768152253226,1488,1488,1267,1498,1000,0,0,0
1691768152256037,1522,1496,1232,1498,1000,0,0,0
1691768152259678,1515,1503,1244,1498,1000,0,0,0
1691768152263653,1507,1502,1255,1498,1000,0,0,0
1691768152267599,1502,1499,1256,1498,1000,0,0,0
1691768152271604,1497,1494,1264,1498,1000,0,0,0
1691768152275268,1501,1500,1259,1499,1000,0,0,0
1691768152277891,1496,1495,1265,1499,1000,0,0,0
1691768152281501,1498,1493,1263,1499,1000,0,0,0
1691768152288004,1498,1498,1262,1499,1000,0,0,0
1691768152290118,1496,1496,1260,1499,1000,0,0,0
1691768152293235,1494,1493,1264,1499,1000,0,0,0
1691768152296450,1495,1491,1263,1499,1000,0,0,0
1691768152299743,1494,1496,1266,1499,1000,0,0,0
1691768152303737,1494,1497,1265,1499,1000,0,0,0
1691768152307597,1497,1495,1261,1499,1000,0,0,0
1691768152312053,1497,1498,1261,1499,1000,0,0,0
1691768152314517,1482,1498,1278,1499,1000,0,0,0
1691768152318553,1479,1497,1276,1499,1000,0,0,0
1691768152321609,1476,1487,1274,1499,1000,0,0,0
1691768152325790,1491,1512,1274,1499,1000,0,0,0
1691768152329815,1507,1499,1253,1499,1000,0,0,0
1691768152333251,1498,1508,1270,1499,1000,0,0,0
1691768152336096,1503,1498,1249,1499,1000,0,0,0
1691768152339866,1514,1483,1234,1498,1000,0,0,0
1691768152343581,1504,1486,1254,1498,1000,0,0,0
1691768152347787,1500,1490,1260,1499,1000,0,0,0
1691768152351603,1486,1495,1278,1499,1000,0,0,0
1691768152354386,1487,1505,1288,1499,1000,0,0,0
1691768152357944,1480,1482,1267,1499,1000,0,0,0
1691768152361569,1513,1484,1233,1498,1000,0,0,0
1691768152365379,1516,1496,1244,1498,1000,0,0,0
1691768152368824,1511,1502,1255,1499,1000,0,0,0
1691768152372613,1499,1506,1269,1499,1000,0,0,0
1691768152376644,1495,1511,1279,1499,1000,0,0,0
1691768152380630,1493,1510,1276,1499,1000,0,0,0
1691768152383295,1485,1495,1279,1499,1000,0,0,0
1691768152387062,1487,1491,1273,1499,1000,0,0,0
1691768152390757,1489,1462,1247,1499,1000,0,0,0
1691768152394558,1528,1481,1227,1498,1000,0,0,0
1691768152398763,1519,1495,1246,1499,1000,0,0,0
1691768152402079,1508,1496,1256,1499,1000,0,0,0
1691768152405241,1504,1500,1262,1499,1000,0,0,0
1691768152409814,1502,1497,1263,1499,1000,0,0,0
1691768152413008,1503,1499,1265,1499,1000,0,0,0
1691768152417032,1499,1495,1268,1499,1000,0,0,0
1691768152420702,1499,1495,1268,1499,1000,0,0,0
1691768152423764,1500,1500,1265,1499,1000,0,0,0
1691768152427854,1501,1502,1262,1499,1000,0,0,0
1691768152430780,1486,1497,1281,1499,1000,0,0,0
1691768152434190,1483,1491,1279,1499,1000,0,0,0
1691768152438175,1497,1507,1268,1499,1000,0,0,0
1691768152441734,1510,1496,1253,1498,1000,0,0,0
1691768152445908,1506,1495,1260,1498,1000,0,0,0
1691768152449628,1503,1500,1263,1498,1000,0,0,0
1691768152453401,1497,1495,1271,1498,1000,0,0,0
1691768152457831,1496,1495,1271,1498,1000,0,0,0
1691768152459518,1496,1497,1271,1498,1000,0,0,0
1691768152463413,1497,1496,1266,1498,1000,0,0,0
1691768152467118,1497,1503,1269,1498,1000,0,0,0
1691768152471663,1496,1499,1264,1498,1000,0,0,0
1691768152474382,1492,1496,1270,1498,1000,0,0,0
1691768152477875,1492,1495,1267,1498,1000,0,0,0
1691768152481624,1494,1497,1270,1498,1000,0,0,0
1691768152485829,1497,1497,1268,1498,1000,0,0,0
1691768152489877,1487,1508,1290,1498,1000,0,0,0
1691768152492539,1488,1508,1271,1498,1000,0,0,0
1691768152496748,1497,1489,1258,1498,1000,0,0,0
1691768152499759,1498,1489,1258,1498,1000,0,0,0
1691768152503694,1498,1495,1264,1498,1000,0,0,0
1691768152507892,1484,1499,1281,1498,1000,0,0,0
1691768152511437,1483,1501,1277,1498,1000,0,0,0
1691768152514693,1480,1492,1278,1498,1000,0,0,0
1691768152517996,1484,1493,1273,1498,1000,0,0,0
1691768152521854,1492,1493,1270,1497,1000,0,0,0
1691768152525878,1511,1508,1249,1498,1000,0,0,0
1691768152529811,1521,1502,1240,1498,1000,0,0,0
1691768152533293,1508,1499,1255,1497,1000,0,0,0
1691768152536807,1505,1501,1257,1497,1000,0,0,0
1691768152539808,1504,1497,1262,1497,1000,0,0,0
1691768152543720,1486,1497,1278,1497,1000,0,0,0
1691768152547926,1487,1509,1286,1497,1000,0,0,0
1691768152551502,1493,1511,1275,1498,1000,0,0,0
1691768152554272,1507,1494,1248,1498,1000,0,0,0
1691768152557945,1505,1502,1253,1498,1000,0,0,0
1691768152563878,1511,1492,1239,1498,1000,0,0,0
1691768152567684,1507,1491,1250,1498,1000,0,0,0
1691768152570593,1504,1497,1261,1498,1000,0,0,0
1691768152572807,1500,1493,1260,1498,1000,0,0,0
1691768152576796,1502,1496,1264,1498,1000,0,0,0
1691768152581070,1503,1502,1267,1498,1000,0,0,0
1691768152583870,1501,1497,1254,1498,1000,0,0,0
1691768152586958,1499,1503,1252,1498,1000,0,0,0
1691768152590865,1498,1505,1270,1498,1000,0,0,0
1691768152594784,1496,1489,1263,1498,1000,0,0,0
1691768152599828,1495,1496,1268,1498,1000,0,0,0
1691768152601584,1497,1489,1258,1498,1000,0,0,0
1691768152606611,1500,1500,1268,1498,1000,0,0,0
1691768152608869,1496,1505,1267,1498,1000,0,0,0
1691768152612563,1492,1513,1280,1498,1000,0,0,0
1691768152617233,1494,1511,1275,1498,1000,0,0,0
1691768152621270,1505,1495,1252,1498,1000,0,0,0
1691768152623429,1506,1477,1243,1498,1000,0,0,0
1691768152626998,1503,1485,1252,1498,1000,0,0,0
1691768152630953,1506,1497,1258,1498,1000,0,0,0
1691768152634901,1489,1494,1278,1498,1000,0,0,0
1691768152638871,1489,1507,1286,1498,1000,0,0,0
1691768152641563,1489,1504,1284,1498,1000,0,0,0
1691768152645736,1498,1509,1266,1499,1000,0,0,0
1691768152648962,1491,1500,1269,1499,1000,0,0,0
1691768152652866,1494,1494,1265,1499,1000,0,0,0
1691768152657004,1501,1491,1262,1498,1000,0,0,0
1691768152660699,1527,1493,1228,1498,1000,0,0,0
1691768152663360,1530,1499,1225,1498,1000,0,0,0
1691768152667159,1511,1491,1254,1498,1000,0,0,0
1691768152671218,1508,1495,1263,1498,1000,0,0,0
1691768152674874,1506,1501,1267,1499,1000,0,0,0
1691768152678947,1498,1513,1281,1499,1000,0,0,0
1691768152681578,1490,1504,1286,1499,1000,0,0,0
1691768152685819,1490,1503,1278,1498,1000,0,0,0
1691768152689335,1490,1497,1271,1498,1000,0,0,0
1691768152692959,1495,1496,1262,1498,1000,0,0,0
1691768152696831,1499,1492,1262,1498,1000,0,0,0
1691768152701123,1504,1473,1239,1498,1000,0,0,0
1691768152703160,1503,1501,1266,1498,1000,0,0,0
1691768152707559,1511,1515,1255,1498,1000,0,0,0
1691768152710642,1501,1502,1272,1498,1000,0,0,0
1691768152715003,1499,1497,1269,1498,1000,0,0,0
1691768152718292,1500,1496,1265,1498,1000,0,0,0
1691768152721911,1516,1508,1250,1498,1000,0,0,0
1691768152725964,1507,1501,1262,1498,1000,0,0,0
1691768152729640,1527,1504,1228,1498,1000,0,0,0
1691768152732609,1520,1479,1238,1498,1000,0,0,0
1691768152736126,1514,1494,1260,1498,1000,0,0,0
1691768152740211,1503,1508,1280,1498,1000,0,0,0
1691768152744083,1499,1511,1273,1498,1000,0,0,0
1691768152747914,1494,1499,1273,1498,1000,0,0,0
1691768152750586,1501,1505,1259,1498,1000,0,0,0
1691768152754205,1494,1497,1267,1498,1000,0,0,0
1691768152758037,1492,1492,1271,1498,1000,0,0,0
1691768152761862,1495,1491,1270,1498,1000,0,0,0
1691768152766070,1500,1491,1263,1498,1000,0,0,0
1691768152772139,1502,1476,1247,1498,1000,0,0,0
1691768152772408,1542,1484,1218,1497,1000,0,0,0
1691768152776215,1505,1506,1277,1498,1000,0,0,0
1691768152780079,1497,1509,1281,1498,1000,0,0,0
1691768152783986,1496,1508,1275,1498,1000,0,0,0
1691768152789798,1500,1511,1264,1498,1000,0,0,0
1691768152790627,1502,1509,1261,1498,1000,0,0,0
1691768152794570,1515,1492,1239,1498,1000,0,0,0
1691768152799306,1503,1507,1261,1498,1000,0,0,0
1691768152802052,1492,1485,1258,1498,1000,0,0,0
1691768152806013,1515,1482,1240,1498,1000,0,0,0
1691768152811013,1507,1497,1259,1498,1000,0,0,0
1691768152818109,1506,1494,1256,1498,1000,0,0,0
1691768152818447,1503,1494,1258,1498,1000,0,0,0
1691768152820314,1501,1501,1265,1498,1000,0,0,0
1691768152824156,1502,1508,1270,1498,1000,0,0,0
1691768152828111,1502,1502,1260,1498,1000,0,0,0
1691768152831333,1498,1503,1261,1498,1000,0,0,0
1691768152834393,1488,1510,1290,1498,1000,0,0,0
1691768152838243,1480,1500,1276,1498,1000,0,0,0
1691768152842065,1489,1518,1276,1498,1000,0,0,0
1691768152846059,1485,1512,1284,1498,1000,0,0,0
1691768152848696,1490,1511,1270,1498,1000,0,0,0
1691768152852559,1494,1507,1265,1498,1000,0,0,0
1691768152856111,1497,1506,1261,1498,1000,0,0,0
1691768152859867,1500,1512,1257,1498,1000,0,0,0
1691768152863436,1495,1506,1262,1498,1000,0,0,0
1691768152867132,1487,1495,1276,1498,1000,0,0,0
1691768152871046,1494,1500,1263,1498,1000,0,0,0
1691768152875092,1499,1502,1259,1498,1000,0,0,0
1691768152878810,1498,1505,1259,1498,1000,0,0,0
1691768152881314,1493,1503,1267,1498,1000,0,0,0
1691768152885684,1497,1504,1263,1498,1000,0,0,0
1691768152889132,1500,1503,1259,1498,1000,0,0,0
1691768152893254,1499,1498,1263,1498,1000,0,0,0
1691768152896145,1498,1499,1259,1498,1000,0,0,0
1691768152900265,1490,1492,1267,1498,1000,0,0,0
1691768152904036,1493,1497,1263,1498,1000,0,0,0
1691768152907987,1495,1497,1261,1498,1000,0,0,0
1691768152910733,1499,1496,1257,1498,1000,0,0,0
1691768152914250,1500,1498,1257,1498,1000,0,0,0
1691768152918131,1498,1500,1257,1499,1000,0,0,0
1691768152922354,1493,1493,1265,1499,1000,0,0,0
1691768152926188,1493,1493,1266,1499,1000,0,0,0
1691768152928983,1499,1503,1257,1499,1000,0,0,0
1691768152932663,1499,1500,1260,1499,1000,0,0,0
1691768152936529,1501,1497,1260,1499,1000,0,0,0
1691768152942080,1498,1490,1266,1499,1000,0,0,0
1691768152944129,1504,1501,1252,1499,1000,0,0,0
1691768152948119,1502,1501,1258,1499,1000,0,0,0
1691768152950934,1499,1498,1265,1499,1000,0,0,0
1691768152954364,1498,1495,1262,1499,1000,0,0,0
1691768152958566,1499,1495,1261,1499,1000,0,0,0
1691768152963039,1503,1495,1257,1499,1000,0,0,0
1691768152965084,1504,1498,1253,1499,1000,0,0,0
1691768152969219,1501,1499,1256,1499,1000,0,0,0
1691768152973099,1498,1496,1265,1499,1000,0,0,0
1691768152976937,1500,1502,1261,1499,1000,0,0,0
1691768152979691,1501,1498,1259,1499,1000,0,0,0
1691768152984171,1504,1498,1257,1499,1000,0,0,0
1691768152987306,1503,1494,1258,1499,1000,0,0,0
1691768152991365,1503,1497,1258,1499,1000,0,0,0
1691768152995359,1497,1493,1264,1499,1000,0,0,0
1691768152997917,1495,1494,1264,1499,1000,0,0,0
1691768153002164,1499,1492,1262,1499,1000,0,0,0
1691768153005926,1504,1491,1258,1499,1000,0,0,0
1691768153008991,1503,1495,1255,1499,1000,0,0,0
1691768153012576,1502,1499,1256,1499,1000,0,0,0
1691768153016103,1501,1499,1257,1499,1000,0,0,0
1691768153020329,1499,1494,1262,1499,1000,0,0,0
1691768153024530,1500,1498,1262,1499,1000,0,0,0
1691768153027974,1503,1498,1256,1499,1000,0,0,0
1691768153034652,1505,1492,1255,1499,1000,0,0,0
1691768153034903,1502,1497,1256,1499,1000,0,0,0
1691768153038850,1495,1492,1266,1499,1000,0,0,0
1691768153042595,1501,1495,1261,1499,1000,0,0,0
1691768153046059,1503,1494,1258,1499,1000,0,0,0
1691768153048761,1502,1495,1258,1499,1000,0,0,0
1691768153052832,1502,1495,1257,1499,1000,0,0,0
1691768153056678,1504,1498,1257,1499,1000,0,0,0
1691768153059800,1503,1499,1255,1499,1000,0,0,0
1691768153063442,1499,1496,1260,1499,1000,0,0,0
1691768153067606,1499,1496,1261,1499,1000,0,0,0
1691768153071261,1502,1498,1255,1499,1000,0,0,0
1691768153074191,1502,1500,1255,1499,1000,0,0,0
1691768153081414,1496,1489,1262,1499,1000,0,0,0
1691768153082262,1504,1497,1249,1499,1000,0,0,0
1691768153086098,1500,1497,1261,1499,1000,0,0,0
1691768153088860,1499,1498,1261,1499,1000,0,0,0
1691768153092646,1500,1497,1258,1499,1000,0,0,0
1691768153096639,1503,1494,1257,1499,1000,0,0,0
1691768153100216,1505,1498,1256,1499,1000,0,0,0
1691768153104336,1503,1500,1254,1499,1000,0,0,0
1691768153107157,1504,1501,1254,1499,1000,0,0,0
1691768153111343,1499,1497,1262,1499,1000,0,0,0
1691768153114270,1496,1498,1261,1499,1000,0,0,0
1691768153118120,1499,1500,1257,1499,1000,0,0,0
1691768153122824,1505,1499,1253,1499,1000,0,0,0
1691768153125923,1506,1504,1252,1499,1000,0,0,0
1691768153128960,1500,1500,1256,1499,1000,0,0,0
1691768153133278,1497,1495,1263,1499,1000,0,0,0
1691768153136534,1497,1495,1262,1499,1000,0,0,0
1691768153140306,1497,1496,1259,1499,1000,0,0,0
1691768153144616,1501,1497,1256,1499,1000,0,0,0
1691768153147037,1504,1498,1253,1499,1000,0,0,0
1691768153150540,1503,1503,1255,1499,1000,0,0,0
1691768153154435,1501,1504,1255,1499,1000,0,0,0
1691768153158561,1497,1500,1263,1499,1000,0,0,0
1691768153162341,1497,1498,1263,1499,1000,0,0,0
1691768153166057,1497,1498,1260,1499,1000,0,0,0
1691768153168788,1499,1498,1255,1499,1000,0,0,0
1691768153173605,1505,1503,1254,1499,1000,0,0,0
1691768153176693,1506,1505,1252,1499,1000,0,0,0
1691768153179891,1500,1502,1255,1499,1000,0,0,0
1691768153183846,1496,1498,1262,1499,1000,0,0,0
1691768153187457,1497,1496,1262,1499,1000,0,0,0
1691768153191417,1498,1498,1260,1499,1000,0,0,0
1691768153199034,1500,1498,1257,1499,1000,0,0,0
1691768153199294,1502,1498,1255,1499,1000,0,0,0
1691768153202815,1502,1502,1256,1499,1000,0,0,0
1691768153205992,1509,1513,1247,1499,1000,0,0,0
1691768153210030,1496,1500,1267,1499,1000,0,0,0
1691768153216043,1494,1497,1266,1499,1000,0,0,0
1691768153216846,1495,1497,1262,1499,1000,0,0,0
1691768153219938,1496,1497,1259,1499,1000,0,0,0
1691768153223831,1499,1497,1256,1499,1000,0,0,0
1691768153227461,1514,1516,1243,1499,1000,0,0,0
1691768153230730,1498,1506,1262,1499,1000,0,0,0
1691768153234591,1493,1497,1267,1499,1000,0,0,0
1691768153238648,1495,1494,1261,1499,1000,0,0,0
1691768153242386,1497,1496,1261,1499,1000,0,0,0
1691768153245125,1499,1496,1258,1499,1000,0,0,0
1691768153248808,1501,1498,1256,1499,1000,0,0,0
1691768153252610,1510,1511,1247,1499,1000,0,0,0
1691768153261029,1505,1512,1254,1499,1000,0,0,0
1691768153261551,1503,1508,1258,1499,1000,0,0,0
1691768153264068,1494,1497,1267,1499,1000,0,0,0
1691768153267025,1492,1495,1271,1499,1000,0,0,0
1691768153274586,1489,1493,1266,1499,1000,0,0,0
1691768153274800,1491,1493,1262,1499,1000,0,0,0
1691768153280567,1496,1496,1257,1499,1000,0,0,0
1691768153283262,1497,1500,1257,1499,1000,0,0,0
1691768153287462,1497,1504,1257,1499,1000,0,0,0
1691768153289093,1497,1500,1263,1499,1000,0,0,0
1691768153292887,1495,1495,1265,1499,1000,0,0,0
1691768153296643,1494,1495,1263,1499,1000,0,0,0
1691768153299484,1496,1496,1262,1499,1000,0,0,0
1691768153304818,1497,1497,1261,1499,1000,0,0,0
1691768153307463,1499,1496,1260,1499,1000,0,0,0
1691768153311890,1499,1500,1257,1499,1000,0,0,0
1691768153315151,1508,1511,1249,1499,1000,0,0,0
1691768153319265,1495,1499,1268,1499,1000,0,0,0
1691768153322138,1492,1498,1270,1499,1000,0,0,0
1691768153325559,1492,1495,1263,1499,1000,0,0,0
1691768153329897,1495,1495,1260,1499,1000,0,0,0
1691768153333141,1498,1498,1259,1499,1000,0,0,0
1691768153336163,1498,1501,1256,1499,1000,0,0,0
1691768153339758,1497,1501,1263,1499,1000,0,0,0
1691768153343533,1496,1502,1264,1499,1000,0,0,0
1691768153347659,1494,1496,1264,1499,1000,0,0,0
1691768153351533,1495,1493,1260,1499,1000,0,0,0
1691768153355312,1498,1493,1261,1499,1000,0,0,0
1691768153358040,1500,1497,1261,1499,1000,0,0,0
1691768153361612,1508,1510,1248,1499,1000,0,0,0
1691768153365532,1495,1498,1268,1499,1000,0,0,0
1691768153370640,1493,1497,1269,1499,1000,0,0,0
1691768153372593,1494,1496,1264,1499,1000,0,0,0
1691768153376660,1497,1494,1260,1499,1000,0,0,0
1691768153380619,1498,1498,1259,1499,1000,0,0,0
1691768153383853,1507,1510,1249,1499,1000,0,0,0
1691768153387676,1496,1502,1267,1499,1000,0,0,0
1691768153391639,1494,1498,1266,1498,1000,0,0,0
1691768153394340,1495,1493,1264,1498,1000,0,0,0
1691768153397980,1498,1490,1261,1498,1000,0,0,0
1691768153401556,1498,1494,1259,1498,1000,0,0,0
1691768153405713,1507,1507,1248,1499,1000,0,0,0
1691768153409584,1496,1496,1267,1498,1000,0,0,0
1691768153413332,1494,1494,1268,1498,1000,0,0,0
1691768153416069,1495,1493,1264,1498,1000,0,0,0
1691768153420108,1498,1493,1258,1498,1000,0,0,0
1691768153423665,1500,1496,1259,1498,1000,0,0,0
1691768153427561,1508,1507,1248,1499,1000,0,0,0
1691768153431933,1496,1501,1265,1498,1000,0,0,0
1691768153434129,1495,1499,1265,1498,1000,0,0,0
1691768153437982,1495,1491,1263,1498,1000,0,0,0
1691768153441465,1498,1491,1258,1498,1000,0,0,0
1691768153445140,1508,1503,1246,1498,1000,0,0,0
1691768153448788,1505,1505,1254,1498,1000,0,0,0
1691768153452575,1494,1494,1270,1498,1000,0,0,0
1691768153456746,1492,1491,1266,1498,1000,0,0,0
1691768153460628,1494,1492,1264,1498,1000,0,0,0
1691768153463423,1497,1492,1263,1498,1000,0,0,0
1691768153467601,1499,1493,1258,1498,1000,0,0,0
1691768153471188,1507,1506,1249,1498,1000,0,0,0
1691768153474242,1507,1505,1255,1498,1000,0,0,0
1691768153477810,1505,1504,1258,1498,1000,0,0,0
1691768153481647,1492,1485,1216,1498,1000,0,0,0
1691768153486723,1490,1482,1208,1498,1000,0,0,0
1691768153489737,1495,1485,1202,1498,1000,0,0,0
1691768153492543,1502,1486,1197,1498,1000,0,0,0
1691768153496751,1516,1503,1183,1498,1000,0,0,0
1691768153501413,1513,1499,1192,1498,1000,0,0,0
1691768153503298,1506,1491,1200,1498,1000,0,0,0
1691768153507735,1494,1479,1209,1498,1000,0,0,0
1691768153510555,1489,1479,1210,1498,1000,0,0,0
1691768153514590,1492,1480,1208,1498,1000,0,0,0
1691768153517905,1493,1483,1207,1498,1000,0,0,0
1691768153523884,1494,1485,1207,1498,1000,0,0,0
1691768153525006,1511,1500,1197,1498,1000,0,0,0
1691768153528780,1512,1504,1201,1498,1000,0,0,0
1691768153533731,1496,1490,1217,1498,1000,0,0,0
1691768153536037,1495,1489,1220,1498,1000,0,0,0
1691768153539875,1506,1497,1210,1498,1000,0,0,0
1691768153543699,1500,1495,1219,1498,1000,0,0,0
1691768153547810,1497,1491,1223,1498,1000,0,0,0
1691768153551370,1497,1490,1224,1498,1000,0,0,0
1691768153554296,1496,1493,1227,1498,1000,0,0,0
1691768153558317,1497,1497,1228,1498,1000,0,0,0
1691768153561784,1497,1496,1230,1498,1000,0,0,0
1691768153565818,1498,1497,1231,1498,1000,0,0,0
1691768153569723,1508,1505,1222,1498,1000,0,0,0
1691768153572393,1507,1506,1225,1498,1000,0,0,0
1691768153576028,1501,1502,1234,1498,1000,0,0,0
1691768153579907,1499,1499,1237,1498,1000,0,0,0
1691768153583775,1503,1503,1236,1498,1000,0,0,0
1691768153587829,1498,1502,1240,1498,1000,0,0,0
1691768153591493,1498,1501,1242,1498,1000,0,0,0
1691768153594043,1497,1501,1242,1498,1000,0,0,0
1691768153598721,1497,1502,1243,1498,1000,0,0,0
1691768153602364,1498,1503,1244,1498,1000,0,0,0
1691768153605289,1499,1506,1245,1498,1000,0,0,0
1691768153608835,1499,1506,1246,1498,1000,0,0,0
1691768153612706,1499,1507,1246,1498,1000,0,0,0
1691768153616822,1499,1505,1247,1498,1000,0,0,0
1691768153619731,1499,1505,1248,1498,1000,0,0,0
1691768153623708,1500,1505,1248,1498,1000,0,0,0
1691768153627074,1500,1505,1249,1498,1000,0,0,0
1691768153630975,1500,1506,1249,1498,1000,0,0,0
1691768153635081,1503,1509,1248,1498,1000,0,0,0
1691768153639010,1503,1509,1248,1498,1000,0,0,0
1691768153641471,1502,1510,1249,1498,1000,0,0,0
1691768153645805,1500,1505,1251,1498,1000,0,0,0
1691768153648799,1499,1505,1252,1498,1000,0,0,0
1691768153652749,1499,1505,1253,1498,1000,0,0,0
1691768153657323,1499,1505,1253,1498,1000,0,0,0
1691768153659574,1500,1504,1253,1498,1000,0,0,0
1691768153663405,1500,1506,1253,1498,1000,0,0,0
1691768153666884,1501,1508,1252,1498,1000,0,0,0
1691768153670587,1502,1509,1252,1498,1000,0,0,0
1691768153674349,1502,1509,1252,1498,1000,0,0,0
1691768153677871,1500,1506,1255,1499,1000,0,0,0
1691768153681547,1499,1502,1259,1498,1000,0,0,0
1691768153685234,1498,1502,1259,1499,1000,0,0,0
1691768153688984,1499,1505,1257,1498,1000,0,0,0
1691768153692912,1500,1504,1257,1498,1000,0,0,0
1691768153696905,1501,1505,1257,1498,1000,0,0,0
1691768153700697,1503,1508,1255,1498,1000,0,0,0
1691768153703348,1503,1509,1255,1498,1000,0,0,0
1691768153706977,1500,1504,1260,1498,1000,0,0,0
1691768153710801,1498,1500,1262,1498,1000,0,0,0
1691768153714914,1498,1500,1261,1498,1000,0,0,0
1691768153718810,1500,1500,1260,1498,1000,0,0,0
1691768153721447,1500,1502,1258,1498,1000,0,0,0
1691768153725040,1502,1505,1256,1498,1000,0,0,0
1691768153728799,1499,1502,1259,1498,1000,0,0,0
1691768153732887,1498,1501,1261,1498,1000,0,0,0
1691768153736498,1499,1501,1260,1498,1000,0,0,0
1691768153739892,1500,1501,1259,1498,1000,0,0,0
1691768153743874,1500,1502,1258,1498,1000,0,0,0
1691768153747796,1502,1505,1256,1498,1000,0,0,0
1691768153750721,1502,1505,1255,1498,1000,0,0,0
1691768153754861,1498,1502,1259,1498,1000,0,0,0
1691768153759063,1499,1502,1258,1498,1000,0,0,0
1691768153762622,1501,1501,1258,1498,1000,0,0,0
1691768153765226,1500,1503,1256,1498,1000,0,0,0
1691768153768970,1501,1504,1255,1498,1000,0,0,0
1691768153772953,1499,1498,1259,1498,1000,0,0,0
1691768153777047,1499,1497,1260,1498,1000,0,0,0
1691768153780647,1499,1498,1259,1498,1000,0,0,0
1691768153783316,1500,1498,1258,1498,1000,0,0,0
1691768153787049,1500,1499,1257,1498,1000,0,0,0
1691768153790981,1501,1502,1255,1498,1000,0,0,0
1691768153794879,1499,1499,1258,1498,1000,0,0,0
1691768153798051,1499,1498,1258,1498,1000,0,0,0
1691768153801935,1499,1498,1258,1498,1000,0,0,0
1691768153805898,1499,1498,1257,1498,1000,0,0,0
1691768153809731,1499,1499,1256,1498,1000,0,0,0
1691768153812323,1502,1501,1255,1498,1000,0,0,0
1691768153817134,1501,1501,1254,1498,1000,0,0,0
1691768153819897,1499,1500,1256,1498,1000,0,0,0
1691768153824070,1499,1499,1256,1498,1000,0,0,0
1691768153827913,1500,1499,1256,1498,1000,0,0,0
1691768153830676,1501,1500,1254,1498,1000,0,0,0
1691768153834996,1501,1501,1254,1498,1000,0,0,0
1691768153838234,1499,1494,1258,1498,1000,0,0,0
1691768153841613,1498,1493,1259,1498,1000,0,0,0
1691768153845163,1500,1498,1256,1498,1000,0,0,0
1691768153848941,1499,1494,1257,1498,1000,0,0,0
1691768153852425,1502,1498,1255,1498,1000,0,0,0
1691768153857323,1501,1499,1254,1498,1000,0,0,0
1691768153860740,1499,1495,1257,1498,1000,0,0,0
1691768153863863,1498,1494,1257,1498,1000,0,0,0
1691768153869069,1498,1494,1257,1498,1000,0,0,0
1691768153870882,1499,1494,1256,1498,1000,0,0,0
1691768153875075,1499,1495,1256,1498,1000,0,0,0
1691768153878715,1501,1498,1254,1498,1000,0,0,0
1691768153881589,1501,1499,1254,1498,1000,0,0,0
1691768153885328,1499,1497,1255,1498,1000,0,0,0
1691768153889695,1498,1495,1256,1498,1000,0,0,0
1691768153892591,1499,1495,1256,1498,1000,0,0,0
1691768153896046,1499,1492,1257,1498,1000,0,0,0
1691768153899982,1499,1494,1255,1498,1000,0,0,0
1691768153903963,1500,1498,1254,1498,1000,0,0,0
1691768153907032,1499,1492,1257,1498,1000,0,0,0
1691768153910801,1498,1493,1257,1498,1000,0,0,0
1691768153914922,1497,1494,1256,1498,1000,0,0,0
1691768153918781,1499,1492,1256,1498,1000,0,0,0
1691768153921492,1500,1493,1256,1498,1000,0,0,0
1691768153925257,1499,1496,1255,1498,1000,0,0,0
1691768153929082,1500,1498,1254,1498,1000,0,0,0
1691768153933437,1499,1493,1256,1498,1000,0,0,0
1691768153937466,1498,1493,1257,1498,1000,0,0,0
1691768153940045,1498,1494,1256,1498,1000,0,0,0
1691768153943362,1499,1492,1256,1498,1000,0,0,0
1691768153947679,1500,1494,1256,1498,1000,0,0,0
1691768153951053,1500,1498,1254,1498,1000,0,0,0
1691768153955108,1500,1498,1254,1498,1000,0,0,0
1691768153958972,1500,1496,1256,1498,1000,0,0,0
1691768153961423,1500,1495,1257,1498,1000,0,0,0
1691768153965244,1499,1496,1256,1498,1000,0,0,0
1691768153969187,1500,1497,1256,1498,1000,0,0,0
1691768153973049,1501,1499,1254,1498,1000,0,0,0
1691768153977061,1501,1499,1254,1498,1000,0,0,0
1691768153979593,1498,1492,1257,1498,1000,0,0,0
1691768153983523,1498,1492,1258,1498,1000,0,0,0
1691768153986956,1499,1492,1257,1498,1000,0,0,0
1691768153990970,1499,1494,1256,1498,1000,0,0,0
1691768153995009,1500,1498,1254,1498,1000,0,0,0
1691768153998771,1501,1499,1254,1498,1000,0,0,0
1691768154001871,1498,1494,1257,1498,1000,0,0,0
1691768154005077,1498,1494,1257,1498,1000,0,0,0
1691768154009285,1501,1497,1255,1498,1000,0,0,0
1691768154012975,1500,1494,1257,1498,1000,0,0,0
1691768154017001,1501,1500,1254,1498,1000,0,0,0
1691768154019637,1501,1501,1254,1498,1000,0,0,0
1691768154023691,1499,1498,1256,1498,1000,0,0,0
1691768154027176,1498,1494,1257,1498,1000,0,0,0
1691768154031043,1497,1494,1257,1498,1000,0,0,0
1691768154035256,1499,1493,1256,1498,1000,0,0,0
1691768154038894,1501,1499,1254,1498,1000,0,0,0
1691768154042447,1500,1501,1254,1498,1000,0,0,0
1691768154045098,1497,1495,1257,1498,1000,0,0,0
1691768154048672,1498,1494,1257,1498,1000,0,0,0
1691768154052687,1498,1496,1257,1498,1000,0,0,0
1691768154056048,1499,1496,1256,1498,1000,0,0,0
1691768154059690,1499,1497,1256,1498,1000,0,0,0
1691768154063385,1500,1501,1254,1498,1000,0,0,0
1691768154067166,1499,1498,1256,1498,1000,0,0,0
1691768154070988,1498,1498,1256,1498,1000,0,0,0
1691768154075174,1499,1500,1256,1498,1000,0,0,0
1691768154078194,1500,1500,1255,1498,1000,0,0,0
1691768154082183,1499,1499,1255,1498,1000,0,0,0
1691768154085907,1500,1502,1254,1498,1000,0,0,0
1691768154089115,1501,1502,1254,1498,1000,0,0,0
1691768154093140,1498,1498,1256,1498,1000,0,0,0
1691768154096997,1498,1497,1256,1498,1000,0,0,0
1691768154099824,1499,1496,1256,1498,1000,0,0,0
1691768154103413,1499,1498,1255,1498,1000,0,0,0
1691768154107728,1500,1502,1254,1498,1000,0,0,0
1691768154111252,1498,1498,1256,1498,1000,0,0,0
1691768154115183,1498,1498,1256,1498,1000,0,0,0
1691768154117974,1498,1499,1256,1498,1000,0,0,0
1691768154121640,1498,1499,1256,1498,1000,0,0,0
1691768154125543,1499,1500,1255,1498,1000,0,0,0
1691768154129373,1501,1503,1254,1498,1000,0,0,0
1691768154132574,1500,1503,1254,1498,1000,0,0,0
1691768154136522,1498,1500,1255,1498,1000,0,0,0
1691768154140208,1499,1501,1255,1498,1000,0,0,0
1691768154144813,1499,1501,1255,1498,1000,0,0,0
1691768154147039,1499,1500,1255,1498,1000,0,0,0
1691768154151211,1499,1501,1255,1498,1000,0,0,0
1691768154154244,1501,1503,1254,1498,1000,0,0,0
1691768154159432,1499,1500,1255,1498,1000,0,0,0
1691768154162195,1498,1500,1256,1498,1000,0,0,0
1691768154165975,1498,1499,1256,1498,1000,0,0,0
1691768154168804,1499,1499,1256,1498,1000,0,0,0
1691768154172416,1499,1501,1255,1498,1000,0,0,0
1691768154177004,1500,1503,1254,1499,1000,0,0,0
1691768154179692,1501,1503,1254,1499,1000,0,0,0
1691768154183389,1499,1500,1256,1498,1000,0,0,0
1691768154187257,1498,1500,1256,1498,1000,0,0,0
1691768154190567,1498,1499,1256,1498,1000,0,0,0
1691768154194368,1499,1500,1255,1498,1000,0,0,0
1691768154198363,1501,1503,1254,1499,1000,0,0,0
1691768154202299,1502,1505,1253,1499,1000,0,0,0
1691768154206079,1499,1502,1255,1498,1000,0,0,0
1691768154208980,1499,1502,1255,1498,1000,0,0,0
1691768154212396,1498,1500,1256,1498,1000,0,0,0
1691768154216510,1499,1499,1256,1498,1000,0,0,0
1691768154220302,1499,1500,1255,1498,1000,0,0,0
1691768154224229,1500,1503,1254,1498,1000,0,0,0
1691768154227079,1499,1500,1256,1498,1000,0,0,0
1691768154230683,1498,1499,1256,1498,1000,0,0,0
1691768154234407,1498,1500,1256,1498,1000,0,0,0
1691768154238597,1498,1500,1256,1498,1000,0,0,0
1691768154242210,1499,1499,1255,1498,1000,0,0,0
1691768154246684,1499,1501,1255,1498,1000,0,0,0
1691768154249183,1501,1503,1254,1498,1000,0,0,0
1691768154253097,1500,1503,1254,1498,1000,0,0,0
1691768154257072,1498,1500,1255,1498,1000,0,0,0
1691768154260704,1498,1500,1256,1498,1000,0,0,0
1691768154264381,1498,1499,1256,1498,1000,0,0,0
1691768154266987,1499,1500,1255,1498,1000,0,0,0
1691768154271217,1501,1503,1254,1498,1000,0,0,0
1691768154274400,1502,1504,1254,1498,1000,0,0,0
1691768154278460,1498,1499,1256,1498,1000,0,0,0
1691768154282965,1497,1498,1256,1498,1000,0,0,0
1691768154287086,1498,1498,1257,1498,1000,0,0,0
1691768154288880,1499,1498,1256,1498,1000,0,0,0
1691768154292654,1499,1499,1256,1498,1000,0,0,0
1691768154296710,1501,1502,1254,1498,1000,0,0,0
1691768154300371,1500,1502,1254,1498,1000,0,0,0
1691768154303818,1498,1498,1256,1498,1000,0,0,0
1691768154307384,1498,1498,1256,1498,1000,0,0,0
1691768154311569,1498,1498,1256,1498,1000,0,0,0
1691768154315190,1499,1498,1256,1498,1000,0,0,0
1691768154318073,1499,1498,1256,1498,1000,0,0,0
1691768154321753,1500,1501,1255,1498,1000,0,0,0
1691768154325427,1501,1501,1254,1498,1000,0,0,0
1691768154330000,1499,1498,1257,1498,1000,0,0,0
1691768154333888,1498,1497,1257,1498,1000,0,0,0
1691768154336258,1499,1497,1257,1498,1000,0,0,0
1691768154339849,1500,1496,1257,1498,1000,0,0,0
1691768154343650,1500,1498,1256,1498,1000,0,0,0
1691768154347917,1501,1501,1254,1498,1000,0,0,0
1691768154351485,1500,1501,1255,1498,1000,0,0,0
1691768154355235,1498,1497,1257,1498,1000,0,0,0
1691768154358304,1498,1496,1257,1498,1000,0,0,0
1691768154364328,1499,1496,1257,1498,1000,0,0,0
1691768154366060,1500,1496,1257,1498,1000,0,0,0
1691768154369570,1501,1499,1255,1498,1000,0,0,0
1691768154372611,1501,1500,1255,1498,1000,0,0,0
1691768154376635,1499,1499,1256,1498,1000,0,0,0
1691768154380665,1498,1496,1257,1498,1000,0,0,0
1691768154384226,1498,1495,1258,1498,1000,0,0,0
1691768154387608,1498,1495,1258,1498,1000,0,0,0
1691768154390731,1499,1496,1257,1498,1000,0,0,0
1691768154395392,1501,1499,1255,1498,1000,0,0,0
1691768154398112,1501,1500,1255,1498,1000,0,0,0
1691768154401955,1499,1497,1257,1498,1000,0,0,0
1691768154405578,1499,1498,1256,1498,1000,0,0,0
1691768154409491,1499,1497,1257,1498,1000,0,0,0
1691768154412990,1499,1498,1256,1498,1000,0,0,0
1691768154415996,1499,1497,1256,1498,1000,0,0,0
1691768154419947,1501,1499,1255,1498,1000,0,0,0
1691768154423453,1501,1499,1254,1498,1000,0,0,0
1691768154427746,1499,1495,1257,1498,1000,0,0,0
1691768154431548,1498,1495,1257,1498,1000,0,0,0
1691768154434154,1499,1494,1257,1498,1000,0,0,0
1691768154438179,1499,1495,1256,1498,1000,0,0,0
1691768154441534,1500,1496,1256,1498,1000,0,0,0
1691768154445398,1501,1499,1255,1498,1000,0,0,0
1691768154449155,1500,1497,1255,1498,1000,0,0,0
1691768154452711,1499,1494,1257,1498,1000,0,0,0
1691768154456980,1499,1494,1257,1498,1000,0,0,0
1691768154460633,1499,1497,1256,1498,1000,0,0,0
1691768154464635,1499,1498,1256,1498,1000,0,0,0
1691768154466994,1500,1498,1255,1498,1000,0,0,0
1691768154471010,1502,1499,1254,1498,1000,0,0,0
1691768154474920,1499,1495,1256,1498,1000,0,0,0
1691768154478805,1499,1494,1257,1498,1000,0,0,0
1691768154481546,1499,1494,1257,1498,1000,0,0,0
1691768154485567,1499,1494,1257,1498,1000,0,0,0
1691768154489792,1499,1495,1256,1498,1000,0,0,0
1691768154492827,1500,1496,1256,1498,1000,0,0,0
1691768154495959,1502,1499,1254,1498,1000,0,0,0
1691768154499684,1502,1499,1254,1498,1000,0,0,0
1691768154503686,1499,1496,1256,1498,1000,0,0,0
1691768154507715,1499,1494,1257,1498,1000,0,0,0
1691768154511589,1499,1495,1257,1498,1000,0,0,0
1691768154515098,1499,1495,1256,1498,1000,0,0,0
1691768154517970,1500,1496,1256,1498,1000,0,0,0
1691768154521673,1503,1500,1254,1498,1000,0,0,0
1691768154525592,1501,1501,1254,1498,1000,0,0,0
1691768154529576,1499,1499,1255,1498,1000,0,0,0
1691768154533367,1498,1494,1257,1498,1000,0,0,0
1691768154535831,1499,1493,1257,1498,1000,0,0,0
1691768154539711,1499,1495,1257,1498,1000,0,0,0
1691768154543633,1501,1499,1255,1498,1000,0,0,0
1691768154547034,1501,1500,1255,1498,1000,0,0,0
1691768154550947,1499,1495,1257,1498,1000,0,0,0
1691768154554678,1497,1496,1257,1498,1000,0,0,0
1691768154558600,1498,1495,1257,1498,1000,0,0,0
1691768154562364,1498,1495,1257,1498,1000,0,0,0
1691768154565205,1499,1496,1257,1498,1000,0,0,0
1691768154568992,1499,1497,1256,1498,1000,0,0,0
1691768154573696,1500,1500,1255,1498,1000,0,0,0
1691768154576677,1498,1496,1257,1498,1000,0,0,0
1691768154580716,1498,1497,1257,1498,1000,0,0,0
1691768154583316,1498,1499,1256,1498,1000,0,0,0
1691768154587888,1500,1497,1256,1498,1000,0,0,0
1691768154590720,1499,1500,1256,1498,1000,0,0,0
1691768154594743,1500,1501,1255,1498,1000,0,0,0
1691768154598877,1501,1500,1255,1498,1000,0,0,0
1691768154602283,1498,1496,1257,1498,1000,0,0,0
1691768154605330,1498,1496,1257,1498,1000,0,0,0
1691768154608751,1498,1496,1257,1498,1000,0,0,0
1691768154613025,1499,1496,1257,1498,1000,0,0,0
1691768154616808,1500,1500,1255,1498,1000,0,0,0
1691768154620798,1499,1502,1255,1498,1000,0,0,0
1691768154623254,1498,1498,1256,1498,1000,0,0,0
1691768154626945,1497,1497,1257,1498,1000,0,0,0
1691768154630875,1497,1497,1256,1498,1000,0,0,0
1691768154634745,1498,1497,1256,1498,1000,0,0,0
1691768154638992,1499,1500,1256,1498,1000,0,0,0
1691768154642749,1500,1502,1254,1498,1000,0,0,0
1691768154645036,1500,1502,1254,1498,1000,0,0,0
1691768154648967,1497,1497,1256,1498,1000,0,0,0
1691768154652974,1497,1497,1257,1498,1000,0,0,0
1691768154656705,1497,1498,1256,1498,1000,0,0,0
1691768154659630,1497,1498,1256,1498,1000,0,0,0
1691768154663790,1498,1498,1256,1498,1000,0,0,0
1691768154667851,1499,1501,1255,1498,1000,0,0,0
1691768154671521,1497,1498,1256,1498,1000,0,0,0
1691768154674455,1497,1498,1256,1498,1000,0,0,0
1691768154678129,1497,1498,1256,1498,1000,0,0,0
1691768154681951,1498,1498,1256,1498,1000,0,0,0
1691768154685757,1498,1500,1255,1498,1000,0,0,0
1691768154689947,1498,1501,1255,1498,1000,0,0,0
1691768154692651,1498,1502,1255,1498,1000,0,0,0
1691768154696050,1497,1499,1255,1498,1000,0,0,0
1691768154699919,1497,1499,1256,1498,1000,0,0,0
1691768154703915,1497,1498,1255,1498,1000,0,0,0
1691768154707894,1497,1499,1255,1498,1000,0,0,0
1691768154711481,1498,1500,1255,1498,1000,0,0,0
1691768154715330,1500,1502,1254,1498,1000,0,0,0
1691768154717919,1498,1499,1255,1498,1000,0,0,0
1691768154721859,1497,1499,1255,1498,1000,0,0,0
1691768154726059,1497,1499,1255,1498,1000,0,0,0
1691768154729848,1497,1499,1255,1498,1000,0,0,0
1691768154732495,1498,1500,1255,1498,1000,0,0,0
1691768154736023,1500,1502,1253,1498,1000,0,0,0
1691768154740300,1501,1502,1253,1498,1000,0,0,0
1691768154744801,1499,1501,1254,1498,1000,0,0,0
1691768154748111,1498,1501,1255,1498,1000,0,0,0
1691768154752021,1496,1499,1255,1498,1000,0,0,0
1691768154754131,1497,1498,1255,1498,1000,0,0,0
1691768154758155,1498,1499,1255,1498,1000,0,0,0
1691768154762300,1500,1502,1253,1498,1000,0,0,0
1691768154765951,1499,1501,1254,1498,1000,0,0,0
1691768154768806,1498,1499,1255,1498,1000,0,0,0
1691768154772870,1498,1500,1255,1498,1000,0,0,0
1691768154776558,1497,1500,1255,1498,1000,0,0,0
1691768154780002,1498,1499,1255,1498,1000,0,0,0
1691768154783409,1499,1499,1254,1498,1000,0,0,0
1691768154787001,1499,1500,1254,1498,1000,0,0,0
1691768154791023,1501,1502,1253,1498,1000,0,0,0
1691768154794272,1499,1499,1254,1498,1000,0,0,0
1691768154798079,1498,1500,1255,1498,1000,0,0,0
1691768154802002,1498,1499,1255,1498,1000,0,0,0
1691768154806022,1499,1498,1254,1498,1000,0,0,0
1691768154808811,1500,1500,1254,1498,1000,0,0,0
1691768154812832,1502,1503,1252,1498,1000,0,0,0
1691768154817603,1503,1503,1252,1498,1000,0,0,0
1691768154819586,1500,1502,1254,1498,1000,0,0,0
1691768154823988,1498,1499,1255,1498,1000,0,0,0
1691768154827978,1498,1498,1255,1498,1000,0,0,0
1691768154832377,1499,1498,1255,1498,1000,0,0,0
1691768154834986,1499,1498,1255,1498,1000,0,0,0
1691768154839742,1499,1499,1255,1498,1000,0,0,0
1691768154841554,1501,1501,1254,1498,1000,0,0,0
1691768154845286,1501,1501,1253,1498,1000,0,0,0
1691768154853220,1498,1498,1255,1498,1000,0,0,0
1691768154853625,1498,1497,1256,1498,1000,0,0,0
1691768154857014,1498,1497,1256,1498,1000,0,0,0
1691768154859763,1499,1497,1256,1498,1000,0,0,0
1691768154863806,1499,1498,1255,1498,1000,0,0,0
1691768154868138,1501,1500,1254,1498,1000,0,0,0
1691768154870590,1501,1501,1254,1498,1000,0,0,0
1691768154874948,1500,1500,1255,1498,1000,0,0,0
1691768154879002,1499,1498,1256,1498,1000,0,0,0
1691768154882125,1498,1497,1256,1498,1000,0,0,0
1691768154886021,1499,1497,1256,1498,1000,0,0,0
1691768154889915,1500,1499,1256,1498,1000,0,0,0
1691768154892571,1500,1500,1255,1498,1000,0,0,0
1691768154896037,1501,1501,1255,1498,1000,0,0,0
1691768154900312,1501,1501,1255,1498,1000,0,0,0
1691768154903969,1499,1497,1256,1498,1000,0,0,0
1691768154908872,1499,1496,1257,1498,1000,0,0,0
1691768154911048,1499,1497,1257,1498,1000,0,0,0
1691768154914971,1499,1497,1257,1498,1000,0,0,0
1691768154918220,1500,1497,1256,1498,1000,0,0,0
1691768154922100,1501,1500,1255,1498,1000,0,0,0
1691768154927060,1501,1501,1255,1498,1000,0,0,0
1691768154929927,1499,1497,1257,1498,1000,0,0,0
1691768154933831,1499,1496,1257,1498,1000,0,0,0
1691768154936967,1499,1497,1257,1498,1000,0,0,0
1691768154942122,1499,1497,1257,1498,1000,0,0,0
1691768154943802,1500,1497,1257,1498,1000,0,0,0
1691768154947364,1501,1500,1256,1498,1000,0,0,0
1691768154951313,1501,1500,1255,1498,1000,0,0,0
1691768154955580,1499,1497,1257,1498,1000,0,0,0
1691768154960100,1498,1496,1258,1498,1000,0,0,0
1691768154961825,1499,1498,1257,1498,1000,0,0,0
1691768154967251,1499,1498,1257,1498,1000,0,0,0
1691768154969329,1500,1499,1256,1498,1000,0,0,0
1691768154974095,1502,1500,1256,1498,1000,0,0,0
1691768154977225,1500,1497,1257,1498,1000,0,0,0
1691768154979674,1499,1497,1258,1498,1000,0,0,0
1691768154983613,1499,1497,1258,1498,1000,0,0,0
1691768154987020,1500,1497,1258,1498,1000,0,0,0
1691768154990740,1500,1497,1257,1498,1000,0,0,0
1691768154994331,1502,1499,1256,1498,1000,0,0,0
1691768154997877,1502,1500,1255,1498,1000,0,0,0
1691768155001763,1500,1496,1257,1498,1000,0,0,0
1691768155005095,1499,1496,1258,1498,1000,0,0,0
1691768155008990,1499,1495,1258,1498,1000,0,0,0
1691768155013034,1500,1495,1257,1498,1000,0,0,0
1691768155017301,1500,1497,1257,1498,1000,0,0,0
1691768155019751,1501,1499,1255,1498,1000,0,0,0
1691768155023368,1500,1498,1256,1498,1000,0,0,0
1691768155027029,1500,1498,1257,1498,1000,0,0,0
1691768155031088,1499,1497,1257,1498,1000,0,0,0
1691768155036009,1499,1495,1257,1498,1000,0,0,0
1691768155039214,1500,1495,1257,1498,1000,0,0,0
1691768155041573,1500,1497,1256,1498,1000,0,0,0
1691768155045196,1500,1498,1256,1498,1000,0,0,0
1691768155049411,1499,1496,1257,1498,1000,0,0,0
1691768155053123,1499,1496,1257,1498,1000,0,0,0
1691768155057066,1499,1496,1257,1498,1000,0,0,0
1691768155060054,1500,1496,1257,1498,1000,0,0,0
1691768155063291,1500,1496,1256,1498,1000,0,0,0
1691768155067196,1500,1498,1256,1498,1000,0,0,0
1691768155071218,1500,1498,1256,1498,1000,0,0,0
1691768155075411,1499,1497,1256,1498,1000,0,0,0
1691768155079023,1499,1499,1256,1498,1000,0,0,0
1691768155081489,1499,1499,1256,1498,1000,0,0,0
1691768155085420,1500,1498,1256,1498,1000,0,0,0
1691768155089260,1500,1496,1256,1498,1000,0,0,0
1691768155093170,1500,1497,1256,1498,1000,0,0,0
1691768155096180,1500,1498,1256,1498,1000,0,0,0
1691768155100190,1499,1496,1257,1498,1000,0,0,0
1691768155104213,1499,1497,1257,1498,1000,0,0,0
1691768155108695,1499,1496,1257,1498,1000,0,0,0
1691768155110814,1500,1495,1256,1498,1000,0,0,0
1691768155114286,1500,1496,1256,1498,1000,0,0,0
1691768155118270,1500,1498,1256,1498,1000,0,0,0
1691768155122262,1502,1499,1255,1498,1000,0,0,0
1691768155125489,1500,1496,1256,1498,1000,0,0,0
1691768155129108,1499,1497,1256,1498,1000,0,0,0
1691768155133119,1499,1497,1256,1498,1000,0,0,0
1691768155136942,1500,1498,1256,1498,1000,0,0,0
1691768155139990,1500,1499,1256,1498,1000,0,0,0
1691768155143406,1500,1499,1255,1498,1000,0,0,0
1691768155147298,1501,1500,1255,1498,1000,0,0,0
1691768155151534,1499,1497,1256,1498,1000,0,0,0
1691768155156278,1499,1496,1257,1498,1000,0,0,0
1691768155159529,1499,1496,1257,1498,1000,0,0,0
1691768155162191,1499,1495,1256,1498,1000,0,0,0
1691768155165384,1499,1497,1256,1498,1000,0,0,0
1691768155168892,1499,1498,1256,1498,1000,0,0,0
1691768155172421,1499,1498,1256,1498,1000,0,0,0
1691768155176253,1499,1497,1256,1498,1000,0,0,0
1691768155179536,1498,1497,1257,1498,1000,0,0,0
1691768155183547,1498,1497,1257,1498,1000,0,0,0
1691768155187000,1499,1497,1257,1498,1000,0,0,0
1691768155191211,1499,1498,1256,1498,1000,0,0,0
1691768155195369,1499,1499,1256,1498,1000,0,0,0
1691768155197963,1503,1502,1254,1498,1000,0,0,0
1691768155201858,1500,1500,1256,1498,1000,0,0,0
1691768155205305,1498,1498,1256,1498,1000,0,0,0
1691768155208836,1498,1497,1257,1498,1000,0,0,0
1691768155212483,1498,1497,1257,1498,1000,0,0,0
1691768155216192,1499,1497,1256,1498,1000,0,0,0
1691768155220322,1499,1498,1256,1498,1000,0,0,0
1691768155225766,1501,1500,1255,1498,1000,0,0,0
1691768155227204,1499,1498,1256,1498,1000,0,0,0
1691768155231168,1498,1498,1257,1498,1000,0,0,0
1691768155234319,1498,1498,1257,1498,1000,0,0,0
1691768155238617,1498,1498,1257,1498,1000,0,0,0
1691768155242449,1498,1499,1256,1498,1000,0,0,0
1691768155246764,1499,1499,1256,1498,1000,0,0,0
1691768155248783,1501,1501,1255,1498,1000,0,0,0
1691768155252428,1498,1499,1256,1498,1000,0,0,0
1691768155256619,1498,1500,1256,1498,1000,0,0,0
1691768155260743,1498,1500,1256,1498,1000,0,0,0
1691768155264246,1498,1497,1257,1498,1000,0,0,0
1691768155267028,1498,1498,1256,1498,1000,0,0,0
1691768155271347,1498,1500,1256,1498,1000,0,0,0
1691768155274132,1498,1498,1257,1498,1000,0,0,0
1691768155278517,1498,1498,1257,1498,1000,0,0,0
1691768155282245,1498,1499,1256,1498,1000,0,0,0
1691768155286605,1498,1499,1256,1498,1000,0,0,0
1691768155288684,1499,1499,1256,1498,1000,0,0,0
1691768155292676,1501,1501,1254,1498,1000,0,0,0
1691768155296347,1499,1501,1255,1498,1000,0,0,0
1691768155300298,1498,1499,1256,1498,1000,0,0,0
1691768155304310,1498,1499,1256,1498,1000,0,0,0
1691768155307041,1497,1499,1256,1498,1000,0,0,0
1691768155310850,1498,1500,1256,1498,1000,0,0,0
1691768155314377,1499,1501,1256,1498,1000,0,0,0
1691768155318365,1502,1504,1253,1498,1000,0,0,0
1691768155322332,1498,1499,1256,1498,1000,0,0,0
1691768155326170,1498,1498,1256,1498,1000,0,0,0
1691768155328982,1497,1499,1256,1498,1000,0,0,0
1691768155332410,1498,1499,1256,1498,1000,0,0,0
1691768155336619,1498,1499,1256,1498,1000,0,0,0
1691768155340360,1500,1501,1254,1498,1000,0,0,0
1691768155343378,1499,1500,1255,1498,1000,0,0,0
1691768155347180,1498,1499,1256,1498,1000,0,0,0
1691768155351420,1498,1499,1256,1498,1000,0,0,0
1691768155355053,1498,1499,1256,1498,1000,0,0,0
1691768155357911,1498,1499,1255,1498,1000,0,0,0
1691768155361745,1498,1500,1255,1498,1000,0,0,0
1691768155365438,1501,1502,1254,1498,1000,0,0,0
1691768155369416,1499,1501,1255,1498,1000,0,0,0
1691768155373218,1498,1501,1255,1498,1000,0,0,0
1691768155376072,1498,1499,1255,1498,1000,0,0,0
1691768155379618,1498,1498,1255,1498,1000,0,0,0
1691768155383429,1498,1499,1255,1498,1000,0,0,0
1691768155387527,1501,1501,1253,1498,1000,0,0,0
1691768155391372,1498,1498,1255,1498,1000,0,0,0
1691768155395057,1497,1498,1255,1498,1000,0,0,0
1691768155397876,1497,1498,1255,1498,1000,0,0,0
1691768155401547,1498,1498,1255,1498,1000,0,0,0
1691768155405606,1499,1498,1254,1498,1000,0,0,0
1691768155409593,1501,1501,1252,1498,1000,0,0,0
1691768155412345,1499,1500,1254,1498,1000,0,0,0
1691768155416669,1498,1499,1254,1498,1000,0,0,0
1691768155420691,1498,1498,1255,1498,1000,0,0,0
1691768155424051,1498,1499,1254,1498,1000,0,0,0
1691768155427091,1498,1498,1254,1498,1000,0,0,0
1691768155431085,1499,1499,1254,1498,1000,0,0,0
1691768155434686,1503,1502,1250,1498,1000,0,0,0
1691768155438426,1503,1503,1250,1498,1000,0,0,0
1691768155442388,1498,1498,1253,1498,1000,0,0,0
1691768155445363,1498,1497,1254,1498,1000,0,0,0
1691768155449375,1497,1497,1254,1498,1000,0,0,0
1691768155452472,1498,1497,1254,1498,1000,0,0,0
1691768155456683,1499,1498,1254,1498,1000,0,0,0
1691768155460646,1501,1500,1252,1498,1000,0,0,0
1691768155464411,1500,1500,1252,1498,1000,0,0,0
1691768155466888,1498,1498,1254,1498,1000,0,0,0
1691768155470675,1497,1498,1255,1498,1000,0,0,0
1691768155474621,1497,1497,1255,1498,1000,0,0,0
1691768155478628,1498,1497,1255,1498,1000,0,0,0
1691768155482288,1498,1497,1255,1498,1000,0,0,0
1691768155485243,1498,1498,1254,1498,1000,0,0,0
1691768155490461,1498,1498,1254,1498,1000,0,0,0
1691768155493426,1501,1500,1253,1498,1000,0,0,0
1691768155496622,1499,1498,1254,1498,1000,0,0,0
1691768155500454,1498,1498,1255,1498,1000,0,0,0
1691768155504256,1498,1498,1255,1498,1000,0,0,0
1691768155507050,1498,1498,1255,1498,1000,0,0,0
1691768155511262,1498,1498,1255,1498,1000,0,0,0
1691768155514677,1499,1499,1255,1498,1000,0,0,0
1691768155518443,1502,1502,1252,1498,1000,0,0,0
1691768155521786,1500,1500,1254,1498,1000,0,0,0
1691768155525544,1498,1498,1255,1498,1000,0,0,0
1691768155529470,1498,1497,1255,1498,1000,0,0,0
1691768155533109,1499,1496,1255,1498,1000,0,0,0
1691768155535979,1499,1497,1255,1498,1000,0,0,0
1691768155539880,1499,1498,1255,1498,1000,0,0,0
1691768155543460,1499,1498,1255,1498,1000,0,0,0
1691768155547567,1499,1497,1255,1498,1000,0,0,0
1691768155551436,1498,1497,1255,1498,1000,0,0,0
1691768155554410,1498,1497,1255,1498,1000,0,0,0
1691768155558660,1499,1496,1255,1498,1000,0,0,0
1691768155561610,1499,1497,1255,1498,1000,0,0,0
1691768155565528,1499,1498,1255,1498,1000,0,0,0
1691768155569653,1502,1500,1254,1498,1000,0,0,0
1691768155573264,1500,1497,1255,1498,1000,0,0,0
1691768155576139,1499,1498,1255,1498,1000,0,0,0
1691768155579725,1498,1498,1255,1498,1000,0,0,0
1691768155583419,1499,1497,1255,1498,1000,0,0,0
1691768155587694,1500,1498,1255,1498,1000,0,0,0
1691768155591517,1503,1501,1253,1498,1000,0,0,0
1691768155594227,1500,1499,1255,1498,1000,0,0,0
1691768155598031,1499,1497,1256,1498,1000,0,0,0
1691768155601515,1499,1496,1256,1498,1000,0,0,0
1691768155605517,1499,1496,1255,1498,1000,0,0,0
1691768155608721,1500,1496,1255,1498,1000,0,0,0
1691768155612817,1502,1498,1254,1498,1000,0,0,0
1691768155616681,1502,1500,1253,1498,1000,0,0,0
1691768155620865,1500,1497,1255,1498,1000,0,0,0
1691768155623283,1499,1496,1256,1498,1000,0,0,0
1691768155628348,1499,1497,1256,1498,1000,0,0,0
1691768155630651,1499,1497,1255,1498,1000,0,0,0
