timestamp,roll,pitch,yaw,norm_thrust
1691768151000930,0.00000000,0.00000000,0.00000000,0.00000000
1691768151011166,0.00000000,0.00000000,0.00000000,0.00000000
1691768151020927,0.00000000,0.00000000,0.00000000,0.00000000
1691768151030928,0.00000000,0.00000000,0.00000000,0.00000000
1691768151040927,0.00000000,0.00000000,0.00000000,0.00000000
1691768151050927,0.00000000,0.00000000,0.00000000,0.00000000
1691768151060935,0.00000000,0.00000000,0.00000000,0.00000000
1691768151070938,0.00000000,0.00000000,0.00000000,0.00000000
1691768151080929,0.00000000,0.00000000,0.00000000,0.00000000
1691768151090924,0.00000000,0.00000000,0.00000000,0.00000000
1691768151100930,0.00000000,0.00000000,0.00000000,0.00000000
1691768151110933,0.00000000,0.00000000,0.00000000,0.00000000
1691768151120933,0.00000000,0.00000000,0.00000000,0.00000000
1691768151130952,0.00000000,0.00000000,0.00000000,0.00000000
1691768151144126,-0.11048204,0.42631724,0.29250076,11.22771454
1691768151146953,-0.11733922,0.42041853,0.29282919,11.24764538
1691768151150645,-0.11234602,0.42881435,0.29254726,11.22479725
1691768151154162,-0.10804832,0.42440277,0.29242364,11.26401711
1691768151158519,-0.10693436,0.42055756,0.29230863,11.27816677
1691768151162807,-0.11379083,0.42444766,0.29253531,11.31379318
1691768151165261,-0.11342803,0.42304164,0.29255241,11.31313324
1691768151169327,-0.11121745,0.42513627,0.29250959,11.31049156
1691768151173779,-0.10819322,0.42127317,0.29234359,11.36332703
1691768151176399,-0.10912306,0.42538920,0.29221764,11.34535217
1691768151180820,-0.11028740,0.42468530,0.29161114,11.35481739
1691768151184478,-0.11519703,0.42670909,0.29128665,11.39431572
1691768151187582,-0.11516584,0.42511606,0.29029387,11.39284134
1691768151192155,-0.11191325,0.41665554,0.28757012,11.43279362
1691768151194546,-0.11645695,0.41862246,0.28484106,11.39606667
1691768151198517,-0.11684147,0.39760816,0.28068882,11.36478806
1691768151202623,-0.12066608,0.40017906,0.27196506,11.42628574
1691768151205094,-0.11984058,0.37871903,0.26145622,11.40966225
1691768151208940,-0.12626664,0.32337949,0.25297022,11.31809521
1691768151212457,-0.12445147,0.27226421,0.24329628,11.32314873
1691768151216451,-0.12034175,0.25531381,0.23139983,11.28179359
1691768151220557,-0.12317210,0.27793798,0.21689710,11.32992840
1691768151223553,-0.17097214,0.28323266,0.19560173,11.58255005
1691768151227493,-0.18289812,0.11752537,0.18357405,11.39266205
1691768151231575,-0.16012292,0.01059699,0.17267302,11.22805405
1691768151234119,-0.17576331,0.21726809,0.15810668,11.39395905
1691768151238141,-0.22723246,0.10611361,0.14656590,11.56138706
1691768151241604,-0.18294042,0.07078513,0.13426194,11.55542850
1691768151245697,-0.15539441,0.03547186,0.12467492,11.38542557
1691768151249535,-0.13005455,-0.02605135,0.11622832,11.12547207
1691768151254306,-0.12898940,-0.03573227,0.10723369,10.85745430
1691768151256033,-0.08555781,-0.06742422,0.09569678,10.77602196
1691768151259638,-0.11694021,-0.13733765,0.08850747,10.56708241
1691768151265220,-0.02789425,-0.20664480,0.08374504,10.41998863
1691768151267555,-0.01705991,-0.18641816,0.07819600,10.24792767
1691768151271517,-0.01700171,-0.12977532,0.07245116,10.05080318
1691768151274452,0.01899445,-0.23435044,0.06686107,10.33824062
1691768151279930,0.02101842,-0.24288420,0.06241908,10.06704712
1691768151282407,0.03351721,-0.23536074,0.05764555,10.06142998
1691768151285081,0.15354772,-0.30930856,0.05644261,9.99887943
1691768151288759,0.07254288,-0.21874613,0.05136526,9.60085392
1691768151294231,0.08134241,-0.22603795,0.04814541,9.65273857
1691768151296727,0.05760783,-0.17382482,0.04247999,9.61840630
1691768151300601,0.13525362,-0.40734300,0.04047938,10.16999340
1691768151303728,0.10255989,-0.36385438,0.03613558,9.76345539
1691768151307828,0.07848606,-0.33459204,0.03236387,9.59638119
1691768151310731,0.11828652,-0.34459329,0.03106646,9.47527599
1691768151314811,0.13028628,-0.32198822,0.02949269,9.43259907
1691768151318662,0.11339565,-0.30256101,0.02698521,9.55103970
1691768151322773,0.02429926,-0.50348437,0.02031663,10.15706635
1691768151325043,0.16639440,-0.33943072,0.02353455,9.29976940
1691768151328786,0.20923655,-0.32339323,0.02176164,9.47337627
1691768151332636,0.22431661,-0.22006175,0.02033577,9.44114590
1691768151335951,0.17189452,-0.21111967,0.01786169,9.52227783
1691768151342116,-0.00446759,-0.50161177,0.00768688,10.18436432
1691768151346101,-0.01375279,-0.49005243,0.00465753,10.12028313
1691768151347926,0.15532659,-0.27701205,0.00599224,9.07909203
1691768151352132,0.18306690,-0.25945359,0.00153874,9.39507008
1691768151354777,0.70578367,-1.02368772,0.04521057,7.92100668
1691768151357895,0.76585650,-0.60177195,0.02668079,7.85209465
1691768151361966,0.37415025,-0.31253922,0.00039465,9.02978706
1691768151365999,0.22047798,-0.19521095,-0.00664440,9.51060009
1691768151370724,0.02976925,-0.21064763,-0.01256043,10.06336594
1691768151373937,-0.01098839,-0.23433311,-0.01367016,9.96137524
1691768151379061,0.19351083,-0.17829302,-0.01016634,9.32581806
1691768151380617,0.17160542,-0.01044059,-0.01150878,9.29502487
1691768151383351,0.07280298,-0.11363791,-0.00904941,9.70604610
1691768151386940,-0.01087196,-0.05163278,-0.01096439,9.85331917
1691768151390649,-0.05529740,-0.06415500,-0.01107671,9.88474560
1691768151395068,-0.03504919,-0.17974949,-0.00447707,10.06513691
1691768151398595,-0.08443778,-0.14869599,-0.00083885,10.07721710
1691768151402321,-0.05633316,-0.12775703,0.00277744,10.04539013
1691768151404990,-0.02452726,-0.15540524,0.00687661,10.09365845
1691768151408653,-0.08365494,-0.10360286,0.00754317,9.96209049
1691768151412657,-0.09773832,-0.08136852,0.00874503,9.97256851
1691768151416728,-0.10500322,-0.07015779,0.01010278,10.00176048
1691768151419633,-0.09092323,0.01347306,0.00827773,9.77345657
1691768151423297,-0.11016805,0.05500812,0.00732919,9.88265324
1691768151426894,-0.11950502,0.02542567,0.00785956,9.87223339
1691768151430755,-0.13511775,0.02227271,0.00791543,9.89762783
1691768151434772,-0.12454908,-0.01208928,0.00833917,10.00582504
1691768151438830,-0.11192763,-0.11354641,0.01104267,10.15642548
1691768151442514,-0.10617598,-0.10840766,0.01178811,10.06926250
1691768151445189,-0.10195782,-0.06805500,0.01164665,10.14750099
1691768151448808,-0.10343772,-0.07483299,0.01243512,10.11493587
1691768151452666,-0.10879649,-0.04201857,0.01239232,10.08673096
1691768151456754,-0.03358651,-0.12300159,0.01530820,9.78221416
1691768151459716,-0.02928260,-0.08029225,0.01488107,9.88080883
1691768151463312,-0.07813800,-0.03033601,0.01422928,10.00335979
1691768151467003,-0.07877587,-0.01723363,0.01427682,10.04064274
1691768151470422,-0.09665005,-0.03758258,0.01499408,9.98812008
1691768151474139,-0.11732328,-0.04034864,0.01586218,9.88039303
1691768151477959,-0.10493688,0.00781619,0.01556276,9.98156738
1691768151481492,-0.14670442,0.18096210,0.01295126,10.66583729
1691768151485109,-0.18309018,-0.11766685,0.01687247,9.91007900
1691768151488814,-0.05947786,0.00328172,0.01567201,9.65489864
1691768151493033,-0.05133422,0.04874791,0.01396291,9.72581291
1691768151497159,-0.04936621,0.03887178,0.01344901,9.81166553
1691768151499530,-0.06820522,0.13371150,0.01200468,9.82445049
1691768151503084,-0.07167652,-0.09069442,0.01544193,10.18753147
1691768151507042,-0.04464877,-0.12409707,0.01614953,10.11514187
1691768151510840,-0.14487113,-0.23917283,0.01638166,10.41302681
1691768151514797,-0.12839615,-0.21872376,0.01635070,10.34757519
1691768151518692,-0.08777598,-0.18714775,0.01675550,10.21191406
1691768151521231,-0.08330756,-0.13123432,0.01635813,10.16403008
1691768151524971,-0.05070514,-0.08359510,0.01577187,9.88590336
1691768151528736,-0.07504781,-0.06134065,0.01579889,10.08586311
1691768151532681,-0.10340530,-0.07642752,0.01706624,10.13341618
1691768151538011,-0.01341164,-0.06890450,0.01787135,10.16577625
1691768151542424,-0.01162813,-0.05432661,0.01761980,10.03240776
1691768151543242,-0.00689093,-0.03535524,0.01765340,10.00630474
1691768151547997,-0.01097843,-0.02744441,0.01781031,9.97608376
1691768151550821,0.03265527,-0.01117686,0.01764140,9.80931568
1691768151554640,0.02368491,-0.02734904,0.01797137,10.07686138
1691768151559155,0.03570164,-0.04788227,0.01835149,10.11327648
1691768151562574,0.02459986,-0.05404967,0.01825451,10.05502415
1691768151565768,0.01935171,-0.03710355,0.01795700,10.03256226
1691768151570647,0.04950542,-0.04551414,0.01865194,9.92285252
1691768151572699,0.04001810,-0.03268897,0.01869613,9.92255878
1691768151578422,-0.52796918,-0.22966233,0.02070278,10.95312500
1691768151580979,-0.31736973,-0.04402779,0.04243258,10.93682575
1691768151584651,-0.26713517,-0.15542065,0.04383065,10.72992134
1691768151586855,-0.17567770,-0.12380231,0.04696858,10.46724987
1691768151590895,-0.08903353,-0.08453179,0.05037881,10.31920338
1691768151595035,0.00712291,-0.08646714,0.05223661,10.17552376
1691768151599208,0.11093481,-0.17061411,0.05473089,10.03962040
1691768151601444,0.18063274,-0.17989503,0.05710313,10.02623367
1691768151604931,0.15838291,-0.14219791,0.05850399,10.07730007
1691768151609068,0.17633818,-0.13159364,0.05993120,10.07449818
1691768151612669,0.20720270,-0.11267757,0.06119980,10.04196453
1691768151617179,0.16670434,-0.04050289,0.06094736,10.08071232
1691768151619966,0.14801241,-0.13399813,0.06203691,10.30528259
1691768151623918,0.21909606,-0.18018885,0.06386058,10.07913208
1691768151627850,0.23413657,-0.16556147,0.06468596,10.01618862
1691768151630431,0.22307764,-0.15326773,0.06506297,10.04165363
1691768151634387,0.22553858,-0.12868369,0.06523982,10.03292274
1691768151637896,0.25222886,-0.10683159,0.06550725,10.00699139
1691768151641912,0.25477269,-0.11733188,0.06568579,10.05780220
1691768151645931,0.30447039,-0.13123347,0.06639990,9.97914410
1691768151649634,0.29048702,-0.10916366,0.06601559,9.99085140
1691768151652506,0.30201805,-0.08838061,0.06576882,9.89729118
1691768151655948,0.27500740,-0.05229750,0.06466372,9.96388912
1691768151659902,0.24739715,-0.03960039,0.06320859,9.96077824
1691768151663743,0.25069338,-0.03245367,0.06181879,9.94104576
1691768151667894,0.26836175,0.03691250,0.06090714,9.88947487
1691768151670454,0.22345111,-0.03847876,0.05903929,10.04100895
1691768151674277,0.20384286,-0.06361517,0.05693378,10.09369087
1691768151677840,0.20041266,-0.11864147,0.05578215,10.16441441
1691768151681780,0.20196517,-0.11383357,0.05410676,10.19284058
1691768151688114,0.19697389,-0.11032649,0.05284081,10.13661861
1691768151689592,0.20913461,-0.10993691,0.05155150,10.02543163
1691768151692352,0.20929772,-0.06385491,0.04900597,10.11055851
1691768151696071,0.16247174,-0.02321677,0.04736446,10.09865665
1691768151700523,0.15439218,0.01678931,0.04740814,9.98078823
1691768151703956,0.14639832,-0.03597318,0.04689424,10.10786247
1691768151706995,0.16465959,-0.01158984,0.04543158,10.13790512
1691768151710907,0.14387409,-0.03336496,0.04467116,10.05462933
1691768151714802,0.14296468,-0.02361676,0.04294958,10.08614159
1691768151718712,0.17850058,-0.02797997,0.04223074,10.09203625
1691768151721208,0.14915708,-0.02665911,0.04157886,10.10120869
1691768151725110,0.11612500,-0.00177333,0.03988580,10.06297112
1691768151728923,0.12877716,0.02253598,0.03726104,10.07276440
1691768151732871,0.12656941,0.12191689,0.03512080,9.90279102
1691768151736945,1.63947868,0.31160188,-0.02463862,7.07271671
1691768151739548,0.44903576,0.34326598,-0.00997038,9.31046295
1691768151743980,0.18106505,0.24562378,-0.00718637,9.91018295
1691768151746942,0.05140045,0.18712562,-0.00879978,10.06344223
1691768151750934,-0.03303515,0.21374595,-0.01629820,10.16411591
1691768151754859,-0.06152875,0.07904555,-0.01464667,10.43562889
1691768151758823,-0.10363643,0.02715692,-0.01459246,10.30083179
1691768151761308,-0.10132996,0.02685684,-0.01598612,10.24514103
1691768151765086,-0.09601884,0.06345789,-0.01854024,10.31764126
1691768151769096,-0.13411896,0.04951581,-0.01863189,10.21412659
1691768151772873,-0.22108395,0.09288813,-0.01984880,10.31480694
1691768151777861,-0.21768194,0.14992909,-0.02117153,10.30529213
1691768151779543,-0.19738255,0.04847052,-0.01927372,10.37448120
1691768151783808,-0.22363427,0.04451048,-0.01966968,10.39696980
1691768151786926,-0.23102221,0.18094458,-0.02597192,10.14568329
1691768151791886,-0.21824744,0.17066802,-0.02812843,10.22467709
1691768151795375,-0.22110717,0.04245601,-0.02465831,10.52933407
1691768151800575,-0.18689513,0.00673800,-0.02398399,10.50143909
1691768151802185,-0.19413529,0.02541543,-0.02479549,10.50750828
1691768151804980,-0.21905757,0.11931883,-0.02631689,10.37321186
1691768151809165,-0.25598717,0.06533501,-0.02414745,10.48954105
1691768151812909,-0.17314489,0.03028352,-0.02299414,10.37984848
1691768151816985,-0.18865076,0.05974148,-0.02364134,10.34524155
1691768151819815,-0.24015206,0.10268702,-0.02425542,10.33668041
1691768151823248,-0.25768971,0.10712405,-0.02378810,10.47807503
1691768151827069,-0.24732827,0.05662363,-0.02201936,10.45406723
1691768151830980,-0.22860897,0.10977184,-0.02423714,10.29208088
1691768151835098,-0.25150129,0.00083907,-0.02025639,10.46419239
1691768151837919,-0.23400459,-0.03235087,-0.01878763,10.34335899
1691768151841445,-0.21286474,0.01265737,-0.01924593,10.49315357
1691768151845175,-0.24318345,0.02041004,-0.01792699,10.39756203
1691768151849145,-0.19814017,0.00202861,-0.01579629,10.36431694
1691768151853028,-0.18564762,-0.02999214,-0.01364964,10.33792973
1691768151857196,-0.37653106,0.03773759,-0.00967616,11.20968342
1691768151860163,-0.40576148,0.02226886,-0.00460714,11.03356552
1691768151863228,-0.38818005,-0.02318861,-0.00100781,10.81933594
1691768151867176,-0.11016902,0.10293109,-0.00289171,10.43751049
1691768151871600,0.12537879,-0.18821016,0.00683723,9.39209175
1691768151876187,0.04401458,-0.05624177,0.00178434,9.71741676
1691768151884641,0.00873562,0.02375738,0.00123341,9.98106861
1691768151884773,-0.08616772,0.03586895,0.00166486,10.28519821
1691768151885183,-0.06739091,0.01535345,0.00215658,10.19847107
1691768151888539,-0.12464792,0.04985694,0.00085780,10.13230705
1691768151892534,-0.11208766,-0.06272162,0.00234848,10.41414070
1691768151896006,-0.13381699,-0.06372730,0.00223335,10.51920319
1691768151900172,-0.03056131,-0.08636636,0.00369586,10.23971939
1691768151904697,-0.05426577,0.01442203,0.00365225,10.26831436
1691768151906865,-0.04849368,-0.03763093,0.00459359,10.46011066
1691768151910659,-0.12422869,0.15696961,0.00159451,11.06017208
1691768151914164,-0.19823390,0.22026280,0.00163857,11.23134804
1691768151918152,-0.20481052,0.18622971,0.00080623,11.01146507
1691768151922102,-0.14423510,0.14491090,-0.00138952,10.80275154
1691768151925128,-0.09769622,0.08820124,-0.00310119,10.67258549
1691768151928777,-0.11252959,-0.00283478,-0.00404118,10.63841724
1691768151932265,-0.05155910,-0.04521172,-0.00505143,10.60925293
1691768151936075,0.01822983,-0.01622662,-0.00294774,10.34205532
1691768151939510,0.09445881,-0.33040130,0.00160429,9.14676571
1691768151943224,0.18615934,-0.42837852,0.00598650,9.03619194
1691768151946842,0.11831004,-0.29698443,0.00190191,10.12098885
1691768151951175,0.08444946,-0.21682730,0.00093479,10.28824425
1691768151956091,0.06995112,-0.10127947,-0.00058148,10.30621052
1691768151958267,0.07210251,-0.12134900,0.00086386,10.44781208
1691768151962094,0.07464096,-0.13134313,0.00225165,10.48744678
1691768151965920,0.05115419,-0.10187963,0.00288368,10.41263771
1691768151969304,0.08565626,0.00501596,0.00361162,10.33281612
1691768151974235,0.06732593,-0.05693262,0.00535441,10.46215439
1691768151977245,0.05238426,0.03694953,0.00584298,10.35265064
1691768151980701,0.00053306,0.03655197,0.00642654,10.25554276
1691768151983218,0.00624035,-0.00114590,0.00716670,10.41906261
1691768151986880,-0.00538347,-0.06067860,0.00958144,10.63112831
1691768151990651,-0.00108845,0.00316359,0.01040962,10.71154022
1691768151994332,0.06570013,-0.06063334,0.01227031,10.44742298
1691768151999345,-0.16955552,-0.05115786,0.01348870,11.10256195
1691768152002123,-0.17385827,0.02174431,0.01752159,10.91113377
1691768152005904,-0.15626802,-0.07057333,0.01880859,11.03685284
1691768152008734,0.29098684,-0.11792061,0.02339958,9.54180241
1691768152012418,0.16626696,0.04279218,0.01980230,10.14831829
1691768152016224,0.20393030,0.07402767,0.01945294,10.07495308
1691768152020497,0.13832811,0.05529500,0.02024543,10.31842804
1691768152024231,0.11591209,0.10434956,0.01893305,10.52277851
1691768152027218,0.05103463,0.05663269,0.01990462,10.23333263
1691768152032197,0.02567170,0.03043522,0.02023401,10.51850224
1691768152034142,0.02906703,-0.00143752,0.02035697,10.57574272
1691768152041404,0.05223091,0.06398999,0.01892138,10.12291622
1691768152045209,0.00677194,0.03127065,0.01908584,10.53750610
1691768152048836,0.03132490,0.02162043,0.01874785,10.46056557
1691768152052736,0.05754428,0.04736003,0.01811482,10.26905727
1691768152056100,0.07890215,0.14867266,0.01763721,9.66726780
1691768152059661,0.08500163,0.14310029,0.01748567,9.98933029
1691768152063534,-0.16200723,0.06801264,0.02136936,11.06488419
1691768152067282,-0.20593479,0.03662531,0.02240128,10.85594273
1691768152071280,-0.17149928,-0.04434139,0.02230186,11.07297707
1691768152074222,0.24291757,-0.03524596,0.02343098,9.70763683
1691768152077946,0.18446386,0.03166144,0.02183905,10.00430012
1691768152081457,0.14177759,0.07753740,0.02101886,10.21926785
1691768152086041,0.16321574,0.14863971,0.01859793,10.18430805
1691768152088748,-0.10545091,0.06118826,0.02245656,11.10663128
1691768152092656,-0.12216605,0.06217219,0.02271783,11.03998756
1691768152096302,-0.13858569,0.02961899,0.02282055,10.70578671
1691768152100296,0.05063047,0.12495071,0.02079550,10.39701366
1691768152103895,0.24589585,-0.07666847,0.02406904,9.61750031
1691768152107342,0.17945576,-0.01120255,0.02206497,10.01638889
1691768152115134,0.06339097,0.21883100,0.01937541,10.79890919
1691768152115910,0.03364657,0.15283833,0.01950648,10.72550392
1691768152117710,0.16106936,-0.03519815,0.02051084,9.75411510
1691768152121535,0.07944746,0.01901205,0.01815034,10.25636101
1691768152125489,0.05116301,-0.01916735,0.01819926,10.65606308
1691768152129270,0.07327116,-0.01778014,0.01781349,10.60939693
1691768152133357,0.04613034,0.03011391,0.01636687,10.50249767
1691768152136135,0.06682694,0.02565589,0.01553531,10.46889877
1691768152140303,-0.15126169,0.01161205,0.01643264,11.17257404
1691768152143292,-0.15041430,0.01351316,0.01672275,11.05687618
1691768152147308,-0.16829610,-0.01175701,0.01719708,10.77165127
1691768152151467,-0.11576237,-0.01548230,0.01743517,10.78080177
1691768152155053,-0.11836638,-0.11321142,0.01858498,10.73193550
1691768152157836,-0.06610928,-0.07816757,0.01961915,10.61239433
1691768152161527,-0.02041324,-0.04261608,0.02007126,10.55382824
1691768152165567,0.02609947,0.09519543,0.01867383,11.05943680
1691768152169456,0.07390834,-0.06359614,0.02153447,10.00718117
1691768152173430,0.03408301,-0.02482391,0.02114823,10.12399483
1691768152176055,0.48505473,0.01359947,0.01887207,8.82539749
1691768152180330,0.24843004,-0.05723619,0.02098197,10.22983742
1691768152184145,0.15458234,0.06425245,0.01772015,10.20390415
1691768152186998,0.10721536,0.03413467,0.01781708,10.37324905
1691768152190574,0.08645269,0.01431701,0.01750978,10.24566936
1691768152196089,0.02981073,-0.04423482,0.01817507,10.54833317
1691768152197732,0.01605766,-0.05101115,0.01787969,10.43617916
1691768152201468,0.03723620,-0.03859184,0.01741964,10.36196518
1691768152205587,-0.17561632,-0.05765131,0.01703737,11.12912464
1691768152209775,-0.14190944,0.09411529,0.01622537,11.40847111
1691768152212783,-0.24223126,-0.20575683,0.01516694,10.63928795
1691768152216456,0.19247492,-0.23361655,0.02310416,9.14806175
1691768152220542,0.12317509,-0.11276472,0.01885740,9.91036606
1691768152224127,0.06542822,-0.03123431,0.01638339,10.35560799
1691768152226950,0.05102697,0.03301532,0.01537232,10.35310364
1691768152230657,0.03450312,-0.06925439,0.01700334,10.40006542
1691768152234365,0.05176023,-0.07385847,0.01694506,10.44232178
1691768152238455,0.05919645,-0.03379906,0.01587691,10.42085361
1691768152242245,-0.17608431,-0.02677865,0.01537048,11.15182114
1691768152245164,-0.22166607,-0.06673468,0.01501021,10.97659683
1691768152249407,-0.20567839,-0.12928168,0.01533380,10.84807682
1691768152253110,-0.13666587,-0.14112885,0.01678067,10.66932964
1691768152255892,0.32579726,-0.03370127,0.01701871,9.12542439
1691768152259565,0.18098006,0.05071587,0.01302091,9.84762096
1691768152263524,0.08212385,0.03341103,0.01277446,10.25421524
1691768152267484,0.03108817,-0.01176019,0.01270323,10.28425026
1691768152271479,-0.03793196,-0.07069190,0.01290726,10.61055183
1691768152275152,0.01789740,0.01470874,0.01171529,10.35129452
1691768152277754,-0.04432415,-0.06205416,0.01237549,10.63252926
1691768152281384,-0.02249865,-0.07955564,0.01250600,10.51907444
1691768152287829,-0.01983335,-0.01723878,0.01096255,10.49907303
1691768152289986,-0.04868744,-0.04160082,0.01044453,10.39996624
1691768152293122,-0.07675061,-0.08142030,0.01054506,10.58985615
1691768152296137,-0.05750119,-0.10410313,0.01060367,10.54684830
1691768152299628,-0.07171740,-0.03555390,0.00918448,10.65838528
1691768152303595,-0.06237171,-0.02412915,0.00879059,10.62731171
1691768152307495,-0.03300430,-0.05886552,0.00934806,10.46136189
1691768152311904,-0.02575311,-0.02103118,0.00842347,10.46327019
1691768152314291,-0.24016719,-0.02518494,0.00865715,11.22444153
1691768152318456,-0.26382598,-0.02886959,0.00955440,11.06499290
1691768152321482,-0.29350784,-0.16530736,0.01027702,10.97192192
1691768152325635,-0.08690832,0.19521251,0.00985738,10.96520996
1691768152329647,0.12295177,-0.02088397,0.01211415,10.02628517
1691768152333137,-0.02713616,0.12120091,0.00952449,10.88548470
1691768152335980,0.05313595,-0.03003995,0.01140127,9.89831448
1691768152339729,0.19492985,-0.23417906,0.01733811,9.30237865
1691768152343468,0.03880718,-0.16824539,0.01298248,10.28813457
1691768152347666,0.00184429,-0.11372654,0.01151488,10.42401600
1691768152351488,-0.18632220,-0.05623117,0.01064736,11.21304703
1691768152354235,-0.15420696,0.08735512,0.00986484,11.56544018
1691768152357821,-0.25379834,-0.24990585,0.00909161,10.63011169
1691768152361408,0.21952829,-0.18592659,0.01674549,9.17624855
1691768152365243,0.20882677,-0.02261162,0.01234597,9.80880737
1691768152368707,0.14234436,0.03550614,0.01113902,10.27071857
1691768152372492,-0.01657729,0.09163437,0.01109942,10.85179520
1691768152376548,-0.06958222,0.15428111,0.01046584,11.23621845
1691768152380518,-0.08574741,0.13279276,0.00939183,11.03223515
1691768152383146,-0.18714255,-0.07285424,0.00935825,11.17418194
1691768152386906,-0.15998229,-0.11708868,0.00971163,10.89354801
1691768152390652,-0.13072190,-0.51475662,0.00946773,9.77257252
1691768152394471,0.41498908,-0.20164992,0.01913420,9.00826550
1691768152398645,0.22742677,-0.04068799,0.01155167,9.93770790
1691768152401970,0.09800670,-0.04197406,0.01065498,10.29650688
1691768152405091,0.05149560,0.01255471,0.00921119,10.54827309
1691768152409715,0.03492549,-0.02964026,0.00969542,10.53185558
1691768152412843,0.04113528,-0.00967155,0.00924860,10.61173916
1691768152416919,-0.01433832,-0.06463931,0.00969450,10.75051975
1691768152420577,-0.01059614,-0.06318969,0.00981358,10.71918106
1691768152423648,0.00626414,0.01649899,0.00987919,10.60625362
1691768152427634,0.02108181,0.03079372,0.01070978,10.49967861
1691768152430673,-0.18600385,-0.03624332,0.01153438,11.32900810
1691768152434104,-0.21209961,-0.11131293,0.01177454,11.15264893
1691768152438049,-0.01029286,0.11534151,0.01090572,10.69983101
1691768152441618,0.15059376,-0.05928891,0.01350711,10.07517910
1691768152445762,0.06987493,-0.05166819,0.01310265,10.44580269
1691768152449521,0.03937496,0.01097947,0.01278299,10.56108570
1691768152453277,-0.04209213,-0.06950092,0.01423808,10.87516880
1691768152457707,-0.04740699,-0.06206238,0.01467202,10.86633205
1691768152459442,-0.04003889,-0.03324070,0.01465439,10.86045074
1691768152463288,-0.03723177,-0.04360545,0.01531549,10.64005184
1691768152467016,-0.03077663,0.05604022,0.01378456,10.77266979
1691768152471530,-0.04022994,-0.01822733,0.01466973,10.57906818
1691768152474253,-0.09480380,-0.04628549,0.01511642,10.83578968
1691768152477777,-0.09734468,-0.05397876,0.01563955,10.67739677
1691768152481513,-0.06734817,-0.03289159,0.01562605,10.84822083
1691768152485733,-0.02680597,-0.02543942,0.01601698,10.73646641
1691768152489745,-0.17116518,0.12809780,0.01587073,11.73402309
1691768152492280,-0.14338872,0.10285264,0.01569159,10.77482224
1691768152496623,-0.01660762,-0.15891728,0.01905195,10.27113056
1691768152499644,-0.02162058,-0.12587188,0.01877457,10.34931660
1691768152503586,-0.02334947,-0.04275048,0.01763014,10.61506462
1691768152507752,-0.20828661,-0.00381894,0.01798841,11.35043812
1691768152511327,-0.20983772,0.01793847,0.02114316,11.08087540
1691768152514569,-0.25265971,-0.10088127,0.02278538,11.13089180
1691768152517888,-0.18312567,-0.07629961,0.02458446,10.91754723
1691768152521711,-0.08995896,-0.07780976,0.02635072,10.80599022
1691768152525769,0.17111699,0.13125856,0.02246598,9.90866470
1691768152529641,0.28421700,0.02803454,0.02504646,9.56486320
1691768152533180,0.08714693,-0.01392651,0.02606838,10.31014061
1691768152536715,0.06073194,0.01910977,0.02598215,10.30636787
1691768152539678,0.04877760,-0.03238447,0.02673552,10.51059532
1691768152543632,-0.19096014,-0.03852050,0.02686398,11.19776917
1691768152547776,-0.15201880,0.13108960,0.02552691,11.50251961
1691768152551408,-0.07912029,0.15168571,0.02314132,10.97218609
1691768152554167,0.11084095,-0.08847203,0.02491524,9.81940842
1691768152557844,0.07023466,0.04632754,0.02195789,10.15472984
1691768152563710,0.14943710,-0.10992353,0.02387614,9.52811241
1691768152567554,0.08701340,-0.11181616,0.02247935,10.08765316
1691768152570465,0.05477392,-0.02792084,0.02093939,10.49351597
1691768152572707,0.00145339,-0.09167240,0.02083632,10.41129017
1691768152576709,0.03881325,-0.03995162,0.01982526,10.58784676
1691768152580897,0.04854051,0.03790018,0.01829746,10.70180893
1691768152583761,0.01951394,-0.04279721,0.01869354,10.11605835
1691768152586842,-0.00839307,0.05848271,0.01764443,10.08249378
1691768152590756,-0.01713866,0.07164530,0.01749406,10.88780308
1691768152594682,-0.04374872,-0.14809263,0.01862608,10.51027870
1691768152599692,-0.05573964,-0.03952245,0.01759754,10.76226521
1691768152601503,-0.02512548,-0.13782036,0.01795582,10.30141830
1691768152606205,0.01647680,0.01758224,0.01633573,10.77283096
1691768152608772,-0.05673465,0.07465863,0.01596615,10.70404243
1691768152612413,-0.10046640,0.18276869,0.01477673,11.26013660
1691768152617095,-0.06964222,0.13959192,0.01299527,10.99310112
1691768152621136,0.09093075,-0.07236114,0.01409803,9.98106861
1691768152623308,0.08561498,-0.30199051,0.01761267,9.68861866
1691768152626889,0.03375882,-0.17646864,0.01433292,10.13002396
1691768152630809,0.09161810,-0.01356005,0.01248253,10.37896442
1691768152634808,-0.16229981,-0.06843467,0.01281190,11.23872185
1691768152638722,-0.12661754,0.10557236,0.01275879,11.49927330
1691768152641457,-0.13218653,0.05333083,0.01277217,11.34925747
1691768152645605,-0.00805479,0.11980772,0.01103247,10.58151531
1691768152648842,-0.11575384,-0.01254519,0.01211755,10.80445957
1691768152652758,-0.07145816,-0.07203021,0.01236422,10.61008930
1691768152656868,0.02349648,-0.10461011,0.01355928,10.49683762
1691768152660581,0.38850942,-0.07492949,0.01534286,8.97912121
1691768152663252,0.38334841,0.00202926,0.01279560,9.02803326
1691768152667034,0.11419147,-0.11571029,0.01472182,10.28875637
1691768152671111,0.10223827,-0.05633742,0.01330720,10.59030533
1691768152674768,0.07754431,0.02768158,0.01186817,10.72864628
1691768152678815,-0.03685283,0.18358400,0.01083611,11.30627728
1691768152681457,-0.13475370,0.04368989,0.01169922,11.50213432
1691768152685703,-0.11201584,0.04619505,0.01340311,11.09045792
1691768152689203,-0.12223539,-0.03846800,0.01323375,10.81033802
1691768152692829,-0.05485600,-0.04389792,0.01500184,10.45828438
1691768152696748,0.00600295,-0.09380873,0.01574209,10.50592232
1691768152701003,0.06127039,-0.36594248,0.01944579,9.45693684
1691768152703080,0.03686282,0.05388672,0.01611453,10.76902294
1691768152707367,0.15486299,0.21669377,0.01239737,10.15536308
1691768152710549,0.00279704,0.00786993,0.01603193,10.98448563
1691768152714851,-0.00366538,-0.03363448,0.01641429,10.77470684
1691768152718170,0.01168020,-0.04148844,0.01664330,10.61999798
1691768152721783,0.23456718,0.12322690,0.01394083,9.93234730
1691768152725845,0.08690217,0.01308437,0.01786713,10.54971218
1691768152729533,0.37748468,0.05654095,0.01635168,8.99119854
1691768152732288,0.25189927,-0.28629288,0.02467758,9.58505535
1691768152736018,0.17133358,-0.04843686,0.01791253,10.49609566
1691768152740071,0.02356774,0.13306253,0.01590031,11.31461716
1691768152743970,-0.00699747,0.14391360,0.01552952,10.92224789
1691768152747788,-0.07312632,-0.02110405,0.01610959,10.94688225
1691768152750400,0.03115383,0.07568611,0.01464844,10.32771301
1691768152754112,-0.07479998,-0.04208703,0.01505369,10.74774361
1691768152757908,-0.09599537,-0.09873733,0.01487115,10.85801983
1691768152761767,-0.05626548,-0.11209633,0.01527466,10.82358170
1691768152765928,0.00938486,-0.11270472,0.01595311,10.51586437
1691768152771997,0.04031115,-0.31508392,0.01933503,9.80951309
1691768152772262,0.58652198,-0.17693987,0.02699100,8.59819984
1691768152776071,0.01773196,0.10930006,0.01616595,11.37829876
1691768152779955,-0.04072930,0.13035570,0.01664287,11.29417896
1691768152783849,-0.05169647,0.10645647,0.01693490,10.99944878
1691768152789616,0.00992866,0.14807245,0.01587429,10.51020908
1691768152790485,0.03817264,0.11123479,0.01584462,10.44522667
1691768152794397,0.21664463,-0.11660381,0.02045346,9.48069286
1691768152799087,0.02391010,0.11863704,0.01554666,10.55255032
1691768152801909,-0.11041795,-0.21653962,0.01771083,10.33583069
1691768152805904,0.22210021,-0.21905132,0.02432113,9.51832581
1691768152810863,0.08387855,-0.01236477,0.01801609,10.47252178
1691768152817966,0.07982757,-0.07300841,0.01926548,10.22573757
1691768152818117,0.04524270,-0.06406705,0.01941036,10.35945892
1691768152820202,0.01508335,0.02482701,0.01779163,10.64846134
1691768152823989,0.03196026,0.11370511,0.01580992,10.85856152
1691768152827975,0.02948987,0.02475424,0.01799170,10.38483143
1691768152831145,-0.02383101,0.03999190,0.01850846,10.47071075
1691768152834245,-0.16321369,0.14778489,0.01872456,11.74046040
1691768152838140,-0.24885269,-0.01107788,0.02003559,10.98975563
1691768152841943,-0.11836000,0.25331813,0.01693811,11.05609417
1691768152845950,-0.18631174,0.15035948,0.02081922,11.41059303
1691768152848580,-0.11625119,0.13837604,0.02003545,10.76235771
1691768152852377,-0.05735699,0.08461662,0.02015867,10.61605835
1691768152855983,-0.03081936,0.08071945,0.01976513,10.45269775
1691768152859743,0.00490087,0.15893108,0.01842292,10.26068783
1691768152863246,-0.06235281,0.07283175,0.01985946,10.50621796
1691768152866983,-0.17119277,-0.06710164,0.02093092,11.12051487
1691768152870944,-0.05214122,0.01114335,0.01978250,10.48126602
1691768152874907,-0.00633288,0.03721713,0.01867016,10.36306572
1691768152878689,-0.02050771,0.06970980,0.01648919,10.39676094
1691768152881202,-0.08301638,0.03886954,0.01597031,10.73260403
1691768152885545,-0.02837184,0.05944308,0.01625147,10.50529003
1691768152889036,0.01036542,0.03909867,0.01721168,10.36854458
1691768152893107,-0.00978226,-0.02689510,0.01710440,10.56427193
1691768152896031,-0.01829208,-0.00230136,0.01586700,10.37806702
1691768152900128,-0.13139358,-0.10665826,0.01611738,10.72590542
1691768152903919,-0.07433411,-0.02835357,0.01471397,10.54396439
1691768152907812,-0.05982248,-0.02819870,0.01367017,10.44866848
1691768152910589,0.00137949,-0.05158044,0.01356028,10.30406094
1691768152914135,0.00304667,-0.02157630,0.01268763,10.31483650
1691768152918011,-0.02465576,0.00824509,0.01152968,10.27621651
1691768152922221,-0.09072883,-0.08714900,0.01139048,10.67079163
1691768152926050,-0.07586958,-0.08227408,0.01111586,10.65425873
1691768152928826,-0.00259098,0.05407633,0.01047240,10.28274345
1691768152932532,-0.00624761,0.00697962,0.01022384,10.42448330
1691768152936186,0.01475712,-0.03554170,0.01025343,10.40949535
1691768152941940,-0.02411240,-0.12233177,0.01103471,10.69555187
1691768152944023,0.06118725,0.03154612,0.00916792,10.02220631
1691768152948034,0.02949626,0.02030291,0.00873282,10.36168861
1691768152950784,-0.01086605,-0.02844384,0.00862724,10.65466690
1691768152954224,-0.01722310,-0.06426331,0.00856022,10.47744274
1691768152958286,-0.00409534,-0.05643756,0.00823589,10.46400833
1691768152962929,0.04382426,-0.06172324,0.00818096,10.30015182
1691768152964953,0.06235362,-0.01915062,0.00743881,10.13935089
1691768152969079,0.01505681,0.00227656,0.00685651,10.29227924
1691768152972956,-0.02073290,-0.04304146,0.00662913,10.64551353
1691768152976808,0.00647063,0.03275508,0.00659766,10.44339561
1691768152979591,0.02188279,-0.01888152,0.00758068,10.36642361
1691768152984036,0.05820547,-0.02081913,0.00843701,10.27733898
1691768152987160,0.03959431,-0.06811687,0.00872966,10.33311176
1691768152991114,0.04606444,-0.03375743,0.00815789,10.35935307
1691768152995128,-0.03506513,-0.07995988,0.00803040,10.62100601
1691768152997812,-0.05563166,-0.07273133,0.00769788,10.56133556
1691768153002010,-0.00179820,-0.10142779,0.00800660,10.51303101
1691768153005818,0.06750700,-0.10314957,0.00860677,10.31463242
1691768153008839,0.04855394,-0.05121225,0.00782451,10.21040535
1691768153012392,0.02617939,0.00143632,0.00691691,10.27433872
1691768153015984,0.02178868,-0.01299927,0.00683728,10.29322338
1691768153020186,-0.01630754,-0.06943423,0.00695955,10.53642941
1691768153024304,0.00419573,-0.01658973,0.00687497,10.47805786
1691768153027841,0.04914261,-0.01887252,0.00713940,10.23841476
1691768153034310,0.07081138,-0.09641942,0.00816722,10.19764996
1691768153034654,0.03348076,-0.02543495,0.00709253,10.28842068
1691768153038723,-0.07246502,-0.10491380,0.00690339,10.71264648
1691768153042340,0.02437389,-0.05281140,0.00702168,10.44828320
1691768153045934,0.04301493,-0.06447759,0.00710066,10.32577610
1691768153048662,0.02442480,-0.05928110,0.00678572,10.32818317
1691768153052721,0.03819254,-0.05477551,0.00681141,10.28028393
1691768153056573,0.06105520,-0.02044445,0.00643361,10.30026436
1691768153059677,0.04702712,-0.01109548,0.00603946,10.21819210
1691768153063293,-0.01860287,-0.04763373,0.00601487,10.45645332
1691768153067445,-0.01067674,-0.04486872,0.00565378,10.47234058
1691768153071149,0.03347702,-0.01544210,0.00579740,10.17061901
1691768153074085,0.03383039,0.00599540,0.00630850,10.21336555
1691768153081289,-0.05955354,-0.14957486,0.00702643,10.54171085
1691768153082108,0.07274378,-0.01508421,0.00643699,9.93633080
1691768153085964,0.00650354,-0.03158373,0.00638323,10.51963234
1691768153088725,-0.00494415,-0.02084067,0.00619121,10.46768951
1691768153092529,0.00259277,-0.03015054,0.00610122,10.33268642
1691768153096408,0.04877478,-0.07036311,0.00695293,10.29603386
1691768153100097,0.06732263,-0.01579621,0.00661489,10.23890018
1691768153104174,0.04109986,0.01460033,0.00621489,10.17033291
1691768153107029,0.05124952,0.01960050,0.00576560,10.18512058
1691768153111210,-0.00608190,-0.03099626,0.00631726,10.54552269
1691768153114149,-0.04656484,-0.01746728,0.00625174,10.45943165
1691768153117977,-0.00697189,0.01017148,0.00661569,10.28285122
1691768153122693,0.07158976,-0.00775787,0.00734490,10.13543987
1691768153125784,0.07787322,0.05676103,0.00690064,10.09481716
1691768153128801,-0.00661974,0.00442176,0.00758793,10.28521252
1691768153133163,-0.03689609,-0.06225315,0.00795915,10.58495808
1691768153136206,-0.03577287,-0.05615374,0.00802459,10.47578812
1691768153140170,-0.02987263,-0.03868575,0.00806638,10.35262966
1691768153144409,0.02066386,-0.03450715,0.00835155,10.25363350
1691768153146926,0.05927684,-0.02108169,0.00842408,10.14266491
1691768153150427,0.04763229,0.05060143,0.00742290,10.22191906
1691768153154263,0.00884351,0.05127335,0.00741874,10.23086643
1691768153158309,-0.03457277,-0.00444553,0.00800251,10.56131840
1691768153162202,-0.02777745,-0.01645612,0.00810669,10.55834198
1691768153165912,-0.02530302,-0.01900010,0.00816123,10.38423729
1691768153168675,-0.00807757,-0.02546989,0.00834649,10.20663738
1691768153173508,0.07304475,0.05230991,0.00789738,10.19180679
1691768153176572,0.08003382,0.07679018,0.00787936,10.09288883
1691768153179778,-0.00172340,0.03013332,0.00883101,10.24532413
1691768153183738,-0.04891200,-0.02885898,0.00933805,10.53891850
1691768153187317,-0.03545011,-0.04254015,0.00947546,10.50188541
1691768153191303,-0.01737296,-0.02091365,0.00944015,10.42064381
1691768153198924,0.00304928,-0.02237464,0.00959654,10.30505466
1691768153199048,0.02911383,-0.02298206,0.00974598,10.18830967
1691768153202688,0.03585621,0.03649404,0.00901536,10.25479412
1691768153205884,0.12295632,0.18560815,0.00557568,9.87642193
1691768153209890,-0.06692851,-0.00661203,0.00935301,10.76533699
1691768153215925,-0.06729277,-0.03481256,0.00948514,10.64113808
1691768153216747,-0.06218142,-0.02751894,0.00947684,10.47143364
1691768153219807,-0.04522919,-0.02811632,0.00952109,10.34954071
1691768153223726,-0.00534392,-0.03832738,0.00980822,10.23695469
1691768153227332,0.21045314,0.22979850,0.00363878,9.66569519
1691768153230620,-0.04536878,0.06767505,0.01027756,10.59414864
1691768153234333,-0.09303439,-0.03752823,0.01092995,10.72883224
1691768153238531,-0.05276383,-0.07788475,0.01134626,10.43106079
1691768153242219,-0.02927554,-0.03767889,0.01116125,10.46097565
1691768153244992,0.00091673,-0.04311873,0.01141910,10.31163025
1691768153248705,0.01663028,-0.01906684,0.01123095,10.23356915
1691768153252390,0.15038414,0.16002823,0.00663368,9.85927486
1691768153260892,0.06554093,0.15477623,0.00734891,10.21082783
1691768153261407,0.03565556,0.09588603,0.00810115,10.35129452
1691768153263963,-0.08179567,-0.04724414,0.00959436,10.73322105
1691768153266882,-0.10253184,-0.06008413,0.00948654,10.89811134
1691768153274309,-0.13462406,-0.07762094,0.00934620,10.64501381
1691768153274716,-0.10442622,-0.08480718,0.00955245,10.46080399
1691768153280444,-0.03442512,-0.04462222,0.00963963,10.29999447
1691768153283180,-0.03692848,0.01265119,0.00909911,10.27868271
1691768153287299,-0.02853767,0.06705607,0.00921732,10.31768417
1691768153289005,-0.03619027,0.00317489,0.01058397,10.57705593
1691768153292798,-0.06253212,-0.06742383,0.01122695,10.64837551
1691768153296547,-0.07346538,-0.05545880,0.01117996,10.53814411
1691768153299411,-0.04729462,-0.04903378,0.01127544,10.51103687
1691768153304664,-0.03331182,-0.02850526,0.01111349,10.45742321
1691768153307328,-0.00150659,-0.04117070,0.01141094,10.39646053
1691768153311744,-0.00000754,0.00807093,0.01078535,10.27276611
1691768153315060,0.11258479,0.16447973,0.00680325,9.94715118
1691768153319130,-0.06779247,-0.02110710,0.01055326,10.80763435
1691768153322033,-0.10305209,-0.02724286,0.01047034,10.81330776
1691768153325452,-0.09224192,-0.05316005,0.01062255,10.52585697
1691768153329777,-0.05538974,-0.06130152,0.01075984,10.40942764
1691768153333044,-0.00925499,-0.01447116,0.01036482,10.38829803
1691768153336040,-0.01445067,0.01836145,0.00986384,10.22440243
1691768153339666,-0.04016956,0.02318349,0.01024944,10.59050846
1691768153343442,-0.04501199,0.03892329,0.01082638,10.59577274
1691768153347495,-0.07302013,-0.05073950,0.01145220,10.56130505
1691768153351423,-0.05056541,-0.07973607,0.01182948,10.41698074
1691768153355185,-0.01116495,-0.07857075,0.01209857,10.45499229
1691768153357945,0.00336717,-0.02281043,0.01153581,10.48049450
1691768153361480,0.11923211,0.14347182,0.00808490,9.87327957
1691768153365439,-0.07221191,-0.03642885,0.01144865,10.83107471
1691768153370444,-0.08670925,-0.02738281,0.01116702,10.78869534
1691768153372328,-0.06795071,-0.04210255,0.01129519,10.57822990
1691768153376487,-0.03231409,-0.07527895,0.01182237,10.38503838
1691768153380520,-0.01434819,-0.01083696,0.01120115,10.36886311
1691768153383783,0.10411301,0.14184582,0.00783037,9.94941711
1691768153387514,-0.06479518,0.02471668,0.01213409,10.75992107
1691768153391506,-0.07407808,-0.03027530,0.01325672,10.65312862
1691768153394176,-0.06171529,-0.08775704,0.01364606,10.58705997
1691768153397870,-0.01086283,-0.11735413,0.01442078,10.42353153
1691768153401463,-0.01244142,-0.06167244,0.01396797,10.39297295
1691768153405585,0.10420471,0.10745195,0.01109282,9.90664101
1691768153409493,-0.05391575,-0.05266960,0.01346636,10.77436066
1691768153413218,-0.07745448,-0.07502814,0.01352264,10.76615429
1691768153415984,-0.05936121,-0.07744437,0.01374519,10.57575226
1691768153420006,-0.01501248,-0.07743303,0.01416654,10.30300426
1691768153423569,0.00422619,-0.03513894,0.01385934,10.37171459
1691768153427457,0.11912377,0.11589697,0.01105720,9.88642120
1691768153431811,-0.05426558,0.01291562,0.01435688,10.68619442
1691768153434050,-0.05961974,-0.01184298,0.01521987,10.61829281
1691768153437805,-0.05235082,-0.11449308,0.01580841,10.52338123
1691768153441372,-0.02037036,-0.11192857,0.01628739,10.30193806
1691768153444994,0.11519188,0.06518952,0.01418219,9.78769970
1691768153448688,0.05972427,0.07444202,0.01403371,10.20331192
1691768153452470,-0.08336285,-0.08729890,0.01544633,10.88455772
1691768153456640,-0.09725517,-0.10990263,0.01545771,10.66171455
1691768153460498,-0.07080507,-0.09784529,0.01559297,10.58030796
1691768153463296,-0.02894367,-0.09820976,0.01590946,10.52236366
1691768153467501,-0.00081126,-0.07980069,0.01616165,10.33047771
1691768153471085,0.10374141,0.09596336,0.01369019,9.93176079
1691768153474135,0.10115939,0.07417787,0.01377011,10.23253250
1691768153477705,0.07075521,0.04878552,0.01416540,10.33984184
1691768153481521,-0.11569953,-0.20875631,0.01502290,8.46094322
1691768153486427,-0.12775975,-0.21766320,0.01466319,8.28656101
1691768153489607,-0.05083187,-0.17710952,0.01626045,8.07764530
1691768153492461,0.03575745,-0.16342223,0.01825521,7.86980820
1691768153496646,0.22493218,0.06697059,0.01474514,7.26959610
1691768153501321,0.16190638,-0.00619722,0.01693491,7.75458479
1691768153503195,0.07691572,-0.12390165,0.01878200,8.04355907
1691768153507610,-0.08998749,-0.27699596,0.01765687,8.40578365
1691768153510361,-0.14487430,-0.25262624,0.01636563,8.43049622
1691768153514489,-0.09376977,-0.24572529,0.01720764,8.31706047
1691768153517822,-0.07880207,-0.19872007,0.01729066,8.27980614
1691768153523759,-0.07259272,-0.17434153,0.01755919,8.31671524
1691768153524925,0.16196361,0.03058339,0.01598752,7.83453560
1691768153528650,0.16520107,0.06726181,0.01539709,8.07764149
1691768153533605,-0.06499027,-0.13445152,0.01759766,8.78811169
1691768153535935,-0.06095653,-0.13584346,0.01766490,8.82626820
1691768153539748,0.09714706,-0.02226057,0.01728290,8.36065292
1691768153543596,0.00106940,-0.05462585,0.01892273,8.83465767
1691768153547679,-0.03643487,-0.10701557,0.01982204,8.93538284
1691768153551279,-0.03436996,-0.12346443,0.02026104,8.96461391
1691768153554146,-0.04567077,-0.08089874,0.01999585,9.12609768
1691768153558200,-0.03518698,-0.02654742,0.02097956,9.14507580
1691768153561682,-0.03545477,-0.04008478,0.02098620,9.22605896
1691768153565696,-0.02142189,-0.02843677,0.02065702,9.25898647
1691768153569584,0.11845112,0.07902727,0.01855066,8.85247707
1691768153572263,0.09272622,0.08074208,0.01830229,9.04722404
1691768153575940,0.01474452,0.02308426,0.01996945,9.41174603
1691768153579749,-0.00942641,-0.00778795,0.02026608,9.51358700
1691768153583669,0.04360617,0.05507743,0.01954233,9.45602989
1691768153587657,-0.02340208,0.02628876,0.01976221,9.65485382
1691768153591366,-0.02520035,0.02302996,0.01949377,9.69425392
1691768153593952,-0.03605185,0.02203306,0.01942014,9.72219658
1691768153598609,-0.02742361,0.03823484,0.01906657,9.75233841
1691768153602246,-0.01719697,0.04052189,0.01885715,9.78240776
1691768153605178,-0.00533059,0.08024470,0.01891151,9.81203747
1691768153608725,-0.00217085,0.08326316,0.01905998,9.84428787
1691768153612593,0.00024597,0.08910133,0.01945704,9.86813641
1691768153616711,-0.00839197,0.06858321,0.01959549,9.90054798
1691768153619623,-0.00383297,0.07138163,0.01939961,9.93585873
1691768153623581,0.00639794,0.06716245,0.01932068,9.95221901
1691768153626984,0.00943583,0.07565134,0.01919737,9.96130276
1691768153630813,0.01185314,0.08815036,0.01899240,9.97982216
1691768153634985,0.04945688,0.11662121,0.01773281,9.93012714
1691768153638859,0.04076370,0.12578471,0.01705715,9.94841480
1691768153641350,0.03066374,0.12789106,0.01634792,9.97815228
1691768153645691,0.00052080,0.06555285,0.01691021,10.08091640
1691768153648695,-0.00641360,0.06591224,0.01669694,10.11939430
1691768153652666,-0.01292815,0.07000128,0.01639339,10.12903500
1691768153657177,-0.00752863,0.06427643,0.01616107,10.14411163
1691768153659457,0.00565978,0.06185183,0.01613020,10.15629005
1691768153663174,0.00418851,0.07917979,0.01593181,10.15103722
1691768153666784,0.02574049,0.11628898,0.01431357,10.09740353
1691768153670504,0.03619844,0.11810154,0.01341131,10.10548019
1691768153674211,0.02832757,0.11940224,0.01251735,10.11544800
1691768153677704,0.00341357,0.07081760,0.01241247,10.24036026
1691768153681430,-0.00863964,0.02721029,0.01259304,10.39680862
1691768153685092,-0.01782335,0.03264457,0.01241047,10.38890076
1691768153688856,-0.00634877,0.07566790,0.01334546,10.30803776
1691768153692775,0.01339711,0.06068522,0.01458246,10.31434155
1691768153696739,0.01999000,0.06982241,0.01528977,10.29323959
1691768153700578,0.03979484,0.11156315,0.01523368,10.20883465
1691768153703239,0.04313951,0.11514758,0.01563238,10.21405125
1691768153706865,0.00850054,0.05095524,0.01759873,10.43227196
1691768153710718,-0.02023032,0.00000381,0.01808570,10.52971649
1691768153714787,-0.01650359,0.01279339,0.01792408,10.45894432
1691768153718706,0.00565170,0.00988270,0.01788614,10.41957474
1691768153721348,0.01285063,0.03199207,0.01743109,10.34908390
1691768153724895,0.02897098,0.07568846,0.01605026,10.23532295
1691768153728696,-0.01334104,0.02594087,0.01644924,10.41417885
1691768153732778,-0.01505490,0.01812342,0.01615604,10.44888210
1691768153736247,-0.00399846,0.01656078,0.01604734,10.40892220
1691768153739765,0.00261243,0.02392496,0.01595826,10.36567307
1691768153743779,0.01017054,0.03340787,0.01547593,10.33449745
1691768153747649,0.03478930,0.06966304,0.01451014,10.24142933
1691768153750622,0.03010410,0.07193057,0.01386931,10.22611141
1691768153754776,-0.02213105,0.02646261,0.01401895,10.37551022
1691768153758916,0.00108996,0.03068409,0.01452694,10.35986805
1691768153762536,0.02124010,0.01719958,0.01559620,10.34274960
1691768153765065,0.01014066,0.04039759,0.01662399,10.26128960
1691768153768862,0.01636116,0.05270106,0.01587591,10.21747208
1691768153772813,-0.00328918,-0.02668161,0.01661597,10.41400051
1691768153776903,-0.00700294,-0.02679338,0.01657974,10.40661049
1691768153780520,-0.01292148,-0.01732385,0.01636811,10.37461281
1691768153783201,0.00279884,-0.01793004,0.01639709,10.33666229
1691768153786901,0.00648353,-0.00028244,0.01623591,10.29089928
1691768153790865,0.02055086,0.03611923,0.01533300,10.20945168
1691768153794752,-0.01054623,-0.01110400,0.01574855,10.33770466
1691768153797924,-0.00737177,-0.02175832,0.01569876,10.35630226
1691768153801814,-0.00459009,-0.02476374,0.01564191,10.35662842
1691768153805756,-0.00404526,-0.01586147,0.01568750,10.30017090
1691768153809589,-0.00052780,-0.00643204,0.01562942,10.26583958
1691768153812215,0.02942962,0.02744200,0.01463767,10.19737053
1691768153816976,0.02295604,0.02461227,0.01444068,10.19787121
1691768153819791,-0.00340523,-0.00000809,0.01537308,10.26944637
1691768153823889,-0.00689808,-0.00788067,0.01610792,10.27917480
1691768153827790,0.01066724,-0.01229984,0.01741489,10.25905228
1691768153830583,0.02452612,0.00901852,0.01716684,10.19269085
1691768153834870,0.01775058,0.01618079,0.01662187,10.17916203
1691768153838116,-0.01338306,-0.07951839,0.01746854,10.36835575
1691768153841489,-0.01713670,-0.08123087,0.01742199,10.37328625
1691768153845030,0.01123795,-0.01592921,0.01703732,10.23065567
1691768153848807,-0.00634198,-0.07393306,0.01763040,10.31808853
1691768153852294,0.02852302,-0.01508253,0.01699674,10.21223640
1691768153857082,0.02471461,-0.00102908,0.01654633,10.18850040
1691768153860630,-0.01625711,-0.06908424,0.01715051,10.30825138
1691768153863761,-0.02492916,-0.07254630,0.01710003,10.31743908
1691768153868930,-0.02283982,-0.06359490,0.01701030,10.29260731
1691768153870780,-0.00515511,-0.06722640,0.01717065,10.27643585
1691768153874934,-0.00603253,-0.04934178,0.01698674,10.24486065
1691768153878605,0.01890242,-0.01022263,0.01634113,10.17640591
1691768153881444,0.02161335,-0.00474794,0.01581599,10.17268848
1691768153885151,-0.01120742,-0.03140937,0.01690721,10.23642826
1691768153889532,-0.01526871,-0.05512328,0.01768131,10.26500416
1691768153892443,-0.00233747,-0.05370652,0.01830351,10.25302029
1691768153895939,-0.00170598,-0.09353768,0.01885405,10.28508568
1691768153899853,-0.00655118,-0.06376299,0.01859223,10.23489666
1691768153903864,0.01281438,-0.01627371,0.01782087,10.17578030
1691768153906869,-0.01357811,-0.09575395,0.01856311,10.29332829
1691768153910681,-0.02258085,-0.08765712,0.01852646,10.29681301
1691768153914782,-0.02715498,-0.07138388,0.01820737,10.26644516
1691768153918655,0.00171951,-0.09565828,0.01871508,10.27324390
1691768153921398,0.00598425,-0.07639532,0.01862203,10.23866272
1691768153925125,-0.00472008,-0.04716239,0.01825250,10.20941353
1691768153928959,0.01058357,-0.01282288,0.01773905,10.16450977
1691768153933257,-0.01046027,-0.09306988,0.01857279,10.27251053
1691768153937341,-0.02111314,-0.08086134,0.01839217,10.28404903
1691768153939891,-0.02324291,-0.07355507,0.01837758,10.26473236
1691768153943235,-0.00135577,-0.09377201,0.01902956,10.26686764
1691768153947578,0.00197621,-0.06774801,0.01887807,10.24612331
1691768153950913,0.00868882,-0.01023346,0.01824576,10.17952633
1691768153954960,0.01294636,-0.01554411,0.01840620,10.18813038
1691768153958844,-0.00046057,-0.04150742,0.01962100,10.26507759
1691768153961332,0.00044643,-0.05383903,0.02051532,10.28470993
1691768153965103,-0.00200367,-0.04116928,0.02135648,10.26156712
1691768153968986,0.00920370,-0.03649304,0.02240080,10.23872948
1691768153972913,0.02132159,-0.00837995,0.02196576,10.18406582
1691768153976950,0.01308836,0.00060039,0.02180412,10.17758179
1691768153979493,-0.02436640,-0.09896096,0.02263147,10.31458569
1691768153983353,-0.01942928,-0.10034097,0.02249879,10.32212639
1691768153986840,-0.01016560,-0.08829904,0.02241691,10.30141354
1691768153990829,-0.00381043,-0.06808586,0.02233311,10.26645279
1691768153994879,0.01397502,-0.00735149,0.02147410,10.18649292
1691768153998623,0.01651391,0.00017112,0.02113615,10.18093014
1691768154001750,-0.01865128,-0.07425486,0.02168601,10.31168270
1691768154004969,-0.02494049,-0.07346170,0.02135920,10.31883717
1691768154009117,0.01842932,-0.02215097,0.02091303,10.21782303
1691768154012841,0.00602909,-0.07306587,0.02146253,10.29119492
1691768154016847,0.01770476,0.01676849,0.02072342,10.18122959
1691768154019515,0.01400078,0.02346616,0.02076222,10.17196941
1691768154023569,-0.00370472,-0.03010008,0.02189186,10.25093651
1691768154027055,-0.02641212,-0.06740908,0.02169937,10.31351376
1691768154030915,-0.02842068,-0.06535715,0.02137909,10.30027008
1691768154035101,-0.00815355,-0.07659034,0.02154978,10.27603245
1691768154038746,0.01577424,-0.00020476,0.02043531,10.19125652
1691768154042292,0.00438138,0.02081407,0.01980677,10.18086052
1691768154044968,-0.02961241,-0.07126606,0.02041058,10.30413914
1691768154048578,-0.02482297,-0.06620280,0.01995984,10.31224251
1691768154052555,-0.01880503,-0.04553560,0.01939115,10.29702377
1691768154055933,-0.00849279,-0.04346741,0.01930896,10.27668285
1691768154059554,-0.00589853,-0.02480799,0.01897207,10.25011253
1691768154063242,0.01188540,0.02292065,0.01788635,10.18832016
1691768154067024,-0.01343922,-0.02146148,0.01800951,10.26717949
1691768154070882,-0.02248255,-0.02205689,0.01760820,10.27160263
1691768154075041,-0.00872117,0.00777372,0.01755631,10.23989487
1691768154078060,0.00418410,0.00211126,0.01787859,10.23474312
1691768154082060,-0.00611524,-0.01141219,0.01796906,10.22743320
1691768154085771,0.01098410,0.03125339,0.01706756,10.17489433
1691768154089001,0.01903495,0.02894116,0.01658166,10.17879677
1691768154092990,-0.01755884,-0.02425168,0.01671948,10.26559925
1691768154096840,-0.02505929,-0.02645480,0.01629947,10.26971054
1691768154099674,-0.00339497,-0.04018778,0.01625657,10.25475883
1691768154103300,0.00030134,-0.01263354,0.01581454,10.22602749
1691768154107604,0.00606560,0.04070276,0.01480151,10.17839622
1691768154111093,-0.01658937,-0.01985191,0.01519763,10.25605488
1691768154115077,-0.01599949,-0.02025010,0.01490697,10.27746487
1691768154117766,-0.02009578,-0.00814590,0.01445910,10.26900482
1691768154121531,-0.01337101,-0.00701217,0.01427208,10.25310612
1691768154125383,-0.00824879,0.01156140,0.01406522,10.21956444
1691768154129251,0.01533523,0.04781805,0.01319472,10.16929722
1691768154132384,0.01084910,0.05052874,0.01294034,10.17396355
1691768154136193,-0.01915375,0.00511995,0.01335012,10.24151897
1691768154140075,-0.00947768,0.01984599,0.01349011,10.23009682
1691768154144658,-0.00283403,0.02400896,0.01375362,10.21367359
1691768154146911,-0.00736484,0.00625674,0.01400745,10.21762562
1691768154151092,-0.00747686,0.01471149,0.01392745,10.20918846
1691768154154123,0.01816657,0.04734485,0.01302321,10.16222382
1691768154159300,-0.01155690,-0.00044015,0.01352653,10.24625874
1691768154162073,-0.02109380,0.00120712,0.01343386,10.25764561
1691768154165859,-0.01483992,-0.00557441,0.01339259,10.25833607
1691768154168683,-0.00035905,-0.00878574,0.01345701,10.24957752
1691768154172285,-0.00732282,0.02262842,0.01314509,10.22098827
1691768154176873,0.01118067,0.05216968,0.01247634,10.17372608
1691768154179578,0.01597216,0.04900173,0.01233871,10.17977619
1691768154183282,-0.01345648,0.00848819,0.01277562,10.26188946
1691768154187140,-0.02052637,0.00595795,0.01273927,10.26392841
1691768154190430,-0.01425132,-0.00346198,0.01284972,10.24812412
1691768154194210,-0.00579379,0.00282397,0.01283643,10.23814487
1691768154198238,0.01666834,0.04985928,0.01201538,10.17409420
1691768154202175,0.02982538,0.07150333,0.01253353,10.13935947
1691768154205952,-0.00325847,0.03058656,0.01374187,10.21317482
1691768154208818,-0.00662751,0.03705605,0.01440561,10.22574902
1691768154212243,-0.01857735,0.00485940,0.01488074,10.25229073
1691768154216215,-0.01052492,-0.01334141,0.01526309,10.25871372
1691768154220164,-0.00365799,0.00650609,0.01510889,10.23274612
1691768154224103,0.01304720,0.04670469,0.01435078,10.17993832
1691768154226923,-0.01513287,-0.00029558,0.01496083,10.25147629
1691768154230576,-0.01918426,-0.00404847,0.01494353,10.27342415
1691768154234259,-0.01998338,0.00864318,0.01483639,10.25718784
1691768154238401,-0.01866478,0.00489271,0.01500933,10.24453068
1691768154242089,-0.00560346,-0.00061164,0.01517702,10.23920441
1691768154246318,-0.00355078,0.01595591,0.01503632,10.21577072
1691768154249094,0.02080194,0.04812877,0.01435616,10.16556168
1691768154252952,0.01054520,0.04587069,0.01430586,10.18065643
1691768154256919,-0.01953734,0.00451211,0.01483273,10.24318027
1691768154260514,-0.01943031,0.00279374,0.01491734,10.25139236
1691768154264236,-0.01334890,-0.00144342,0.01501179,10.24904156
1691768154266875,-0.00935694,0.01001761,0.01498136,10.22792053
1691768154271064,0.02677315,0.05409991,0.01502211,10.16255093
1691768154274250,0.02710044,0.05794318,0.01545606,10.16459751
1691768154278301,-0.01723091,-0.01597434,0.01645708,10.27366161
1691768154282825,-0.03287981,-0.01657859,0.01646092,10.27536106
1691768154286923,-0.02251086,-0.02066952,0.01652969,10.28678608
1691768154288750,-0.00968183,-0.02366752,0.01674996,10.27180862
1691768154292445,-0.00687103,-0.00507464,0.01678370,10.23761177
1691768154296426,0.01504961,0.02962102,0.01610881,10.18686390
1691768154300237,0.01230826,0.02908735,0.01589536,10.19450092
1691768154303676,-0.01659857,-0.01919491,0.01660447,10.27343464
1691768154307229,-0.02075049,-0.02432087,0.01676111,10.27945709
1691768154311431,-0.01557594,-0.01967316,0.01669510,10.26991177
1691768154315032,-0.00377058,-0.02489915,0.01695364,10.26135254
1691768154317929,-0.00372229,-0.01455440,0.01703273,10.24761677
1691768154321618,0.01429843,0.02227186,0.01632028,10.19890499
1691768154325271,0.02148909,0.02544596,0.01606184,10.19471741
1691768154329848,-0.01280622,-0.02496416,0.01669732,10.29298592
1691768154333700,-0.01573221,-0.03633417,0.01684884,10.30925941
1691768154336104,-0.00981604,-0.03670185,0.01689013,10.30160713
1691768154339722,0.00336858,-0.03845907,0.01709858,10.29073906
1691768154343474,0.00038479,-0.01433461,0.01693717,10.26046944
1691768154347754,0.02745407,0.02595582,0.01717172,10.19255257
1691768154351338,0.00005692,0.01476156,0.01821813,10.22227478
1691768154355093,-0.01491822,-0.03652605,0.01883991,10.30458641
1691768154358172,-0.01455988,-0.04856906,0.01914505,10.30077744
1691768154364177,-0.00680100,-0.04694631,0.01926050,10.28493309
1691768154365960,0.00709547,-0.04389698,0.01936351,10.28521824
1691768154369393,0.01956357,0.00328509,0.01906330,10.21247482
1691768154372327,0.01460867,0.01045110,0.01902273,10.20471478
1691768154376284,-0.00385190,-0.01481749,0.01925903,10.25715923
1691768154380326,-0.01498332,-0.04965712,0.01960679,10.32738304
1691768154384048,-0.01924653,-0.05965594,0.01981885,10.33046722
1691768154387407,-0.01223037,-0.05874301,0.01986638,10.33088875
1691768154390617,-0.00411231,-0.04279340,0.01979785,10.30350780
1691768154395212,0.01926083,-0.00246620,0.01955228,10.23198795
1691768154397982,0.01884720,0.00466494,0.01930472,10.21508408
1691768154401829,-0.01103670,-0.04085908,0.01966790,10.30230331
1691768154405438,-0.00593733,-0.01675328,0.02032096,10.27498531
1691768154409378,-0.00388604,-0.02784728,0.02105416,10.28104782
1691768154412836,-0.00639951,-0.01548829,0.02143545,10.25531960
1691768154415876,-0.00111660,-0.03784391,0.02176525,10.26739216
1691768154419793,0.02632568,-0.00857086,0.02139282,10.20828915
1691768154423318,0.01991217,0.00108746,0.02092248,10.19743156
1691768154427543,-0.00948013,-0.06669813,0.02144221,10.30717278
1691768154431404,-0.01327268,-0.06084030,0.02125296,10.31505871
1691768154434037,-0.00761194,-0.06835121,0.02133983,10.30309963
1691768154438035,-0.00276087,-0.05549944,0.02123174,10.27035999
1691768154441407,0.00092653,-0.03798461,0.02100125,10.26065445
1691768154445147,0.02109712,-0.00181041,0.02009125,10.20936966
1691768154449013,-0.00032758,-0.03260965,0.02030156,10.24280930
1691768154452447,-0.00829245,-0.07094111,0.02047974,10.30528450
1691768154456814,-0.01290438,-0.06386828,0.02021865,10.30377293
1691768154460477,-0.00972811,-0.02154181,0.02034518,10.25435925
1691768154464457,-0.00203193,-0.02348397,0.02087269,10.24033356
1691768154466885,0.00396292,-0.01695974,0.02111415,10.22551346
1691768154470852,0.03088548,-0.01073890,0.02060392,10.18931198
1691768154474790,-0.00599277,-0.06660374,0.02102646,10.26387119
1691768154478671,-0.01365209,-0.07105475,0.02076603,10.29332542
1691768154481373,-0.01176603,-0.06797135,0.02049522,10.29793358
1691768154485435,-0.00594401,-0.06743179,0.02042458,10.29235172
1691768154489638,-0.00162595,-0.05076531,0.02014691,10.26367855
1691768154492716,0.00535967,-0.04347068,0.01979097,10.25343990
1691768154495803,0.03403006,-0.00460552,0.01868254,10.19299507
1691768154499559,0.02862614,-0.00133034,0.01811058,10.18582153
1691768154503537,-0.01236371,-0.05039747,0.01826089,10.27071095
1691768154507592,-0.01258450,-0.06498832,0.01795382,10.29555893
1691768154511422,-0.01205267,-0.06084521,0.01767718,10.28268433
1691768154514960,-0.00489048,-0.06072970,0.01748670,10.27018547
1691768154517840,0.00201829,-0.04114497,0.01696712,10.24848557
1691768154521525,0.04803540,0.01409028,0.01635297,10.17273235
1691768154525465,0.02308620,0.01356027,0.01639929,10.19133282
1691768154529429,-0.00916324,-0.00678646,0.01690665,10.24259949
1691768154533207,-0.01538197,-0.07053630,0.01712401,10.32016277
1691768154535720,-0.00636939,-0.07817312,0.01700523,10.31367683
1691768154539579,-0.00219816,-0.06091624,0.01677449,10.28145218
1691768154543486,0.01846347,-0.00518939,0.01562369,10.21603298
1691768154546872,0.01683154,0.00519724,0.01473843,10.20655060
1691768154550817,-0.01538664,-0.06178246,0.01525535,10.30426788
