timestamp,roll,pitch,thrust,yaw,aux1,aux2,aux3,aux4
1691757638961551,1500,1500,1000,1500,1000,0,0,0
1691757638971592,1500,1500,1000,1500,1000,0,0,0
1691757638981526,1500,1500,1000,1500,1000,0,0,0
1691757638991548,1500,1500,1000,1500,1000,0,0,0
1691757639001613,1500,1500,1000,1500,1000,0,0,0
1691757639011570,1500,1500,1000,1500,1000,0,0,0
1691757639021537,1500,1500,1000,1500,1000,0,0,0
1691757639033629,1498,1474,1253,1511,1000,0,0,0
1691757639037631,1497,1468,1280,1512,1000,0,0,0
1691757639041330,1498,1470,1282,1512,1000,0,0,0
1691757639045397,1498,1471,1283,1512,1000,0,0,0
1691757639048024,1498,1471,1283,1512,1000,0,0,0
1691757639051952,1499,1475,1282,1512,1000,0,0,0
1691757639055528,1498,1472,1283,1512,1000,0,0,0
1691757639059313,1498,1471,1284,1512,1000,0,0,0
1691757639064754,1498,1471,1285,1512,1000,0,0,0
1691757639066123,1498,1469,1285,1512,1000,0,0,0
1691757639070412,1498,1470,1285,1512,1000,0,0,0
1691757639074361,1498,1470,1286,1512,1000,0,0,0
1691757639078767,1498,1471,1286,1512,1000,0,0,0
1691757639084821,1498,1469,1287,1512,1000,0,0,0
1691757639085064,1497,1468,1287,1512,1000,0,0,0
1691757639090725,1498,1470,1287,1512,1000,0,0,0
1691757639094131,1498,1471,1288,1512,1000,0,0,0
1691757639096439,1498,1472,1288,1512,1000,0,0,0
1691757639098971,1498,1471,1288,1512,1000,0,0,0
1691757639103037,1498,1471,1289,1511,1000,0,0,0
1691757639106367,1498,1473,1289,1511,1000,0,0,0
1691757639110513,1498,1476,1287,1511,1000,0,0,0
1691757639114503,1498,1472,1290,1510,1000,0,0,0
1691757639117585,1498,1476,1288,1510,1000,0,0,0
1691757639120952,1498,1478,1287,1509,1000,0,0,0
1691757639126120,1498,1484,1283,1509,1000,0,0,0
1691757639130048,1499,1480,1285,1509,1000,0,0,0
1691757639133207,1499,1480,1284,1508,1000,0,0,0
1691757639136302,1499,1488,1277,1508,1000,0,0,0
1691757639139496,1499,1483,1277,1507,1000,0,0,0
1691757639142569,1498,1479,1273,1507,1000,0,0,0
1691757639146496,1498,1478,1273,1506,1000,0,0,0
1691757639150430,1500,1485,1268,1506,1000,0,0,0
1691757639155565,1500,1486,1265,1506,1000,0,0,0
1691757639157708,1500,1490,1258,1505,1000,0,0,0
1691757639160917,1500,1482,1264,1505,1000,0,0,0
1691757639164597,1501,1488,1259,1505,1000,0,0,0
1691757639168605,1499,1486,1258,1504,1000,0,0,0
1691757639173578,1497,1486,1256,1504,1000,0,0,0
1691757639176319,1501,1485,1253,1503,1000,0,0,0
1691757639179246,1503,1490,1250,1503,1000,0,0,0
1691757639182702,1503,1496,1244,1503,1000,0,0,0
1691757639194877,1499,1490,1251,1503,1000,0,0,0
1691757639195152,1504,1501,1240,1502,1000,0,0,0
1691757639197601,1504,1504,1240,1502,1000,0,0,0
1691757639200865,1508,1502,1244,1502,1000,0,0,0
1691757639204714,1507,1499,1243,1502,1000,0,0,0
1691757639208668,1505,1499,1242,1502,1000,0,0,0
1691757639213390,1503,1496,1243,1501,1000,0,0,0
1691757639215575,1503,1492,1247,1501,1000,0,0,0
1691757639219639,1502,1492,1246,1501,1000,0,0,0
1691757639224796,1502,1493,1244,1501,1000,0,0,0
1691757639226391,1502,1492,1244,1501,1000,0,0,0
1691757639230049,1502,1495,1242,1501,1000,0,0,0
1691757639233531,1502,1498,1243,1501,1000,0,0,0
1691757639239646,1507,1501,1241,1501,1000,0,0,0
1691757639241481,1499,1485,1251,1500,1000,0,0,0
1691757639245807,1500,1490,1248,1500,1000,0,0,0
1691757639249334,1501,1494,1244,1500,1000,0,0,0
1691757639253582,1502,1496,1245,1500,1000,0,0,0
1691757639255981,1501,1498,1244,1500,1000,0,0,0
1691757639265006,1504,1498,1243,1500,1000,0,0,0
1691757639265212,1503,1498,1243,1500,1000,0,0,0
1691757639266498,1502,1499,1243,1500,1000,0,0,0
1691757639269929,1500,1497,1245,1500,1000,0,0,0
1691757639273569,1502,1497,1241,1500,1000,0,0,0
1691757639277841,1500,1497,1244,1499,1000,0,0,0
1691757639283336,1502,1499,1243,1499,1000,0,0,0
1691757639289035,1502,1499,1238,1499,1000,0,0,0
1691757639289369,1502,1498,1240,1499,1000,0,0,0
1691757639291599,1503,1500,1240,1499,1000,0,0,0
1691757639296548,1505,1502,1239,1499,1000,0,0,0
1691757639299157,1503,1504,1243,1499,1000,0,0,0
1691757639306517,1504,1502,1241,1499,1000,0,0,0
1691757639306738,1503,1503,1246,1499,1000,0,0,0
1691757639310478,1503,1506,1242,1499,1000,0,0,0
1691757639316391,1504,1504,1244,1499,1000,0,0,0
1691757639317526,1503,1502,1246,1499,1000,0,0,0
1691757639320949,1501,1501,1245,1499,1000,0,0,0
1691757639325008,1502,1502,1242,1499,1000,0,0,0
1691757639328696,1502,1505,1242,1499,1000,0,0,0
1691757639332844,1501,1503,1245,1499,1000,0,0,0
1691757639335243,1501,1503,1243,1499,1000,0,0,0
1691757639344423,1502,1504,1244,1499,1000,0,0,0
1691757639344611,1503,1504,1245,1499,1000,0,0,0
1691757639346797,1502,1507,1241,1499,1000,0,0,0
1691757639350667,1501,1497,1248,1499,1000,0,0,0
1691757639354510,1503,1497,1246,1499,1000,0,0,0
1691757639358374,1499,1499,1253,1499,1000,0,0,0
1691757639361643,1501,1493,1250,1498,1000,0,0,0
1691757639364684,1502,1495,1247,1498,1000,0,0,0
1691757639368729,1503,1499,1245,1498,1000,0,0,0
1691757639373023,1502,1503,1246,1499,1000,0,0,0
1691757639375584,1502,1503,1245,1499,1000,0,0,0
1691757639379741,1503,1508,1241,1499,1000,0,0,0
1691757639382390,1503,1505,1244,1499,1000,0,0,0
1691757639386633,1503,1504,1245,1499,1000,0,0,0
1691757639390730,1500,1504,1246,1499,1000,0,0,0
1691757639394441,1498,1502,1249,1498,1000,0,0,0
1691757639397596,1500,1503,1248,1498,1000,0,0,0
1691757639400866,1499,1502,1246,1498,1000,0,0,0
1691757639404749,1501,1503,1246,1498,1000,0,0,0
1691757639408629,1502,1499,1240,1498,1000,0,0,0
1691757639411576,1503,1502,1242,1499,1000,0,0,0
1691757639415890,1505,1508,1243,1499,1000,0,0,0
1691757639419640,1500,1501,1248,1499,1000,0,0,0
1691757639425284,1501,1496,1251,1499,1000,0,0,0
1691757639428282,1501,1501,1247,1499,1000,0,0,0
1691757639431302,1503,1502,1247,1499,1000,0,0,0
1691757639434833,1502,1505,1249,1499,1000,0,0,0
1691757639443781,1501,1505,1248,1499,1000,0,0,0
1691757639443940,1501,1504,1248,1499,1000,0,0,0
1691757639444357,1501,1505,1249,1499,1000,0,0,0
1691757639447859,1501,1503,1248,1499,1000,0,0,0
1691757639452249,1501,1503,1247,1499,1000,0,0,0
1691757639455942,1499,1491,1254,1499,1000,0,0,0
1691757639460214,1497,1497,1251,1499,1000,0,0,0
1691757639463630,1499,1497,1240,1499,1000,0,0,0
1691757639466574,1502,1506,1241,1499,1000,0,0,0
1691757639469839,1502,1511,1243,1499,1000,0,0,0
1691757639474258,1495,1485,1259,1499,1000,0,0,0
1691757639480587,1500,1501,1250,1499,1000,0,0,0
1691757639480804,1501,1505,1248,1499,1000,0,0,0
1691757639484436,1501,1505,1250,1499,1000,0,0,0
1691757639488077,1500,1503,1250,1499,1000,0,0,0
1691757639495734,1498,1491,1255,1499,1000,0,0,0
1691757639497151,1500,1501,1246,1499,1000,0,0,0
1691757639503586,1498,1501,1251,1499,1000,0,0,0
1691757639503747,1500,1501,1247,1499,1000,0,0,0
1691757639506892,1497,1499,1242,1499,1000,0,0,0
1691757639509938,1500,1507,1244,1499,1000,0,0,0
1691757639513715,1502,1510,1245,1499,1000,0,0,0
1691757639517258,1510,1534,1240,1500,1000,0,0,0
1691757639520653,1497,1496,1256,1499,1000,0,0,0
1691757639524815,1496,1492,1257,1499,1000,0,0,0
1691757639529965,1496,1494,1254,1499,1000,0,0,0
1691757639532657,1496,1496,1252,1499,1000,0,0,0
1691757639535316,1498,1495,1254,1499,1000,0,0,0
1691757639539100,1496,1485,1257,1499,1000,0,0,0
1691757639542907,1498,1498,1250,1499,1000,0,0,0
1691757639546739,1499,1501,1249,1500,1000,0,0,0
1691757639551213,1496,1490,1252,1499,1000,0,0,0
1691757639553322,1500,1514,1241,1500,1000,0,0,0
1691757639557100,1496,1497,1254,1500,1000,0,0,0
1691757639560885,1497,1501,1252,1500,1000,0,0,0
1691757639564741,1495,1495,1257,1500,1000,0,0,0
1691757639568886,1497,1504,1250,1500,1000,0,0,0
1691757639572761,1498,1505,1250,1500,1000,0,0,0
1691757639575772,1498,1505,1252,1500,1000,0,0,0
1691757639580094,1498,1500,1254,1500,1000,0,0,0
1691757639582568,1499,1498,1254,1500,1000,0,0,0
1691757639589062,1499,1498,1253,1500,1000,0,0,0
1691757639590906,1496,1497,1254,1500,1000,0,0,0
1691757639593299,1499,1504,1247,1500,1000,0,0,0
1691757639597255,1510,1528,1243,1501,1000,0,0,0
1691757639600850,1496,1496,1259,1500,1000,0,0,0
1691757639605250,1494,1493,1259,1500,1000,0,0,0
1691757639608900,1495,1496,1257,1500,1000,0,0,0
1691757639612574,1496,1497,1257,1500,1000,0,0,0
1691757639616132,1493,1495,1257,1500,1000,0,0,0
1691757639618931,1496,1486,1253,1500,1000,0,0,0
1691757639623639,1499,1493,1254,1500,1000,0,0,0
1691757639626966,1495,1485,1261,1500,1000,0,0,0
1691757639630617,1497,1489,1259,1500,1000,0,0,0
1691757639633611,1498,1492,1258,1500,1000,0,0,0
1691757639637732,1497,1492,1254,1500,1000,0,0,0
1691757639641922,1494,1493,1259,1500,1000,0,0,0
1691757639646979,1498,1495,1257,1500,1000,0,0,0
1691757639649018,1500,1497,1255,1500,1000,0,0,0
1691757639652145,1499,1500,1253,1500,1000,0,0,0
1691757639655267,1496,1500,1250,1500,1000,0,0,0
1691757639659096,1503,1524,1240,1501,1000,0,0,0
1691757639662937,1514,1544,1239,1502,1000,0,0,0
1691757639666950,1499,1504,1263,1500,1000,0,0,0
1691757639669873,1498,1497,1261,1500,1000,0,0,0
1691757639674611,1498,1484,1263,1500,1000,0,0,0
1691757639678948,1499,1497,1255,1500,1000,0,0,0
1691757639680715,1498,1500,1255,1500,1000,0,0,0
1691757639685089,1499,1494,1257,1500,1000,0,0,0
1691757639689825,1500,1499,1255,1500,1000,0,0,0
1691757639692244,1501,1505,1255,1500,1000,0,0,0
1691757639698993,1499,1502,1260,1500,1000,0,0,0
1691757639699532,1498,1500,1257,1500,1000,0,0,0
1691757639702972,1501,1499,1257,1500,1000,0,0,0
1691757639710052,1502,1502,1256,1500,1000,0,0,0
1691757639712734,1503,1503,1259,1500,1000,0,0,0
1691757639714922,1503,1503,1258,1500,1000,0,0,0
1691757639717551,1501,1502,1257,1500,1000,0,0,0
1691757639720854,1498,1489,1265,1500,1000,0,0,0
1691757639725103,1504,1502,1255,1500,1000,0,0,0
1691757639728923,1504,1510,1250,1500,1000,0,0,0
1691757639732419,1500,1494,1263,1500,1000,0,0,0
1691757639735338,1501,1500,1262,1500,1000,0,0,0
1691757639739144,1500,1505,1261,1500,1000,0,0,0
1691757639742978,1498,1501,1262,1500,1000,0,0,0
1691757639747001,1505,1506,1250,1500,1000,0,0,0
1691757639750823,1506,1513,1251,1501,1000,0,0,0
1691757639753819,1500,1496,1267,1500,1000,0,0,0
1691757639757496,1499,1490,1269,1500,1000,0,0,0
1691757639761128,1503,1502,1260,1500,1000,0,0,0
1691757639765136,1503,1504,1260,1500,1000,0,0,0
1691757639769507,1502,1503,1258,1500,1000,0,0,0
1691757639773416,1506,1510,1251,1501,1000,0,0,0
1691757639775373,1502,1498,1263,1500,1000,0,0,0
1691757639779057,1501,1504,1260,1500,1000,0,0,0
1691757639782935,1502,1504,1260,1500,1000,0,0,0
1691757639786966,1503,1505,1259,1501,1000,0,0,0
1691757639789899,1502,1499,1256,1500,1000,0,0,0
1691757639794634,1500,1497,1261,1500,1000,0,0,0
1691757639798595,1502,1503,1259,1501,1000,0,0,0
1691757639801341,1504,1506,1260,1501,1000,0,0,0
1691757639805389,1503,1503,1260,1501,1000,0,0,0
1691757639814562,1506,1508,1252,1501,1000,0,0,0
1691757639814996,1502,1496,1265,1500,1000,0,0,0
1691757639816157,1503,1503,1263,1501,1000,0,0,0
1691757639819175,1503,1504,1259,1501,1000,0,0,0
1691757639822964,1501,1509,1257,1501,1000,0,0,0
1691757639829536,1505,1513,1250,1501,1000,0,0,0
1691757639830380,1512,1533,1246,1502,1000,0,0,0
1691757639833913,1500,1494,1267,1501,1000,0,0,0
1691757639837099,1502,1498,1262,1501,1000,0,0,0
1691757639841135,1502,1500,1260,1501,1000,0,0,0
1691757639845140,1502,1502,1258,1501,1000,0,0,0
1691757639850312,1502,1506,1252,1501,1000,0,0,0
1691757639857698,1508,1528,1247,1502,1000,0,0,0
1691757639858018,1501,1502,1265,1501,1000,0,0,0
1691757639859873,1498,1489,1268,1501,1000,0,0,0
1691757639866459,1500,1499,1259,1501,1000,0,0,0
1691757639866670,1499,1502,1258,1501,1000,0,0,0
1691757639870066,1502,1499,1258,1501,1000,0,0,0
1691757639874137,1501,1504,1258,1501,1000,0,0,0
1691757639877491,1501,1503,1257,1501,1000,0,0,0
1691757639881142,1502,1502,1254,1501,1000,0,0,0
1691757639884661,1509,1524,1246,1502,1000,0,0,0
1691757639888923,1500,1501,1260,1501,1000,0,0,0
1691757639893582,1500,1497,1262,1501,1000,0,0,0
1691757639895564,1501,1497,1261,1501,1000,0,0,0
1691757639899594,1499,1499,1258,1501,1000,0,0,0
1691757639903590,1499,1506,1252,1501,1000,0,0,0
1691757639908572,1504,1526,1250,1502,1000,0,0,0
1691757639909967,1499,1500,1263,1501,1000,0,0,0
1691757639914003,1499,1498,1262,1501,1000,0,0,0
1691757639917655,1497,1496,1262,1501,1000,0,0,0
1691757639921137,1501,1499,1255,1501,1000,0,0,0
1691757639925328,1499,1493,1262,1501,1000,0,0,0
1691757639930460,1499,1500,1258,1501,1000,0,0,0
1691757639931637,1501,1499,1259,1501,1000,0,0,0
1691757639935709,1501,1502,1258,1501,1000,0,0,0
1691757639941028,1503,1511,1250,1501,1000,0,0,0
1691757639943222,1498,1502,1260,1501,1000,0,0,0
1691757639947209,1499,1502,1260,1501,1000,0,0,0
1691757639949848,1497,1502,1262,1501,1000,0,0,0
1691757639953582,1500,1506,1252,1501,1000,0,0,0
1691757639957533,1502,1514,1248,1501,1000,0,0,0
1691757639961265,1499,1500,1261,1501,1000,0,0,0
1691757639965256,1500,1502,1261,1501,1000,0,0,0
1691757639968042,1500,1499,1262,1501,1000,0,0,0
1691757639972754,1498,1487,1264,1500,1000,0,0,0
1691757639977644,1500,1496,1254,1500,1000,0,0,0
1691757639981888,1499,1500,1259,1500,1000,0,0,0
1691757639983260,1497,1497,1262,1500,1000,0,0,0
1691757639986762,1500,1510,1254,1501,1000,0,0,0
1691757639989952,1500,1512,1252,1501,1000,0,0,0
1691757639993889,1502,1517,1247,1501,1000,0,0,0
1691757639997466,1498,1505,1259,1500,1000,0,0,0
1691757640001618,1499,1504,1258,1500,1000,0,0,0
1691757640005355,1498,1502,1259,1500,1000,0,0,0
1691757640014240,1499,1505,1252,1500,1000,0,0,0
1691757640014423,1500,1504,1255,1500,1000,0,0,0
1691757640015046,1500,1504,1256,1500,1000,0,0,0
1691757640019606,1501,1506,1257,1500,1000,0,0,0
1691757640023169,1497,1495,1266,1500,1000,0,0,0
1691757640026304,1498,1501,1262,1500,1000,0,0,0
1691757640030362,1499,1504,1262,1500,1000,0,0,0
1691757640034786,1497,1503,1263,1500,1000,0,0,0
1691757640038172,1499,1507,1252,1500,1000,0,0,0
1691757640040861,1497,1498,1262,1500,1000,0,0,0
1691757640044535,1498,1504,1261,1500,1000,0,0,0
1691757640048233,1499,1505,1260,1500,1000,0,0,0
1691757640053069,1497,1504,1260,1500,1000,0,0,0
1691757640056974,1501,1510,1254,1500,1000,0,0,0
1691757640059198,1499,1497,1264,1500,1000,0,0,0
1691757640066725,1499,1503,1260,1500,1000,0,0,0
1691757640066940,1499,1503,1261,1500,1000,0,0,0
1691757640070467,1499,1501,1263,1500,1000,0,0,0
1691757640074230,1500,1506,1255,1500,1000,0,0,0
1691757640077066,1496,1505,1262,1500,1000,0,0,0
1691757640081395,1498,1502,1261,1500,1000,0,0,0
1691757640085348,1500,1501,1263,1500,1000,0,0,0
1691757640088091,1498,1502,1261,1500,1000,0,0,0
1691757640091608,1498,1506,1254,1500,1000,0,0,0
1691757640095407,1505,1526,1249,1500,1000,0,0,0
1691757640102573,1499,1498,1267,1500,1000,0,0,0
1691757640103222,1496,1498,1266,1500,1000,0,0,0
1691757640109696,1497,1498,1264,1500,1000,0,0,0
1691757640109994,1498,1495,1263,1499,1000,0,0,0
1691757640117907,1498,1498,1260,1500,1000,0,0,0
1691757640118332,1497,1505,1255,1500,1000,0,0,0
1691757640121683,1504,1522,1252,1500,1000,0,0,0
1691757640125335,1498,1499,1267,1500,1000,0,0,0
1691757640128037,1497,1497,1267,1500,1000,0,0,0
1691757640131677,1496,1496,1262,1500,1000,0,0,0
1691757640135229,1496,1497,1264,1500,1000,0,0,0
1691757640139336,1499,1493,1265,1499,1000,0,0,0
1691757640143281,1499,1498,1264,1499,1000,0,0,0
1691757640147559,1499,1499,1263,1499,1000,0,0,0
1691757640149776,1499,1501,1262,1499,1000,0,0,0
1691757640153617,1498,1505,1258,1500,1000,0,0,0
1691757640157468,1496,1503,1262,1499,1000,0,0,0
1691757640161444,1498,1498,1264,1499,1000,0,0,0
1691757640165336,1500,1497,1266,1499,1000,0,0,0
1691757640168020,1499,1497,1264,1499,1000,0,0,0
1691757640171641,1500,1498,1258,1499,1000,0,0,0
1691757640175276,1505,1517,1256,1500,1000,0,0,0
1691757640179621,1499,1495,1268,1499,1000,0,0,0
1691757640183596,1497,1495,1269,1499,1000,0,0,0
1691757640189530,1495,1494,1269,1499,1000,0,0,0
1691757640189696,1500,1498,1259,1499,1000,0,0,0
1691757640193791,1501,1501,1260,1499,1000,0,0,0
1691757640200032,1497,1488,1270,1499,1000,0,0,0
1691757640201272,1498,1495,1265,1499,1000,0,0,0
1691757640205559,1499,1499,1264,1499,1000,0,0,0
1691757640208996,1498,1499,1259,1499,1000,0,0,0
1691757640216595,1497,1499,1265,1499,1000,0,0,0
1691757640216801,1498,1498,1262,1499,1000,0,0,0
1691757640219812,1500,1498,1263,1499,1000,0,0,0
1691757640223615,1500,1498,1262,1499,1000,0,0,0
1691757640226205,1501,1505,1255,1499,1000,0,0,0
1691757640230055,1498,1493,1265,1499,1000,0,0,0
1691757640233532,1499,1495,1267,1499,1000,0,0,0
1691757640237707,1499,1495,1265,1499,1000,0,0,0
1691757640240743,1499,1495,1262,1499,1000,0,0,0
1691757640244457,1504,1516,1253,1500,1000,0,0,0
1691757640248585,1499,1494,1266,1499,1000,0,0,0
1691757640252657,1497,1493,1266,1499,1000,0,0,0
1691757640256359,1496,1494,1263,1499,1000,0,0,0
1691757640258858,1505,1514,1251,1500,1000,0,0,0
1691757640262630,1499,1491,1263,1499,1000,0,0,0
1691757640266652,1497,1489,1264,1499,1000,0,0,0
1691757640270454,1496,1489,1264,1499,1000,0,0,0
1691757640274694,1502,1494,1252,1499,1000,0,0,0
1691757640277122,1498,1490,1260,1499,1000,0,0,0
1691757640285653,1497,1496,1261,1499,1000,0,0,0
1691757640286873,1498,1496,1261,1499,1000,0,0,0
1691757640288534,1508,1519,1246,1500,1000,0,0,0
1691757640293196,1499,1493,1263,1499,1000,0,0,0
1691757640297259,1498,1493,1265,1499,1000,0,0,0
1691757640298763,1499,1492,1262,1499,1000,0,0,0
1691757640302893,1499,1492,1262,1499,1000,0,0,0
1691757640306240,1499,1491,1256,1499,1000,0,0,0
1691757640309889,1498,1494,1258,1499,1000,0,0,0
1691757640316727,1501,1497,1252,1499,1000,0,0,0
1691757640317997,1507,1518,1249,1500,1000,0,0,0
1691757640322359,1498,1495,1265,1499,1000,0,0,0
1691757640324541,1499,1493,1263,1499,1000,0,0,0
1691757640328509,1501,1493,1258,1499,1000,0,0,0
1691757640332536,1501,1500,1253,1499,1000,0,0,0
1691757640335277,1496,1489,1263,1499,1000,0,0,0
1691757640339590,1498,1496,1263,1499,1000,0,0,0
1691757640343576,1501,1496,1263,1499,1000,0,0,0
1691757640351050,1500,1498,1263,1499,1000,0,0,0
1691757640351231,1501,1499,1259,1499,1000,0,0,0
1691757640353755,1505,1516,1252,1499,1000,0,0,0
1691757640357580,1499,1493,1266,1499,1000,0,0,0
1691757640361640,1498,1494,1264,1499,1000,0,0,0
1691757640367637,1498,1497,1262,1499,1000,0,0,0
1691757640368306,1500,1498,1258,1499,1000,0,0,0
1691757640372093,1500,1500,1258,1499,1000,0,0,0
1691757640375511,1500,1500,1254,1499,1000,0,0,0
1691757640379671,1504,1518,1251,1500,1000,0,0,0
1691757640383911,1498,1492,1264,1499,1000,0,0,0
1691757640386620,1499,1495,1263,1499,1000,0,0,0
1691757640389971,1498,1498,1262,1499,1000,0,0,0
1691757640393594,1500,1499,1260,1499,1000,0,0,0
1691757640398891,1501,1506,1255,1499,1000,0,0,0
1691757640401928,1505,1521,1253,1500,1000,0,0,0
1691757640405605,1497,1493,1269,1499,1000,0,0,0
1691757640407946,1498,1494,1270,1499,1000,0,0,0
1691757640412881,1499,1498,1265,1499,1000,0,0,0
1691757640415551,1499,1499,1262,1499,1000,0,0,0
1691757640419579,1498,1501,1261,1499,1000,0,0,0
1691757640422548,1500,1500,1260,1499,1000,0,0,0
1691757640426906,1506,1520,1252,1500,1000,0,0,0
1691757640430642,1498,1495,1264,1499,1000,0,0,0
1691757640434900,1498,1496,1267,1499,1000,0,0,0
1691757640437204,1498,1496,1262,1499,1000,0,0,0
1691757640442351,1499,1503,1258,1499,1000,0,0,0
1691757640444722,1506,1523,1255,1500,1000,0,0,0
1691757640448418,1498,1496,1270,1499,1000,0,0,0
1691757640452452,1496,1494,1266,1499,1000,0,0,0
1691757640457002,1497,1499,1264,1499,1000,0,0,0
1691757640459002,1499,1500,1266,1499,1000,0,0,0
1691757640462682,1500,1502,1262,1499,1000,0,0,0
1691757640466633,1498,1494,1269,1499,1000,0,0,0
1691757640473620,1499,1501,1263,1499,1000,0,0,0
1691757640474401,1500,1499,1265,1499,1000,0,0,0
1691757640477007,1502,1503,1258,1499,1000,0,0,0
1691757640480898,1498,1495,1268,1499,1000,0,0,0
1691757640484502,1499,1501,1260,1499,1000,0,0,0
1691757640488692,1501,1503,1260,1499,1000,0,0,0
1691757640493965,1500,1504,1259,1499,1000,0,0,0
1691757640497622,1505,1525,1253,1500,1000,0,0,0
1691757640498973,1498,1499,1265,1499,1000,0,0,0
1691757640502698,1499,1496,1266,1499,1000,0,0,0
1691757640506647,1498,1497,1264,1499,1000,0,0,0
1691757640510557,1500,1500,1260,1499,1000,0,0,0
1691757640515872,1507,1519,1254,1500,1000,0,0,0
1691757640517947,1498,1496,1265,1499,1000,0,0,0
1691757640522038,1497,1497,1263,1499,1000,0,0,0
1691757640525750,1499,1498,1262,1499,1000,0,0,0
1691757640528305,1500,1500,1257,1499,1000,0,0,0
1691757640531803,1506,1516,1255,1500,1000,0,0,0
1691757640535668,1504,1519,1257,1500,1000,0,0,0
1691757640540460,1496,1490,1263,1499,1000,0,0,0
1691757640543524,1497,1492,1262,1499,1000,0,0,0
1691757640546393,1497,1496,1261,1499,1000,0,0,0
1691757640549996,1497,1499,1261,1500,1000,0,0,0
1691757640555168,1501,1500,1258,1500,1000,0,0,0
1691757640557791,1507,1522,1253,1500,1000,0,0,0
1691757640560672,1499,1496,1267,1499,1000,0,0,0
1691757640564546,1499,1496,1264,1499,1000,0,0,0
1691757640567955,1500,1497,1262,1499,1000,0,0,0
1691757640571705,1500,1502,1259,1500,1000,0,0,0
1691757640575858,1506,1520,1254,1500,1000,0,0,0
1691757640579718,1498,1496,1265,1499,1000,0,0,0
1691757640583568,1499,1494,1265,1499,1000,0,0,0
1691757640586074,1499,1494,1264,1499,1000,0,0,0
1691757640589870,1499,1496,1259,1499,1000,0,0,0
1691757640596476,1500,1503,1256,1500,1000,0,0,0
1691757640597999,1501,1504,1255,1500,1000,0,0,0
1691757640600908,1506,1522,1253,1500,1000,0,0,0
1691757640604439,1498,1496,1266,1499,1000,0,0,0
1691757640608114,1499,1495,1266,1499,1000,0,0,0
1691757640613625,1498,1496,1263,1499,1000,0,0,0
1691757640615745,1500,1498,1260,1499,1000,0,0,0
1691757640619756,1501,1502,1260,1500,1000,0,0,0
1691757640622548,1501,1502,1262,1500,1000,0,0,0
1691757640626695,1505,1517,1260,1500,1000,0,0,0
1691757640631443,1500,1490,1271,1499,1000,0,0,0
1691757640634677,1500,1492,1266,1499,1000,0,0,0
1691757640637226,1500,1496,1265,1499,1000,0,0,0
1691757640640782,1499,1496,1262,1499,1000,0,0,0
1691757640644920,1502,1502,1258,1500,1000,0,0,0
1691757640648287,1506,1518,1258,1500,1000,0,0,0
1691757640652433,1506,1517,1261,1500,1000,0,0,0
1691757640656414,1498,1491,1268,1500,1000,0,0,0
1691757640659047,1498,1492,1269,1500,1000,0,0,0
1691757640662779,1498,1494,1267,1500,1000,0,0,0
1691757640666922,1500,1496,1263,1500,1000,0,0,0
1691757640671653,1505,1516,1259,1500,1000,0,0,0
1691757640673780,1501,1515,1270,1500,1000,0,0,0
1691757640677106,1498,1491,1267,1500,1000,0,0,0
1691757640681905,1500,1490,1267,1500,1000,0,0,0
1691757640684842,1501,1491,1265,1500,1000,0,0,0
1691757640689665,1508,1511,1262,1500,1000,0,0,0
1691757640701226,1500,1489,1270,1500,1000,0,0,0
1691757640701550,1497,1492,1265,1500,1000,0,0,0
1691757640702024,1500,1491,1265,1500,1000,0,0,0
1691757640702708,1499,1492,1266,1500,1000,0,0,0
1691757640708670,1502,1495,1262,1500,1000,0,0,0
1691757640710784,1508,1515,1259,1500,1000,0,0,0
1691757640714027,1499,1490,1272,1500,1000,0,0,0
1691757640717219,1499,1492,1268,1500,1000,0,0,0
1691757640720828,1500,1495,1263,1500,1000,0,0,0
1691757640724955,1502,1496,1265,1500,1000,0,0,0
1691757640731684,1509,1517,1258,1500,1000,0,0,0
1691757640731873,1501,1494,1268,1500,1000,0,0,0
1691757640735552,1499,1493,1264,1500,1000,0,0,0
1691757640738925,1501,1494,1264,1500,1000,0,0,0
1691757640742808,1508,1514,1258,1500,1000,0,0,0
1691757640746857,1501,1488,1268,1500,1000,0,0,0
1691757640751613,1499,1488,1264,1500,1000,0,0,0
1691757640755164,1499,1492,1267,1500,1000,0,0,0
1691757640757245,1501,1492,1258,1500,1000,0,0,0
1691757640763139,1502,1496,1260,1500,1000,0,0,0
1691757640764976,1508,1516,1256,1500,1000,0,0,0
1691757640769113,1499,1492,1268,1500,1000,0,0,0
1691757640771599,1499,1491,1264,1500,1000,0,0,0
1691757640775362,1500,1492,1265,1500,1000,0,0,0
1691757640778929,1504,1499,1259,1500,1000,0,0,0
1691757640783282,1501,1489,1266,1499,1000,0,0,0
1691757640786961,1500,1491,1262,1499,1000,0,0,0
1691757640790873,1501,1495,1261,1500,1000,0,0,0
1691757640794151,1503,1497,1260,1500,1000,0,0,0
1691757640797108,1502,1492,1264,1499,1000,0,0,0
1691757640800958,1501,1490,1258,1499,1000,0,0,0
1691757640804997,1502,1497,1266,1500,1000,0,0,0
1691757640810073,1502,1497,1258,1499,1000,0,0,0
1691757640814788,1503,1500,1257,1500,1000,0,0,0
1691757640817113,1509,1519,1253,1500,1000,0,0,0
1691757640818834,1499,1494,1266,1499,1000,0,0,0
1691757640823316,1500,1491,1262,1499,1000,0,0,0
1691757640827542,1500,1493,1262,1499,1000,0,0,0
1691757640832916,1499,1495,1261,1499,1000,0,0,0
1691757640834129,1503,1498,1256,1499,1000,0,0,0
1691757640837593,1510,1517,1257,1500,1000,0,0,0
1691757640841058,1501,1491,1266,1499,1000,0,0,0
1691757640844976,1499,1492,1263,1499,1000,0,0,0
1691757640848948,1501,1493,1264,1499,1000,0,0,0
1691757640852041,1502,1495,1259,1499,1000,0,0,0
1691757640855335,1506,1519,1251,1500,1000,0,0,0
1691757640859102,1499,1491,1266,1499,1000,0,0,0
1691757640863043,1499,1493,1262,1499,1000,0,0,0
1691757640867069,1500,1495,1259,1499,1000,0,0,0
1691757640869824,1500,1499,1261,1499,1000,0,0,0
1691757640874818,1501,1500,1256,1499,1000,0,0,0
1691757640878558,1503,1501,1256,1499,1000,0,0,0
1691757640880644,1509,1520,1254,1500,1000,0,0,0
1691757640885588,1500,1495,1269,1499,1000,0,0,0
1691757640888019,1501,1494,1267,1499,1000,0,0,0
1691757640892042,1502,1497,1264,1499,1000,0,0,0
1691757640896145,1500,1500,1263,1499,1000,0,0,0
1691757640899890,1502,1500,1259,1499,1000,0,0,0
1691757640902586,1503,1499,1258,1499,1000,0,0,0
1691757640906358,1502,1502,1260,1499,1000,0,0,0
1691757640911176,1508,1522,1253,1500,1000,0,0,0
1691757640914968,1499,1498,1266,1499,1000,0,0,0
1691757640921243,1498,1497,1266,1499,1000,0,0,0
1691757640921531,1497,1498,1262,1499,1000,0,0,0
1691757640925612,1501,1503,1257,1500,1000,0,0,0
1691757640930121,1509,1520,1252,1500,1000,0,0,0
1691757640934400,1498,1495,1265,1499,1000,0,0,0
1691757640935278,1497,1497,1267,1499,1000,0,0,0
1691757640939682,1500,1499,1267,1499,1000,0,0,0
1691757640943172,1500,1500,1262,1499,1000,0,0,0
1691757640947030,1507,1520,1252,1500,1000,0,0,0
1691757640949877,1498,1495,1267,1499,1000,0,0,0
1691757640954053,1499,1493,1266,1499,1000,0,0,0
1691757640957725,1498,1496,1264,1499,1000,0,0,0
1691757640961077,1499,1499,1261,1499,1000,0,0,0
1691757640967765,1506,1518,1256,1500,1000,0,0,0
1691757640968805,1497,1495,1264,1499,1000,0,0,0
1691757640971594,1497,1498,1262,1500,1000,0,0,0
1691757640975424,1497,1501,1262,1500,1000,0,0,0
1691757640979283,1503,1504,1253,1500,1000,0,0,0
1691757640983165,1498,1494,1265,1499,1000,0,0,0
1691757640987166,1498,1502,1261,1500,1000,0,0,0
1691757640990242,1499,1505,1260,1500,1000,0,0,0
1691757640993617,1502,1502,1259,1500,1000,0,0,0
1691757640997616,1507,1519,1253,1500,1000,0,0,0
1691757641001680,1496,1497,1265,1499,1000,0,0,0
1691757641005092,1497,1499,1261,1499,1000,0,0,0
1691757641009388,1499,1500,1259,1500,1000,0,0,0
1691757641018254,1499,1502,1256,1500,1000,0,0,0
1691757641018529,1504,1524,1251,1500,1000,0,0,0
1691757641018946,1497,1496,1263,1499,1000,0,0,0
1691757641028095,1497,1497,1261,1499,1000,0,0,0
1691757641028288,1498,1501,1258,1500,1000,0,0,0
1691757641029753,1498,1503,1253,1500,1000,0,0,0
1691757641033604,1498,1501,1260,1500,1000,0,0,0
1691757641037629,1499,1498,1259,1499,1000,0,0,0
1691757641041635,1498,1504,1257,1500,1000,0,0,0
1691757641045319,1499,1503,1255,1500,1000,0,0,0
1691757641048052,1508,1524,1250,1501,1000,0,0,0
1691757641052203,1497,1497,1263,1499,1000,0,0,0
1691757641056091,1496,1500,1259,1500,1000,0,0,0
1691757641059001,1498,1501,1258,1500,1000,0,0,0
1691757641064691,1500,1500,1256,1499,1000,0,0,0
1691757641066129,1499,1502,1252,1500,1000,0,0,0
1691757641070004,1498,1506,1256,1500,1000,0,0,0
1691757641074113,1506,1523,1252,1500,1000,0,0,0
1691757641078359,1498,1493,1260,1499,1000,0,0,0
1691757641081347,1496,1499,1257,1500,1000,0,0,0
1691757641085239,1497,1504,1259,1500,1000,0,0,0
1691757641088243,1499,1503,1252,1500,1000,0,0,0
1691757641092252,1506,1522,1252,1500,1000,0,0,0
1691757641096223,1503,1524,1253,1501,1000,0,0,0
1691757641098927,1494,1491,1264,1499,1000,0,0,0
1691757641102576,1495,1493,1262,1499,1000,0,0,0
1691757641106514,1496,1499,1261,1500,1000,0,0,0
1691757641111293,1495,1501,1262,1500,1000,0,0,0
1691757641114162,1499,1501,1256,1500,1000,0,0,0
1691757641121291,1500,1507,1256,1500,1000,0,0,0
1691757641121601,1504,1527,1251,1501,1000,0,0,0
1691757641124349,1497,1500,1264,1500,1000,0,0,0
1691757641128785,1497,1497,1265,1500,1000,0,0,0
1691757641132599,1498,1497,1258,1500,1000,0,0,0
1691757641139103,1504,1518,1254,1501,1000,0,0,0
1691757641139278,1498,1516,1265,1501,1000,0,0,0
1691757641142949,1494,1487,1264,1500,1000,0,0,0
1691757641146293,1495,1488,1263,1500,1000,0,0,0
1691757641150349,1496,1494,1262,1500,1000,0,0,0
1691757641154320,1499,1496,1263,1500,1000,0,0,0
1691757641157805,1504,1516,1256,1501,1000,0,0,0
1691757641163232,1496,1496,1268,1500,1000,0,0,0
1691757641172086,1498,1493,1268,1500,1000,0,0,0
1691757641172326,1499,1495,1263,1500,1000,0,0,0
1691757641172471,1506,1517,1254,1501,1000,0,0,0
1691757641177855,1496,1492,1266,1500,1000,0,0,0
1691757641179145,1496,1492,1265,1500,1000,0,0,0
1691757641183205,1497,1494,1264,1500,1000,0,0,0
1691757641189556,1502,1513,1260,1501,1000,0,0,0
1691757641190314,1495,1488,1265,1500,1000,0,0,0
1691757641195979,1497,1489,1262,1500,1000,0,0,0
1691757641197119,1498,1494,1262,1500,1000,0,0,0
1691757641201452,1498,1495,1262,1500,1000,0,0,0
1691757641205295,1498,1496,1260,1500,1000,0,0,0
1691757641209259,1507,1517,1251,1501,1000,0,0,0
1691757641212182,1497,1493,1263,1500,1000,0,0,0
1691757641217181,1496,1493,1265,1500,1000,0,0,0
1691757641219662,1498,1495,1262,1500,1000,0,0,0
1691757641223190,1496,1497,1264,1500,1000,0,0,0
1691757641226588,1496,1495,1262,1500,1000,0,0,0
1691757641230381,1497,1495,1259,1500,1000,0,0,0
1691757641234768,1498,1495,1259,1500,1000,0,0,0
1691757641240032,1504,1514,1256,1501,1000,0,0,0
1691757641240766,1497,1498,1264,1500,1000,0,0,0
1691757641244566,1496,1492,1262,1500,1000,0,0,0
1691757641248307,1497,1492,1260,1500,1000,0,0,0
1691757641252331,1507,1514,1253,1501,1000,0,0,0
1691757641256230,1498,1490,1263,1500,1000,0,0,0
1691757641259387,1496,1491,1267,1500,1000,0,0,0
1691757641262643,1498,1490,1262,1500,1000,0,0,0
1691757641266329,1506,1511,1254,1501,1000,0,0,0
1691757641270611,1497,1488,1264,1500,1000,0,0,0
1691757641274384,1496,1489,1266,1500,1000,0,0,0
1691757641277136,1497,1492,1261,1500,1000,0,0,0
1691757641282500,1497,1490,1265,1500,1000,0,0,0
1691757641284425,1499,1488,1261,1500,1000,0,0,0
1691757641288449,1497,1493,1258,1500,1000,0,0,0
1691757641292329,1497,1497,1260,1500,1000,0,0,0
1691757641296844,1505,1510,1257,1501,1000,0,0,0
1691757641298796,1497,1486,1264,1500,1000,0,0,0
1691757641302753,1496,1491,1259,1500,1000,0,0,0
1691757641306452,1497,1495,1261,1500,1000,0,0,0
1691757641310278,1506,1510,1256,1501,1000,0,0,0
1691757641314424,1497,1482,1265,1500,1000,0,0,0
1691757641317006,1496,1487,1265,1500,1000,0,0,0
1691757641320680,1499,1491,1262,1500,1000,0,0,0
1691757641324399,1500,1490,1262,1500,1000,0,0,0
1691757641328367,1500,1494,1258,1500,1000,0,0,0
1691757641333722,1506,1515,1252,1501,1000,0,0,0
1691757641335324,1497,1493,1267,1500,1000,0,0,0
1691757641339352,1498,1490,1267,1500,1000,0,0,0
1691757641343701,1503,1509,1258,1500,1000,0,0,0
1691757641346528,1494,1486,1265,1500,1000,0,0,0
1691757641350344,1497,1485,1260,1500,1000,0,0,0
1691757641354421,1499,1491,1262,1500,1000,0,0,0
1691757641356994,1502,1509,1260,1500,1000,0,0,0
1691757641361804,1496,1486,1266,1500,1000,0,0,0
1691757641364423,1497,1489,1264,1500,1000,0,0,0
1691757641368346,1498,1492,1260,1500,1000,0,0,0
1691757641373148,1511,1518,1198,1501,1000,0,0,0
1691757641375903,1500,1489,1208,1500,1000,0,0,0
1691757641379368,1501,1489,1204,1500,1000,0,0,0
1691757641383388,1503,1492,1201,1500,1000,0,0,0
1691757641386131,1511,1517,1192,1501,1000,0,0,0
1691757641389975,1500,1487,1202,1500,1000,0,0,0
1691757641393618,1501,1487,1201,1500,1000,0,0,0
1691757641397655,1502,1491,1202,1500,1000,0,0,0
1691757641401437,1501,1493,1200,1500,1000,0,0,0
1691757641404547,1502,1495,1199,1500,1000,0,0,0
1691757641408499,1502,1496,1202,1500,1000,0,0,0
1691757641412422,1502,1497,1206,1500,1000,0,0,0
1691757641415179,1501,1499,1205,1500,1000,0,0,0
1691757641423005,1502,1496,1209,1500,1000,0,0,0
1691757641423226,1502,1489,1213,1499,1000,0,0,0
1691757641426393,1512,1521,1204,1501,1000,0,0,0
1691757641430932,1504,1503,1216,1500,1000,0,0,0
1691757641434464,1501,1497,1220,1500,1000,0,0,0
1691757641439725,1501,1497,1217,1500,1000,0,0,0
1691757641440724,1501,1497,1220,1499,1000,0,0,0
1691757641448410,1500,1492,1223,1499,1000,0,0,0
1691757641449203,1503,1501,1221,1500,1000,0,0,0
1691757641452537,1501,1503,1226,1500,1000,0,0,0
1691757641455303,1500,1502,1226,1500,1000,0,0,0
1691757641459160,1500,1503,1230,1500,1000,0,0,0
1691757641462613,1500,1503,1231,1500,1000,0,0,0
1691757641466564,1500,1504,1233,1500,1000,0,0,0
1691757641470597,1500,1503,1233,1499,1000,0,0,0
1691757641473629,1500,1503,1235,1499,1000,0,0,0
1691757641477101,1499,1504,1238,1500,1000,0,0,0
1691757641480830,1500,1503,1239,1499,1000,0,0,0
1691757641484166,1499,1504,1241,1499,1000,0,0,0
1691757641488034,1499,1503,1242,1499,1000,0,0,0
1691757641491778,1499,1503,1243,1499,1000,0,0,0
1691757641495671,1499,1503,1244,1499,1000,0,0,0
1691757641499578,1499,1504,1245,1499,1000,0,0,0
1691757641502433,1499,1505,1246,1499,1000,0,0,0
1691757641506597,1499,1504,1246,1499,1000,0,0,0
1691757641510456,1498,1505,1247,1499,1000,0,0,0
1691757641514438,1501,1511,1246,1500,1000,0,0,0
1691757641517089,1502,1511,1246,1500,1000,0,0,0
1691757641520931,1498,1503,1249,1499,1000,0,0,0
1691757641524576,1498,1503,1250,1499,1000,0,0,0
1691757641530845,1497,1504,1250,1499,1000,0,0,0
1691757641532540,1497,1504,1251,1499,1000,0,0,0
1691757641535622,1497,1504,1251,1499,1000,0,0,0
1691757641539860,1497,1504,1251,1499,1000,0,0,0
1691757641542536,1499,1507,1252,1500,1000,0,0,0
1691757641547720,1501,1508,1251,1500,1000,0,0,0
1691757641552746,1498,1503,1253,1500,1000,0,0,0
1691757641553693,1497,1503,1254,1500,1000,0,0,0
1691757641557924,1497,1503,1254,1500,1000,0,0,0
1691757641561644,1499,1508,1255,1500,1000,0,0,0
1691757641564690,1500,1508,1255,1500,1000,0,0,0
1691757641568619,1499,1509,1256,1500,1000,0,0,0
1691757641571661,1497,1501,1256,1500,1000,0,0,0
1691757641575672,1498,1500,1258,1500,1000,0,0,0
1691757641579736,1498,1500,1258,1500,1000,0,0,0
1691757641583441,1499,1505,1258,1500,1000,0,0,0
1691757641586133,1500,1507,1258,1500,1000,0,0,0
1691757641589887,1498,1494,1262,1499,1000,0,0,0
1691757641596649,1497,1497,1260,1500,1000,0,0,0
1691757641597737,1497,1499,1259,1500,1000,0,0,0
1691757641602384,1497,1498,1260,1500,1000,0,0,0
1691757641604716,1500,1506,1260,1500,1000,0,0,0
1691757641608274,1497,1499,1261,1500,1000,0,0,0
1691757641611725,1497,1499,1262,1500,1000,0,0,0
1691757641615771,1497,1499,1260,1500,1000,0,0,0
1691757641620074,1496,1499,1260,1499,1000,0,0,0
1691757641622426,1496,1499,1260,1499,1000,0,0,0
1691757641626727,1497,1499,1261,1499,1000,0,0,0
1691757641630680,1499,1505,1261,1500,1000,0,0,0
1691757641634722,1499,1506,1259,1500,1000,0,0,0
1691757641637140,1497,1497,1261,1499,1000,0,0,0
1691757641640857,1497,1495,1261,1499,1000,0,0,0
1691757641644766,1497,1496,1262,1499,1000,0,0,0
1691757641649037,1499,1503,1259,1500,1000,0,0,0
1691757641652274,1496,1495,1261,1499,1000,0,0,0
1691757641656015,1497,1496,1260,1499,1000,0,0,0
1691757641659684,1497,1497,1260,1499,1000,0,0,0
1691757641663830,1498,1504,1258,1500,1000,0,0,0
1691757641666218,1496,1497,1260,1499,1000,0,0,0
1691757641669849,1497,1498,1258,1499,1000,0,0,0
1691757641673656,1497,1498,1258,1499,1000,0,0,0
1691757641678723,1499,1504,1257,1500,1000,0,0,0
1691757641681848,1497,1498,1258,1499,1000,0,0,0
1691757641684509,1497,1497,1257,1499,1000,0,0,0
1691757641689927,1497,1497,1257,1499,1000,0,0,0
1691757641693608,1499,1502,1256,1500,1000,0,0,0
1691757641695873,1497,1496,1259,1499,1000,0,0,0
1691757641699936,1498,1495,1258,1499,1000,0,0,0
1691757641703601,1498,1496,1257,1499,1000,0,0,0
1691757641706155,1498,1498,1256,1499,1000,0,0,0
1691757641709964,1498,1492,1259,1499,1000,0,0,0
1691757641714927,1498,1495,1257,1499,1000,0,0,0
1691757641717890,1498,1497,1257,1499,1000,0,0,0
1691757641720719,1498,1498,1256,1499,1000,0,0,0
1691757641725609,1498,1498,1256,1499,1000,0,0,0
1691757641728024,1498,1498,1256,1499,1000,0,0,0
1691757641732036,1498,1498,1256,1499,1000,0,0,0
1691757641735225,1498,1499,1255,1499,1000,0,0,0
1691757641739020,1500,1502,1255,1499,1000,0,0,0
1691757641742724,1499,1496,1256,1499,1000,0,0,0
1691757641746112,1499,1498,1255,1499,1000,0,0,0
1691757641749945,1499,1498,1256,1499,1000,0,0,0
1691757641753697,1499,1499,1255,1499,1000,0,0,0
1691757641757684,1501,1502,1255,1499,1000,0,0,0
1691757641760777,1500,1496,1256,1499,1000,0,0,0
1691757641765631,1499,1497,1255,1499,1000,0,0,0
1691757641768880,1500,1498,1256,1499,1000,0,0,0
1691757641772231,1501,1502,1255,1499,1000,0,0,0
1691757641776573,1501,1503,1255,1499,1000,0,0,0
1691757641780296,1500,1495,1256,1499,1000,0,0,0
1691757641782492,1499,1497,1255,1499,1000,0,0,0
1691757641786278,1500,1498,1255,1499,1000,0,0,0
1691757641790864,1500,1498,1255,1499,1000,0,0,0
1691757641795015,1501,1502,1255,1499,1000,0,0,0
1691757641797991,1503,1503,1254,1499,1000,0,0,0
1691757641800849,1501,1495,1257,1499,1000,0,0,0
1691757641804403,1500,1497,1256,1499,1000,0,0,0
1691757641808045,1501,1497,1256,1499,1000,0,0,0
1691757641811808,1501,1497,1257,1499,1000,0,0,0
1691757641820628,1502,1502,1256,1499,1000,0,0,0
1691757641820858,1500,1493,1258,1499,1000,0,0,0
1691757641822815,1500,1497,1257,1499,1000,0,0,0
1691757641826357,1501,1498,1256,1499,1000,0,0,0
1691757641829901,1500,1499,1256,1499,1000,0,0,0
1691757641835591,1502,1503,1256,1499,1000,0,0,0
1691757641839639,1501,1495,1258,1499,1000,0,0,0
1691757641841722,1501,1498,1257,1499,1000,0,0,0
1691757641844344,1501,1499,1257,1499,1000,0,0,0
1691757641848184,1501,1499,1256,1499,1000,0,0,0
1691757641853739,1503,1505,1257,1499,1000,0,0,0
1691757641856467,1501,1501,1257,1499,1000,0,0,0
1691757641859596,1501,1499,1258,1499,1000,0,0,0
1691757641862909,1501,1499,1257,1499,1000,0,0,0
1691757641866952,1501,1499,1257,1499,1000,0,0,0
1691757641870664,1504,1504,1256,1499,1000,0,0,0
1691757641873968,1502,1496,1259,1499,1000,0,0,0
1691757641879228,1501,1499,1258,1499,1000,0,0,0
1691757641881009,1501,1500,1258,1499,1000,0,0,0
1691757641884924,1501,1500,1257,1499,1000,0,0,0
1691757641889163,1503,1505,1256,1499,1000,0,0,0
1691757641891653,1502,1500,1257,1499,1000,0,0,0
1691757641899448,1501,1500,1257,1499,1000,0,0,0
1691757641899953,1501,1500,1257,1499,1000,0,0,0
1691757641902968,1503,1505,1257,1499,1000,0,0,0
1691757641907770,1502,1497,1258,1499,1000,0,0,0
1691757641910772,1502,1498,1258,1499,1000,0,0,0
1691757641913660,1501,1498,1258,1499,1000,0,0,0
1691757641918015,1501,1499,1257,1499,1000,0,0,0
1691757641921661,1503,1503,1256,1499,1000,0,0,0
1691757641925093,1502,1496,1258,1499,1000,0,0,0
1691757641929283,1501,1499,1257,1499,1000,0,0,0
1691757641932107,1501,1500,1257,1499,1000,0,0,0
1691757641935812,1503,1505,1257,1499,1000,0,0,0
1691757641939119,1504,1506,1256,1500,1000,0,0,0
1691757641943119,1501,1500,1256,1499,1000,0,0,0
1691757641946964,1500,1501,1256,1499,1000,0,0,0
1691757641951041,1501,1500,1257,1499,1000,0,0,0
1691757641954301,1502,1504,1257,1500,1000,0,0,0
1691757641958405,1503,1506,1256,1500,1000,0,0,0
1691757641960962,1501,1499,1257,1499,1000,0,0,0
1691757641964442,1501,1499,1257,1499,1000,0,0,0
1691757641969635,1501,1499,1257,1499,1000,0,0,0
1691757641973022,1502,1503,1256,1500,1000,0,0,0
1691757641977914,1501,1496,1258,1499,1000,0,0,0
1691757641980211,1501,1498,1257,1499,1000,0,0,0
1691757641983943,1500,1500,1256,1499,1000,0,0,0
1691757641987742,1500,1501,1256,1499,1000,0,0,0
1691757641990445,1502,1504,1256,1500,1000,0,0,0
1691757641994581,1502,1507,1257,1500,1000,0,0,0
1691757641998023,1500,1500,1257,1500,1000,0,0,0
1691757642000848,1500,1499,1257,1499,1000,0,0,0
1691757642004401,1501,1498,1257,1499,1000,0,0,0
1691757642010291,1501,1502,1256,1500,1000,0,0,0
1691757642013658,1500,1500,1256,1500,1000,0,0,0
1691757642016058,1500,1498,1257,1499,1000,0,0,0
1691757642019964,1500,1498,1257,1499,1000,0,0,0
1691757642022417,1499,1499,1257,1499,1000,0,0,0
1691757642026332,1501,1504,1257,1500,1000,0,0,0
1691757642030041,1500,1496,1259,1499,1000,0,0,0
1691757642035171,1499,1498,1257,1499,1000,0,0,0
1691757642038202,1499,1500,1256,1499,1000,0,0,0
1691757642040705,1499,1500,1256,1499,1000,0,0,0
1691757642045162,1502,1505,1256,1500,1000,0,0,0
1691757642047954,1500,1499,1258,1499,1000,0,0,0
1691757642051997,1499,1500,1257,1499,1000,0,0,0
1691757642057723,1499,1500,1257,1499,1000,0,0,0
1691757642058991,1501,1504,1257,1500,1000,0,0,0
1691757642065207,1501,1505,1256,1500,1000,0,0,0
1691757642066764,1499,1499,1257,1499,1000,0,0,0
1691757642069995,1498,1499,1257,1499,1000,0,0,0
1691757642074104,1499,1498,1257,1499,1000,0,0,0
1691757642077131,1500,1503,1257,1500,1000,0,0,0
1691757642081078,1500,1504,1256,1500,1000,0,0,0
1691757642085154,1499,1495,1258,1499,1000,0,0,0
1691757642089777,1498,1498,1257,1499,1000,0,0,0
1691757642091675,1498,1499,1258,1499,1000,0,0,0
1691757642095283,1499,1502,1257,1500,1000,0,0,0
1691757642099184,1500,1504,1257,1500,1000,0,0,0
1691757642103111,1498,1497,1258,1499,1000,0,0,0
1691757642107186,1497,1498,1257,1499,1000,0,0,0
1691757642109852,1497,1499,1257,1499,1000,0,0,0
1691757642113769,1497,1499,1257,1499,1000,0,0,0
1691757642117189,1499,1503,1256,1500,1000,0,0,0
1691757642121055,1498,1496,1258,1499,1000,0,0,0
1691757642125195,1497,1498,1258,1499,1000,0,0,0
1691757642128032,1497,1499,1258,1499,1000,0,0,0
1691757642131952,1497,1499,1257,1499,1000,0,0,0
1691757642136081,1499,1503,1257,1499,1000,0,0,0
1691757642139597,1498,1499,1258,1499,1000,0,0,0
1691757642142601,1497,1498,1258,1499,1000,0,0,0
1691757642146284,1497,1499,1258,1499,1000,0,0,0
1691757642150275,1499,1503,1258,1499,1000,0,0,0
1691757642154229,1499,1506,1259,1500,1000,0,0,0
1691757642158056,1497,1497,1259,1499,1000,0,0,0
1691757642160865,1497,1498,1258,1499,1000,0,0,0
1691757642164384,1497,1499,1258,1499,1000,0,0,0
1691757642169460,1498,1502,1258,1499,1000,0,0,0
1691757642173124,1499,1503,1257,1499,1000,0,0,0
1691757642176439,1497,1496,1258,1499,1000,0,0,0
1691757642178769,1496,1498,1258,1499,1000,0,0,0
1691757642182472,1497,1497,1258,1499,1000,0,0,0
1691757642186286,1497,1499,1257,1499,1000,0,0,0
1691757642190165,1499,1503,1257,1499,1000,0,0,0
1691757642194596,1497,1498,1258,1499,1000,0,0,0
1691757642198008,1497,1498,1258,1499,1000,0,0,0
1691757642200844,1497,1499,1257,1499,1000,0,0,0
1691757642204463,1498,1503,1257,1499,1000,0,0,0
1691757642208625,1497,1496,1258,1499,1000,0,0,0
1691757642213639,1497,1497,1257,1499,1000,0,0,0
1691757642216084,1496,1499,1257,1499,1000,0,0,0
1691757642219155,1497,1499,1257,1499,1000,0,0,0
1691757642224496,1499,1502,1256,1499,1000,0,0,0
1691757642226572,1497,1498,1257,1499,1000,0,0,0
1691757642230303,1497,1498,1257,1499,1000,0,0,0
1691757642234479,1497,1498,1257,1499,1000,0,0,0
1691757642237119,1498,1502,1257,1499,1000,0,0,0
1691757642241215,1498,1505,1257,1499,1000,0,0,0
1691757642245320,1497,1499,1257,1499,1000,0,0,0
1691757642247996,1497,1499,1257,1499,1000,0,0,0
1691757642252445,1497,1499,1257,1499,1000,0,0,0
1691757642255253,1498,1502,1256,1499,1000,0,0,0
1691757642259649,1499,1502,1255,1499,1000,0,0,0
1691757642263868,1498,1496,1256,1499,1000,0,0,0
1691757642268224,1497,1498,1256,1499,1000,0,0,0
1691757642269885,1497,1498,1256,1499,1000,0,0,0
1691757642273417,1498,1501,1256,1499,1000,0,0,0
1691757642277300,1500,1503,1255,1499,1000,0,0,0
1691757642281220,1498,1497,1256,1499,1000,0,0,0
1691757642286346,1497,1498,1256,1499,1000,0,0,0
1691757642288281,1498,1499,1256,1499,1000,0,0,0
1691757642295649,1498,1499,1256,1499,1000,0,0,0
1691757642295831,1500,1503,1255,1499,1000,0,0,0
1691757642299201,1498,1498,1256,1499,1000,0,0,0
1691757642303418,1498,1499,1256,1499,1000,0,0,0
1691757642307699,1498,1499,1256,1499,1000,0,0,0
1691757642309975,1499,1501,1255,1499,1000,0,0,0
1691757642313810,1501,1503,1255,1499,1000,0,0,0
1691757642321219,1499,1496,1256,1499,1000,0,0,0
1691757642321522,1498,1498,1255,1499,1000,0,0,0
1691757642325329,1498,1498,1255,1499,1000,0,0,0
1691757642327932,1498,1499,1255,1499,1000,0,0,0
1691757642332135,1500,1502,1255,1499,1000,0,0,0
1691757642335669,1502,1503,1254,1499,1000,0,0,0
1691757642339869,1499,1497,1255,1499,1000,0,0,0
1691757642342515,1499,1499,1255,1499,1000,0,0,0
1691757642346334,1499,1499,1255,1499,1000,0,0,0
1691757642351184,1499,1499,1255,1499,1000,0,0,0
1691757642354433,1501,1503,1254,1499,1000,0,0,0
1691757642356985,1501,1504,1255,1499,1000,0,0,0
1691757642364587,1500,1498,1255,1499,1000,0,0,0
1691757642364793,1499,1499,1255,1499,1000,0,0,0
1691757642368389,1499,1499,1255,1499,1000,0,0,0
1691757642372912,1500,1499,1255,1499,1000,0,0,0
1691757642375872,1502,1502,1254,1499,1000,0,0,0
1691757642378875,1503,1504,1253,1499,1000,0,0,0
1691757642382572,1501,1497,1255,1499,1000,0,0,0
1691757642386297,1500,1498,1255,1499,1000,0,0,0
1691757642390807,1499,1499,1255,1499,1000,0,0,0
1691757642394630,1499,1499,1255,1499,1000,0,0,0
1691757642396987,1502,1503,1255,1499,1000,0,0,0
1691757642400806,1500,1500,1255,1499,1000,0,0,0
1691757642404844,1499,1499,1255,1499,1000,0,0,0
1691757642408288,1500,1499,1255,1499,1000,0,0,0
1691757642414030,1500,1499,1256,1499,1000,0,0,0
1691757642415040,1500,1499,1255,1499,1000,0,0,0
1691757642419442,1504,1505,1255,1499,1000,0,0,0
1691757642422493,1501,1498,1256,1499,1000,0,0,0
1691757642426157,1500,1499,1256,1499,1000,0,0,0
1691757642429803,1500,1499,1256,1499,1000,0,0,0
1691757642433596,1500,1500,1256,1499,1000,0,0,0
1691757642443799,1504,1503,1255,1499,1000,0,0,0
1691757642444098,1503,1505,1256,1499,1000,0,0,0
1691757642444372,1501,1499,1256,1499,1000,0,0,0
1691757642448350,1501,1498,1256,1499,1000,0,0,0
1691757642452658,1501,1498,1256,1499,1000,0,0,0
1691757642455286,1500,1499,1256,1499,1000,0,0,0
1691757642460200,1503,1503,1256,1500,1000,0,0,0
1691757642464020,1502,1495,1257,1499,1000,0,0,0
1691757642466061,1501,1498,1256,1499,1000,0,0,0
1691757642470120,1500,1498,1256,1499,1000,0,0,0
1691757642473765,1501,1499,1256,1499,1000,0,0,0
1691757642478418,1504,1504,1256,1500,1000,0,0,0
1691757642481593,1505,1506,1256,1500,1000,0,0,0
1691757642485470,1501,1501,1256,1499,1000,0,0,0
1691757642488051,1501,1499,1256,1499,1000,0,0,0
1691757642493660,1500,1499,1256,1499,1000,0,0,0
1691757642495662,1501,1499,1256,1499,1000,0,0,0
1691757642499671,1501,1499,1256,1499,1000,0,0,0
1691757642503651,1505,1504,1256,1500,1000,0,0,0
1691757642506012,1506,1505,1256,1500,1000,0,0,0
1691757642513904,1502,1498,1257,1500,1000,0,0,0
1691757642514118,1501,1498,1257,1500,1000,0,0,0
1691757642517588,1501,1499,1257,1500,1000,0,0,0
1691757642521680,1501,1499,1257,1500,1000,0,0,0
1691757642525204,1504,1504,1256,1500,1000,0,0,0
1691757642530392,1502,1498,1257,1500,1000,0,0,0
1691757642533764,1501,1498,1257,1500,1000,0,0,0
1691757642535442,1501,1499,1257,1500,1000,0,0,0
1691757642539517,1501,1499,1257,1500,1000,0,0,0
1691757642546279,1504,1505,1257,1500,1000,0,0,0
1691757642546468,1506,1506,1256,1500,1000,0,0,0
1691757642549758,1502,1499,1257,1500,1000,0,0,0
1691757642553941,1500,1499,1256,1500,1000,0,0,0
1691757642557683,1501,1499,1257,1500,1000,0,0,0
1691757642562144,1501,1499,1257,1500,1000,0,0,0
1691757642565416,1504,1504,1256,1500,1000,0,0,0
1691757642568232,1502,1497,1258,1500,1000,0,0,0
1691757642571915,1501,1498,1257,1500,1000,0,0,0
1691757642576563,1501,1499,1257,1500,1000,0,0,0
1691757642579615,1500,1499,1256,1500,1000,0,0,0
1691757642582449,1504,1505,1256,1500,1000,0,0,0
1691757642586346,1501,1498,1257,1500,1000,0,0,0
1691757642593490,1500,1499,1256,1500,1000,0,0,0
1691757642594333,1500,1500,1256,1500,1000,0,0,0
1691757642597052,1501,1500,1257,1500,1000,0,0,0
1691757642601872,1504,1505,1256,1500,1000,0,0,0
1691757642604610,1504,1507,1256,1500,1000,0,0,0
1691757642608693,1501,1499,1257,1500,1000,0,0,0
1691757642614124,1501,1499,1256,1500,1000,0,0,0
1691757642615279,1501,1499,1256,1500,1000,0,0,0
1691757642619034,1500,1499,1256,1500,1000,0,0,0
1691757642622668,1504,1504,1256,1500,1000,0,0,0
1691757642626653,1505,1506,1256,1500,1000,0,0,0
1691757642630870,1501,1500,1256,1500,1000,0,0,0
1691757642633875,1500,1499,1256,1500,1000,0,0,0
1691757642637589,1500,1499,1256,1500,1000,0,0,0
1691757642640950,1499,1500,1256,1500,1000,0,0,0
1691757642644379,1502,1505,1256,1500,1000,0,0,0
1691757642648273,1504,1506,1255,1500,1000,0,0,0
1691757642652693,1500,1499,1256,1500,1000,0,0,0
1691757642655659,1499,1499,1256,1500,1000,0,0,0
1691757642659656,1499,1499,1256,1500,1000,0,0,0
1691757642663890,1499,1499,1256,1500,1000,0,0,0
1691757642666322,1502,1504,1256,1500,1000,0,0,0
1691757642670426,1499,1497,1257,1500,1000,0,0,0
1691757642673682,1499,1498,1256,1500,1000,0,0,0
1691757642677836,1499,1498,1257,1500,1000,0,0,0
1691757642681889,1499,1498,1257,1500,1000,0,0,0
1691757642684332,1501,1502,1257,1500,1000,0,0,0
1691757642688411,1503,1505,1256,1500,1000,0,0,0
1691757642691684,1499,1499,1257,1500,1000,0,0,0
1691757642695933,1498,1498,1256,1500,1000,0,0,0
1691757642699924,1498,1498,1256,1500,1000,0,0,0
1691757642704698,1498,1499,1256,1500,1000,0,0,0
1691757642706605,1501,1503,1255,1500,1000,0,0,0
1691757642709840,1498,1498,1256,1500,1000,0,0,0
1691757642714701,1497,1498,1256,1500,1000,0,0,0
1691757642717947,1498,1498,1257,1500,1000,0,0,0
1691757642721954,1500,1502,1257,1500,1000,0,0,0
1691757642724387,1501,1504,1256,1500,1000,0,0,0
1691757642727913,1498,1498,1257,1500,1000,0,0,0
1691757642732347,1497,1498,1257,1500,1000,0,0,0
1691757642735759,1497,1498,1257,1500,1000,0,0,0
1691757642739927,1499,1501,1257,1500,1000,0,0,0
1691757642743454,1500,1502,1256,1500,1000,0,0,0
1691757642746124,1498,1495,1258,1500,1000,0,0,0
1691757642749916,1497,1497,1257,1500,1000,0,0,0
1691757642753979,1497,1498,1256,1500,1000,0,0,0
1691757642757760,1497,1498,1256,1500,1000,0,0,0
1691757642762110,1499,1502,1256,1500,1000,0,0,0
1691757642764468,1497,1496,1256,1500,1000,0,0,0
1691757642768090,1497,1497,1256,1500,1000,0,0,0
1691757642773417,1497,1498,1256,1500,1000,0,0,0
1691757642775874,1498,1501,1256,1500,1000,0,0,0
1691757642780184,1500,1503,1255,1500,1000,0,0,0
1691757642783647,1497,1496,1256,1500,1000,0,0,0
1691757642786164,1497,1496,1256,1500,1000,0,0,0
1691757642790252,1497,1497,1256,1500,1000,0,0,0
1691757642795348,1497,1497,1256,1500,1000,0,0,0
1691757642801215,1497,1497,1256,1500,1000,0,0,0
1691757642801959,1499,1501,1255,1500,1000,0,0,0
1691757642804269,1500,1504,1254,1500,1000,0,0,0
1691757642808428,1498,1497,1255,1500,1000,0,0,0
1691757642815974,1497,1497,1256,1500,1000,0,0,0
1691757642816228,1497,1497,1256,1500,1000,0,0,0
1691757642819760,1498,1501,1255,1500,1000,0,0,0
1691757642822689,1500,1502,1255,1500,1000,0,0,0
1691757642826198,1498,1495,1256,1500,1000,0,0,0
1691757642829959,1497,1497,1256,1500,1000,0,0,0
1691757642834824,1497,1497,1256,1500,1000,0,0,0
1691757642837897,1497,1497,1256,1500,1000,0,0,0
1691757642841870,1497,1498,1256,1500,1000,0,0,0
1691757642845832,1498,1502,1256,1500,1000,0,0,0
1691757642848102,1498,1496,1256,1500,1000,0,0,0
1691757642854410,1497,1496,1256,1500,1000,0,0,0
1691757642855802,1497,1497,1256,1500,1000,0,0,0
1691757642859925,1498,1499,1256,1500,1000,0,0,0
1691757642864839,1500,1501,1255,1500,1000,0,0,0
1691757642866000,1498,1494,1256,1500,1000,0,0,0
1691757642871030,1497,1495,1256,1500,1000,0,0,0
1691757642873910,1497,1496,1256,1500,1000,0,0,0
1691757642881995,1497,1496,1256,1500,1000,0,0,0
1691757642882550,1499,1499,1256,1500,1000,0,0,0
1691757642884385,1498,1501,1257,1500,1000,0,0,0
1691757642888053,1498,1495,1257,1500,1000,0,0,0
1691757642891885,1498,1495,1257,1500,1000,0,0,0
1691757642895784,1498,1496,1257,1500,1000,0,0,0
1691757642901183,1498,1497,1256,1500,1000,0,0,0
1691757642902454,1500,1501,1256,1500,1000,0,0,0
1691757642906410,1499,1495,1257,1500,1000,0,0,0
1691757642909812,1498,1496,1257,1500,1000,0,0,0
1691757642914976,1498,1496,1257,1500,1000,0,0,0
1691757642917952,1499,1500,1257,1500,1000,0,0,0
1691757642920773,1500,1501,1256,1500,1000,0,0,0
1691757642925066,1498,1498,1256,1500,1000,0,0,0
1691757642928971,1498,1496,1257,1500,1000,0,0,0
1691757642931910,1499,1496,1257,1500,1000,0,0,0
1691757642936006,1499,1497,1257,1500,1000,0,0,0
1691757642940074,1499,1497,1257,1500,1000,0,0,0
1691757642943995,1501,1501,1257,1500,1000,0,0,0
1691757642946273,1500,1493,1259,1499,1000,0,0,0
1691757642950019,1499,1495,1258,1499,1000,0,0,0
1691757642953904,1500,1496,1258,1499,1000,0,0,0
1691757642958881,1500,1496,1258,1499,1000,0,0,0
1691757642960718,1502,1500,1257,1500,1000,0,0,0
1691757642965020,1500,1494,1259,1499,1000,0,0,0
1691757642969286,1500,1496,1258,1499,1000,0,0,0
1691757642974902,1500,1497,1258,1499,1000,0,0,0
1691757642975416,1499,1498,1258,1500,1000,0,0,0
1691757642978836,1501,1503,1257,1500,1000,0,0,0
1691757642982980,1503,1505,1257,1500,1000,0,0,0
1691757642987610,1501,1499,1258,1500,1000,0,0,0
1691757642990692,1500,1498,1258,1500,1000,0,0,0
1691757642994198,1500,1499,1258,1500,1000,0,0,0
1691757642997023,1502,1502,1258,1500,1000,0,0,0
1691757643001656,1503,1504,1257,1500,1000,0,0,0
1691757643004911,1500,1498,1258,1500,1000,0,0,0
1691757643009073,1500,1499,1258,1500,1000,0,0,0
1691757643011733,1501,1498,1258,1500,1000,0,0,0
1691757643015233,1500,1499,1258,1500,1000,0,0,0
1691757643019016,1503,1504,1257,1500,1000,0,0,0
1691757643023001,1501,1497,1258,1500,1000,0,0,0
1691757643026986,1500,1499,1257,1500,1000,0,0,0
1691757643029992,1500,1499,1257,1500,1000,0,0,0
1691757643033991,1500,1499,1257,1500,1000,0,0,0
1691757643037980,1504,1503,1257,1500,1000,0,0,0
1691757643041098,1502,1498,1258,1500,1000,0,0,0
1691757643044365,1501,1499,1258,1500,1000,0,0,0
1691757643048209,1501,1499,1258,1500,1000,0,0,0
1691757643054680,1501,1500,1258,1500,1000,0,0,0
1691757643055819,1504,1505,1257,1500,1000,0,0,0
1691757643060155,1502,1499,1258,1500,1000,0,0,0
1691757643064474,1501,1500,1258,1500,1000,0,0,0
1691757643066242,1502,1500,1258,1500,1000,0,0,0
1691757643070110,1501,1500,1257,1500,1000,0,0,0
1691757643074599,1505,1506,1256,1500,1000,0,0,0
1691757643078059,1502,1499,1257,1500,1000,0,0,0
1691757643080664,1501,1500,1257,1500,1000,0,0,0
1691757643085670,1501,1501,1257,1500,1000,0,0,0
1691757643087871,1504,1505,1257,1500,1000,0,0,0
1691757643091940,1506,1507,1256,1500,1000,0,0,0
1691757643097723,1502,1500,1257,1500,1000,0,0,0
1691757643099091,1501,1500,1257,1500,1000,0,0,0
1691757643103703,1501,1500,1257,1500,1000,0,0,0
1691757643107998,1501,1501,1257,1500,1000,0,0,0
1691757643109928,1505,1507,1257,1500,1000,0,0,0
1691757643113932,1503,1507,1257,1500,1000,0,0,0
1691757643118387,1501,1500,1257,1500,1000,0,0,0
1691757643120976,1501,1500,1257,1500,1000,0,0,0
1691757643125020,1501,1500,1257,1500,1000,0,0,0
1691757643128845,1503,1503,1257,1500,1000,0,0,0
1691757643133240,1501,1501,1257,1500,1000,0,0,0
1691757643135311,1501,1499,1257,1500,1000,0,0,0
1691757643138811,1501,1499,1257,1500,1000,0,0,0
1691757643143268,1501,1499,1257,1500,1000,0,0,0
1691757643147059,1505,1505,1257,1500,1000,0,0,0
1691757643150738,1502,1499,1258,1500,1000,0,0,0
1691757643153321,1500,1499,1257,1500,1000,0,0,0
1691757643157628,1500,1500,1257,1500,1000,0,0,0
1691757643161085,1504,1505,1257,1500,1000,0,0,0
1691757643165016,1505,1506,1256,1500,1000,0,0,0
1691757643168989,1501,1499,1257,1500,1000,0,0,0
1691757643171713,1499,1499,1257,1500,1000,0,0,0
1691757643175356,1500,1499,1257,1500,1000,0,0,0
1691757643181286,1501,1503,1257,1500,1000,0,0,0
1691757643183147,1502,1505,1256,1500,1000,0,0,0
1691757643189776,1499,1499,1257,1500,1000,0,0,0
1691757643189961,1499,1499,1257,1500,1000,0,0,0
1691757643194119,1499,1498,1257,1500,1000,0,0,0
1691757643196960,1501,1503,1257,1500,1000,0,0,0
1691757643201081,1501,1506,1258,1500,1000,0,0,0
1691757643205064,1499,1499,1257,1500,1000,0,0,0
1691757643208763,1498,1498,1257,1500,1000,0,0,0
1691757643213067,1498,1498,1257,1500,1000,0,0,0
1691757643216809,1501,1502,1257,1500,1000,0,0,0
1691757643218953,1499,1495,1258,1500,1000,0,0,0
1691757643222778,1498,1497,1257,1500,1000,0,0,0
1691757643226151,1498,1497,1257,1500,1000,0,0,0
1691757643231493,1497,1498,1257,1500,1000,0,0,0
1691757643233704,1500,1502,1257,1500,1000,0,0,0
1691757643237332,1498,1497,1257,1500,1000,0,0,0
1691757643241178,1497,1497,1257,1500,1000,0,0,0
1691757643245208,1497,1497,1257,1500,1000,0,0,0
1691757643247933,1499,1502,1257,1500,1000,0,0,0
1691757643253488,1500,1503,1256,1500,1000,0,0,0
1691757643256053,1498,1497,1257,1500,1000,0,0,0
1691757643258972,1497,1497,1257,1500,1000,0,0,0
1691757643262514,1497,1497,1257,1500,1000,0,0,0
1691757643266348,1498,1500,1257,1500,1000,0,0,0
1691757643270254,1500,1501,1257,1500,1000,0,0,0
1691757643274407,1497,1496,1258,1500,1000,0,0,0
1691757643278074,1496,1497,1257,1500,1000,0,0,0
1691757643280598,1496,1497,1257,1500,1000,0,0,0
1691757643284400,1498,1500,1257,1500,1000,0,0,0
1691757643288224,1499,1502,1257,1500,1000,0,0,0
1691757643292549,1496,1497,1257,1500,1000,0,0,0
1691757643299700,1496,1497,1257,1500,1000,0,0,0
1691757643299903,1496,1497,1257,1500,1000,0,0,0
1691757643302753,1497,1501,1257,1500,1000,0,0,0
1691757643307083,1496,1498,1257,1500,1000,0,0,0
1691757643310420,1496,1497,1257,1499,1000,0,0,0
1691757643314986,1496,1497,1257,1499,1000,0,0,0
1691757643318675,1496,1497,1257,1499,1000,0,0,0
1691757643321143,1497,1500,1257,1500,1000,0,0,0
1691757643326626,1499,1502,1256,1500,1000,0,0,0
1691757643327983,1497,1497,1257,1499,1000,0,0,0
1691757643331629,1496,1497,1257,1499,1000,0,0,0
1691757643335341,1496,1497,1257,1499,1000,0,0,0
1691757643339638,1498,1500,1257,1499,1000,0,0,0
1691757643343315,1496,1494,1258,1499,1000,0,0,0
1691757643347140,1496,1496,1257,1499,1000,0,0,0
1691757643349655,1496,1497,1257,1499,1000,0,0,0
1691757643353435,1496,1497,1257,1499,1000,0,0,0
1691757643357730,1498,1501,1256,1499,1000,0,0,0
1691757643361212,1497,1496,1257,1499,1000,0,0,0
1691757643365255,1496,1497,1257,1499,1000,0,0,0
1691757643369773,1497,1497,1257,1499,1000,0,0,0
1691757643371664,1498,1500,1257,1499,1000,0,0,0
1691757643375255,1498,1501,1256,1499,1000,0,0,0
1691757643379711,1497,1494,1257,1499,1000,0,0,0
1691757643383671,1497,1496,1257,1499,1000,0,0,0
1691757643386017,1497,1497,1257,1499,1000,0,0,0
1691757643390290,1497,1497,1257,1499,1000,0,0,0
1691757643395835,1497,1498,1257,1499,1000,0,0,0
1691757643396988,1499,1501,1256,1499,1000,0,0,0
1691757643400720,1497,1495,1257,1499,1000,0,0,0
1691757643404293,1497,1497,1257,1499,1000,0,0,0
1691757643408273,1497,1498,1257,1499,1000,0,0,0
1691757643412053,1497,1498,1257,1499,1000,0,0,0
1691757643415968,1499,1502,1257,1499,1000,0,0,0
1691757643419172,1500,1504,1256,1499,1000,0,0,0
1691757643423354,1498,1499,1257,1499,1000,0,0,0
1691757643426072,1498,1499,1257,1499,1000,0,0,0
1691757643429899,1498,1499,1257,1499,1000,0,0,0
1691757643433393,1498,1498,1257,1499,1000,0,0,0
1691757643439345,1500,1502,1257,1499,1000,0,0,0
1691757643441031,1501,1503,1257,1499,1000,0,0,0
1691757643445308,1499,1498,1258,1499,1000,0,0,0
1691757643447902,1499,1498,1258,1499,1000,0,0,0
1691757643452199,1499,1498,1257,1499,1000,0,0,0
1691757643455282,1500,1502,1257,1499,1000,0,0,0
1691757643459326,1501,1503,1257,1499,1000,0,0,0
1691757643463633,1499,1497,1258,1499,1000,0,0,0
1691757643466006,1499,1498,1258,1499,1000,0,0,0
1691757643470381,1499,1498,1258,1499,1000,0,0,0
1691757643474344,1499,1498,1258,1499,1000,0,0,0
1691757643477166,1501,1501,1257,1499,1000,0,0,0
1691757643480730,1500,1505,1259,1499,1000,0,0,0
1691757643484333,1500,1499,1258,1499,1000,0,0,0
1691757643490117,1500,1498,1258,1499,1000,0,0,0
1691757643492157,1499,1499,1258,1499,1000,0,0,0
1691757643496499,1501,1503,1258,1499,1000,0,0,0
1691757643498905,1501,1505,1259,1499,1000,0,0,0
1691757643502617,1500,1499,1258,1499,1000,0,0,0
1691757643506330,1500,1499,1258,1499,1000,0,0,0
1691757643510544,1499,1499,1257,1499,1000,0,0,0
1691757643513532,1500,1499,1257,1499,1000,0,0,0
1691757643517782,1503,1504,1256,1499,1000,0,0,0
1691757643520627,1500,1499,1257,1499,1000,0,0,0
1691757643525338,1500,1499,1257,1499,1000,0,0,0
1691757643528286,1500,1499,1257,1499,1000,0,0,0
1691757643532505,1502,1503,1257,1499,1000,0,0,0
1691757643535505,1500,1500,1257,1499,1000,0,0,0
1691757643539067,1501,1499,1257,1499,1000,0,0,0
1691757643543359,1500,1499,1257,1499,1000,0,0,0
1691757643545999,1500,1499,1257,1499,1000,0,0,0
