timestamp,roll,pitch,yaw,norm_thrust
1691757638961232,0.00000000,0.00000000,0.00000000,0.00000000
1691757638971244,0.00000000,0.00000000,0.00000000,0.00000000
1691757638981229,0.00000000,0.00000000,0.00000000,0.00000000
1691757638991233,0.00000000,0.00000000,0.00000000,0.00000000
1691757639001272,0.00000000,0.00000000,0.00000000,0.00000000
1691757639011237,0.00000000,0.00000000,0.00000000,0.00000000
1691757639021257,0.00000000,0.00000000,0.00000000,0.00000000
1691757639033480,-0.01750839,-0.35832605,-0.16150931,11.27997971
1691757639037512,-0.03279720,-0.40216053,-0.16052802,11.33246231
1691757639041206,-0.02178031,-0.36933741,-0.16048902,11.28877354
1691757639045238,-0.01934822,-0.36065465,-0.16087003,11.32725906
1691757639047909,-0.01850433,-0.35806808,-0.16115174,11.32445145
1691757639051820,-0.00306478,-0.30291337,-0.16183998,11.30355072
1691757639055277,-0.01803236,-0.35605419,-0.16185077,11.36066341
1691757639059182,-0.01886157,-0.35826263,-0.16221604,11.36546803
1691757639064628,-0.01899447,-0.35925117,-0.16242531,11.40685654
1691757639066034,-0.01215930,-0.39157748,-0.16062845,11.41635609
1691757639070282,-0.01801409,-0.36327952,-0.16121568,11.40765095
1691757639074198,-0.02208332,-0.36459985,-0.16142255,11.44828224
1691757639078620,-0.01959124,-0.36388874,-0.16139045,11.45080280
1691757639084653,-0.02494938,-0.38322416,-0.16131324,11.49665356
1691757639084926,-0.03313931,-0.40326586,-0.15868652,11.51722431
1691757639090615,-0.02229211,-0.37018880,-0.15829809,11.49725628
1691757639093966,-0.01836396,-0.35794681,-0.15789561,11.52877140
1691757639096308,-0.02108575,-0.35056823,-0.15754348,11.52211857
1691757639098872,-0.02052001,-0.35405588,-0.15575819,11.52022648
1691757639102892,-0.01875501,-0.36290011,-0.14766392,11.58446312
1691757639106265,-0.01625321,-0.33204424,-0.14477229,11.55803299
1691757639110360,-0.02135587,-0.29765281,-0.14202335,11.50758362
1691757639114370,-0.02100108,-0.35121584,-0.13000749,11.61960316
1691757639117310,-0.01295279,-0.29249632,-0.12623657,11.55406094
1691757639120826,-0.01655150,-0.26813036,-0.12192776,11.50834179
1691757639126010,-0.01321874,-0.18143262,-0.11876123,11.33254337
1691757639129829,-0.01122444,-0.24467710,-0.11336931,11.43798733
1691757639133097,-0.00910943,-0.24410948,-0.10810190,11.36526203
1691757639136166,-0.00696144,-0.13598593,-0.10591803,11.06792164
1691757639139404,-0.00919154,-0.20976558,-0.09936224,11.09644508
1691757639142470,-0.02467881,-0.27007362,-0.09259851,10.93592739
1691757639146353,-0.02376803,-0.27048960,-0.08629176,10.94533634
1691757639150302,0.01597239,-0.17643325,-0.08126616,10.70792866
1691757639155384,0.00528170,-0.16276233,-0.07705685,10.59134865
1691757639157602,0.01235142,-0.10876437,-0.07380705,10.30441284
1691757639160765,0.00302149,-0.23440133,-0.06685851,10.60281277
1691757639164444,0.02427878,-0.13903058,-0.06324958,10.36765194
1691757639168414,-0.00757001,-0.17314680,-0.05826256,10.35643101
1691757639173338,-0.02949833,-0.16719212,-0.05341887,10.25589752
1691757639176187,0.02085922,-0.18990591,-0.04851724,10.13146019
1691757639179087,0.04419767,-0.11179183,-0.04551850,10.02657413
1691757639182586,0.04604690,-0.03604204,-0.04286380,9.74137402
1691757639194717,-0.00674388,-0.12082558,-0.03776691,10.09837055
1691757639194860,0.05081666,-0.09698346,-0.03414850,9.69083595
1691757639194997,0.05804511,0.03449488,-0.03355401,9.55550480
1691757639197277,0.05955173,0.05446626,-0.03148254,9.60002613
1691757639200757,0.10745984,0.02613148,-0.02985051,9.82059479
1691757639204573,0.08791023,-0.00329336,-0.02765389,9.73923397
1691757639208534,0.06334344,-0.00076808,-0.02605610,9.69279861
1691757639213216,0.04313198,-0.04330359,-0.02400988,9.73340416
1691757639215316,0.04154007,-0.09344932,-0.02179916,9.91058731
1691757639219418,0.02573535,-0.08811638,-0.02034496,9.86292934
1691757639224654,0.02692962,-0.08463094,-0.01877510,9.78531075
1691757639226245,0.03284278,-0.09013575,-0.01725564,9.77742386
1691757639229935,0.03440452,-0.05769420,-0.01620851,9.66983795
1691757639233319,0.03581383,-0.01382732,-0.01560323,9.73826599
1691757639239528,0.09769084,0.02570950,-0.01550358,9.67384529
1691757639241274,-0.01896675,-0.20676999,-0.01155847,10.09293747
1691757639245673,0.01436472,-0.11201086,-0.01051933,9.91187954
1691757639249217,0.02292674,-0.06657732,-0.00951593,9.75326538
1691757639253348,0.02911246,-0.03573856,-0.00851673,9.82379627
1691757639255846,0.01988819,-0.01101758,-0.00756481,9.77231121
1691757639264861,0.05529293,-0.02296869,-0.00611431,9.71655846
1691757639265046,0.04456557,-0.02018491,-0.00472939,9.72392082
1691757639266399,0.02586130,-0.00965682,-0.00378778,9.74646854
1691757639269788,-0.00290999,-0.03460618,-0.00234132,9.83219719
1691757639273452,0.03663095,-0.02787236,-0.00084567,9.66130924
1691757639277708,0.00273997,-0.02692688,0.00044318,9.81113815
1691757639283200,0.03136767,-0.00318596,0.00123729,9.73409176
1691757639288894,0.02898605,-0.00935641,0.00242561,9.52622509
1691757639289142,0.02549380,-0.02316651,0.00350454,9.64356613
1691757639291505,0.05065149,0.00708832,0.00373679,9.60396481
1691757639296407,0.06696688,0.03078850,0.00397476,9.58988762
1691757639299038,0.04777160,0.06188680,0.00446820,9.74652767
1691757639306372,0.05920192,0.02515144,0.00542520,9.66859245
1691757639306505,0.04878549,0.04993910,0.00570017,9.89844036
1691757639310361,0.04601802,0.08686149,0.00561656,9.69829464
1691757639316231,0.05165375,0.05530943,0.00656083,9.79383373
1691757639317415,0.04948850,0.03387064,0.00774365,9.85562801
1691757639320804,0.02145847,0.02184225,0.00842275,9.81987476
1691757639324894,0.02628007,0.03163692,0.00848305,9.70477390
1691757639328557,0.03175001,0.06737214,0.00821612,9.67770290
1691757639332710,0.02063299,0.03913711,0.00890104,9.83294582
1691757639335116,0.02530565,0.03964345,0.00884809,9.73193741
1691757639344296,0.03756167,0.05391104,0.00852199,9.76476192
1691757639344459,0.04385453,0.05105800,0.00865643,9.80742359
1691757639346671,0.03542050,0.09231667,0.00787319,9.66162872
1691757639350558,0.02213976,-0.04612692,0.01073649,9.96430779
1691757639354381,0.04791293,-0.02592427,0.01132276,9.83279228
1691757639358251,-0.01613740,0.00166603,0.01118510,10.16322231
1691757639361533,0.02062031,-0.09151096,0.01325006,10.02435493
1691757639364548,0.03396349,-0.05298306,0.01330838,9.88285828
1691757639368615,0.04473011,-0.00009391,0.01278359,9.80076981
1691757639372890,0.03142496,0.04685427,0.01216531,9.88560390
1691757639375494,0.03817883,0.04962174,0.01244348,9.83550930
1691757639379581,0.04750374,0.10635349,0.01136556,9.65381527
1691757639382291,0.04711617,0.06930466,0.01198744,9.79318428
1691757639386520,0.03852846,0.04936013,0.01236802,9.83775234
1691757639390596,0.00112462,0.06001323,0.01231289,9.84236622
1691757639394293,-0.01461929,0.02180134,0.01295353,9.97982216
1691757639397316,0.00699840,0.03948049,0.01270944,9.92043972
1691757639400780,-0.00815933,0.03204672,0.01302900,9.87316608
1691757639404606,0.02201511,0.04753394,0.01256467,9.84604168
1691757639408514,0.03097957,-0.01108362,0.01346007,9.60309315
1691757639411431,0.04250840,0.03950028,0.01216916,9.72761726
1691757639415762,0.07015008,0.11352374,0.00947447,9.72769833
1691757639419537,0.00625668,0.01230168,0.01113802,9.98553562
1691757639425123,0.01594957,-0.05375148,0.01230882,10.05025959
1691757639428140,0.01310481,0.03120176,0.01024723,9.88573074
1691757639431164,0.04377951,0.03424002,0.00973742,9.88886166
1691757639434707,0.03152201,0.07409993,0.00889740,9.97646999
1691757639443651,0.01935495,0.06236362,0.00907134,9.95734882
1691757639443804,0.02161465,0.05984546,0.00880698,9.95753193
1691757639444269,0.01711821,0.06919090,0.00842992,9.99536705
1691757639447725,0.01469659,0.03487265,0.00884150,9.93428230
1691757639452121,0.01863264,0.03862473,0.00827895,9.88200188
1691757639455798,-0.01391006,-0.12807211,0.01150050,10.23404217
1691757639460054,-0.03825308,-0.02622814,0.00950971,10.02685070
1691757639463460,0.00027222,-0.03311413,0.00911189,9.55436897
1691757639466445,0.03476093,0.09508600,0.00571466,9.66486073
1691757639469744,0.02872829,0.14580002,0.00379772,9.73912525
1691757639474128,-0.06588247,-0.21204606,0.01064355,10.44373798
1691757639480448,0.01015663,0.04653117,0.00639624,9.98240185
1691757639480662,0.02455224,0.06823307,0.00562363,9.92170334
1691757639484327,0.01396200,0.06863195,0.00533909,10.00823784
1691757639487963,0.01012073,0.04401841,0.00538629,10.00393963
1691757639495627,-0.02432312,-0.11883718,0.00882922,10.23369122
1691757639497007,0.01459306,0.03659836,0.00558085,9.83583069
1691757639503308,-0.02291724,0.01205145,0.00579342,10.07154274
1691757639503462,0.01323588,0.02412074,0.00524482,9.89359474
1691757639506755,-0.03588972,-0.01351003,0.00564224,9.68367577
1691757639509843,0.00423737,0.10645221,0.00250076,9.77706432
1691757639513587,0.02862139,0.14206725,0.00069170,9.83164024
1691757639517115,0.14072517,0.46158853,-0.01349185,9.59610939
1691757639520526,-0.05159945,-0.09442034,0.00270737,10.31016350
1691757639524690,-0.04156798,-0.09456363,0.00250467,10.30717659
1691757639529847,-0.03884242,-0.06489418,0.00179647,10.18565369
1691757639532526,-0.04572274,-0.03639907,0.00102766,10.10013580
1691757639535224,-0.01403000,-0.05530537,0.00119280,10.17867947
1691757639538942,-0.04696069,-0.18985054,0.00356320,10.29482174
1691757639542793,-0.02209767,-0.00557670,-0.00012518,10.00936127
1691757639546588,0.00040891,0.01876472,-0.00118052,9.97120857
1691757639551107,-0.04403474,-0.13088736,0.00154571,10.12526035
1691757639553222,0.01720642,0.20995739,-0.00635130,9.62314796
1691757639556960,-0.05316237,-0.05340706,-0.00097107,10.25682831
1691757639560778,-0.03050453,0.02913853,-0.00275037,10.10916042
1691757639564616,-0.05301455,-0.07044508,-0.00070784,10.31195164
1691757639568727,-0.02317751,0.06677093,-0.00353742,10.00968647
1691757639572626,-0.02208946,0.07750080,-0.00441789,10.02666378
1691757639575667,-0.02437162,0.07229009,-0.00484101,10.08918190
1691757639579958,-0.01203717,0.00327725,-0.00404497,10.18271351
1691757639582441,-0.00643209,-0.01934152,-0.00414820,10.18221855
1691757639588922,0.00047599,-0.01372950,-0.00464713,10.13069439
1691757639590791,-0.04309736,-0.03159887,-0.00498920,10.19224644
1691757639593149,-0.00113217,0.06885606,-0.00801263,9.88815308
1691757639597048,0.15329587,0.39235938,-0.02282972,9.69960690
1691757639600722,-0.06075076,-0.08934089,-0.00854612,10.46115971
1691757639605106,-0.06758907,-0.07975969,-0.00938259,10.35800838
1691757639608757,-0.05028864,-0.04293854,-0.01049023,10.29787064
1691757639612460,-0.04011320,-0.02318169,-0.01126651,10.30295658
1691757639616004,-0.08818059,-0.06697008,-0.01104694,10.30178642
1691757639618818,-0.04388081,-0.18400902,-0.00823566,10.14279652
1691757639623529,-0.00666689,-0.07320505,-0.00978637,10.17798328
1691757639626843,-0.05967659,-0.19392972,-0.00698057,10.50831890
1691757639630459,-0.02548453,-0.12909487,-0.00711609,10.36387348
1691757639633436,-0.01640812,-0.09096030,-0.00738006,10.33849335
1691757639637634,-0.02674558,-0.09255739,-0.00698548,10.14397907
1691757639641787,-0.07014491,-0.07634053,-0.00662444,10.39535618
1691757639646855,-0.02028275,-0.05868687,-0.00597340,10.29505825
1691757639648865,0.01235541,-0.02473405,-0.00591770,10.22384167
1691757639652037,-0.00730275,0.01311779,-0.00589260,10.15041542
1691757639655162,-0.04977046,-0.00001122,-0.00497709,10.00156498
1691757639658939,0.05975264,0.34542859,-0.01368245,9.58110523
1691757639662814,0.19119823,0.58261549,-0.02720232,9.56920815
1691757639666813,-0.03346697,-0.00471854,-0.00730674,10.63610840
1691757639669758,-0.02153135,-0.04657583,-0.00698823,10.46920681
1691757639674476,-0.01479873,-0.21290569,-0.00340635,10.53650379
1691757639678826,-0.00145956,-0.01453286,-0.00700831,10.18086147
1691757639680617,-0.02403470,0.00585082,-0.00771071,10.19840527
1691757639684935,-0.00838514,-0.07581970,-0.00644779,10.29273891
1691757639689684,0.00979972,-0.00472806,-0.00770470,10.19766140
1691757639692081,0.01850136,0.07736197,-0.00948074,10.20230389
1691757639698826,-0.00743494,0.02866531,-0.00873911,10.42837524
1691757639699345,-0.01749172,-0.00223127,-0.00840153,10.28547668
1691757639702848,0.02100146,-0.00839039,-0.00833049,10.30919456
1691757639709923,0.03481339,0.03700701,-0.00940464,10.27146530
1691757639712618,0.04749943,0.03965493,-0.00973454,10.37555027
1691757639714789,0.03762298,0.04922219,-0.01004099,10.33184814
1691757639717257,0.01843699,0.02476555,-0.00966725,10.31256294
1691757639720742,-0.02048063,-0.15504174,-0.00608846,10.65317059
1691757639724963,0.05900952,0.04738497,-0.00963158,10.18139744
1691757639728831,0.06205205,0.14511919,-0.01228243,9.98680973
1691757639732286,0.00088800,-0.08791186,-0.00765169,10.59922791
1691757639735206,0.02055606,0.01139882,-0.00954342,10.50646019
1691757639739038,0.01126602,0.07396061,-0.01085605,10.43420601
1691757639742842,-0.01652080,0.01296292,-0.00986526,10.50790405
1691757639746845,0.08256155,0.08669502,-0.01194928,9.98204708
1691757639750695,0.08775261,0.17764315,-0.01474244,10.05631447
1691757639753699,-0.00748385,-0.06519529,-0.00937977,10.79344273
1691757639757159,-0.01097902,-0.13213100,-0.00761577,10.76460934
1691757639760993,0.05245262,0.04514773,-0.01077374,10.37314224
1691757639765004,0.04455495,0.05947598,-0.01121893,10.42723465
1691757639769293,0.03092889,0.04914554,-0.01127342,10.33946323
1691757639773239,0.08855624,0.13567963,-0.01436542,10.03783512
1691757639775238,0.01885348,-0.03234281,-0.01059173,10.58132935
1691757639778951,0.02260978,0.06317322,-0.01256752,10.38831329
1691757639782760,0.03790998,0.05251872,-0.01257112,10.44278240
1691757639786860,0.04614203,0.06410153,-0.01304079,10.36683273
1691757639789740,0.02764129,-0.01764186,-0.01129516,10.25199509
1691757639794505,0.00872769,-0.03386847,-0.01101641,10.47587395
1691757639798462,0.03937430,0.05240150,-0.01289808,10.37558365
1691757639801178,0.05326899,0.08547202,-0.01402156,10.41871834
1691757639805252,0.03840279,0.03682359,-0.01302906,10.40083981
1691757639814427,0.08252792,0.11381159,-0.01534839,10.08609962
1691757639814877,0.02809909,-0.05985625,-0.01141880,10.65767765
1691757639816035,0.04003327,0.05016068,-0.01394949,10.51641083
1691757639819040,0.03910792,0.06521332,-0.01424641,10.34661865
1691757639822855,0.01681063,0.12038533,-0.01540368,10.27821445
1691757639829339,0.07539969,0.17588712,-0.01789174,10.00803947
1691757639830233,0.16082460,0.44796354,-0.02946191,9.82612896
1691757639833794,-0.00438033,-0.12288274,-0.01213839,10.77936935
1691757639836963,0.02691393,-0.00863985,-0.01464370,10.48495579
1691757639840981,0.03741075,0.01339853,-0.01540211,10.39223671
1691757639844998,0.03121080,0.02791192,-0.01598399,10.33230305
1691757639850174,0.03122422,0.09070818,-0.01767738,10.09254360
1691757639857492,0.11797176,0.38402754,-0.02912595,9.87371349
1691757639857908,0.00457586,-0.00725310,-0.01766536,10.67813492
1691757639859778,-0.01609124,-0.15355629,-0.01377731,10.77627277
1691757639866306,0.00928947,0.00283166,-0.01674471,10.35805893
1691757639866510,-0.00603311,0.04245675,-0.01748435,10.31964970
1691757639869911,0.03726131,-0.01112397,-0.01617298,10.33997726
1691757639873981,0.01502332,0.05995893,-0.01771212,10.31958294
1691757639877157,0.02362067,0.04891530,-0.01735609,10.31098938
1691757639881014,0.02779466,0.02627481,-0.01678062,10.17404079
1691757639884536,0.12970880,0.33972242,-0.02798021,9.81284714
1691757639888811,-0.00270592,-0.01377974,-0.01669374,10.46443653
1691757639893466,0.00603294,-0.03255552,-0.01619891,10.53249741
1691757639895327,0.01632923,-0.02840409,-0.01617788,10.45692635
1691757639899421,-0.00629359,-0.00088303,-0.01665031,10.32010460
1691757639903469,-0.00190740,0.08529375,-0.01842006,10.08062267
1691757639908406,0.06783135,0.35844758,-0.02748554,10.00477028
1691757639909839,-0.01055818,-0.02865207,-0.01682520,10.61194229
1691757639913856,-0.01148126,-0.02266642,-0.01668403,10.49171257
1691757639917350,-0.03705468,-0.04711998,-0.01608811,10.51572323
1691757639921017,0.02896031,0.00334002,-0.01701699,10.17032337
1691757639925172,-0.00467587,-0.09016979,-0.01440411,10.51593399
1691757639930329,-0.00311903,0.02053615,-0.01666127,10.34433746
1691757639931541,0.01799718,-0.00419185,-0.01589062,10.40077877
1691757639935595,0.01793139,0.03179739,-0.01663088,10.35145760
1691757639940867,0.04171734,0.15194979,-0.01998329,9.96375084
1691757639943068,-0.02275714,0.01666383,-0.01609790,10.48742771
1691757639947084,-0.00211933,0.02671044,-0.01616457,10.41434097
1691757639949627,-0.02931025,0.02572077,-0.01585184,10.49118519
1691757639953466,0.00783589,0.08691145,-0.01721548,10.04546261
1691757639957255,0.02872758,0.19645727,-0.02008762,9.92658615
1691757639961115,-0.00523395,-0.01629658,-0.01441169,10.53950787
1691757639965095,0.00462880,0.03116079,-0.01540202,10.47399902
1691757639967911,0.00954369,-0.00464153,-0.01425499,10.48171139
1691757639972606,-0.02201356,-0.17241284,-0.00868917,10.59720421
1691757639977455,0.00339040,-0.03759271,-0.01081694,10.13125515
1691757639981767,-0.00534690,0.01643381,-0.01175458,10.39762878
1691757639983123,-0.03157907,-0.04188540,-0.00888090,10.50854397
1691757639986621,0.00802894,0.14885348,-0.01301491,10.12746143
1691757639989841,0.01192189,0.15893678,-0.01311208,10.09087181
1691757639993770,0.03705556,0.22913012,-0.01509577,9.89590454
1691757639997176,-0.01812901,0.04775466,-0.00967882,10.42166138
1691757640001503,-0.00740707,0.05079480,-0.00961822,10.31993294
1691757640005212,-0.01683641,0.02719470,-0.00887583,10.36611080
1691757640014078,-0.00971977,0.06766111,-0.00966883,10.07775593
1691757640014281,0.01006593,0.05199308,-0.00930276,10.23822784
1691757640014941,0.00186158,0.06195460,-0.00947883,10.27609158
1691757640019484,0.02534743,0.08537722,-0.01011449,10.29158020
1691757640023049,-0.03642517,-0.07623924,-0.00573791,10.71980000
1691757640026173,-0.01493065,0.02897806,-0.00766413,10.48351383
1691757640030233,-0.00001718,0.05486416,-0.00813268,10.50115108
1691757640034607,-0.02976832,0.04180088,-0.00737219,10.52638912
1691757640038031,-0.00212595,0.09381731,-0.00837534,10.04571629
1691757640040715,-0.03323464,-0.02970129,-0.00510580,10.56203079
1691757640044402,-0.01651729,0.06731759,-0.00714234,10.47110844
1691757640048109,-0.01037522,0.07122633,-0.00677284,10.42231083
1691757640052938,-0.02934183,0.05850771,-0.00591195,10.40097809
1691757640056835,0.02137468,0.13507175,-0.00796557,10.16055775
1691757640058974,-0.01048404,-0.04988766,-0.00275914,10.60722065
1691757640066581,-0.00952312,0.05522304,-0.00453090,10.39945030
1691757640066741,-0.00626652,0.03716090,-0.00394691,10.48506165
1691757640070308,-0.00779081,0.02125921,-0.00338805,10.54544067
1691757640074119,0.01460889,0.08675555,-0.00483308,10.16305065
1691757640076958,-0.04835768,0.06519740,-0.00373132,10.54945564
1691757640081276,-0.01433658,0.02413137,-0.00284272,10.46829987
1691757640085144,0.00515789,0.02195723,-0.00240864,10.54642773
1691757640087954,-0.01915107,0.03814556,-0.00220458,10.46351910
1691757640091516,-0.01610084,0.09272958,-0.00324236,10.15309143
1691757640095263,0.08352870,0.36433551,-0.01291581,9.96425533
1691757640102458,-0.02201130,-0.06246759,-0.00043550,10.76140213
1691757640103125,-0.04251047,-0.01620283,-0.00117509,10.64777851
1691757640109472,-0.03734733,-0.02102586,-0.00078847,10.56937981
1691757640109899,-0.01793889,-0.05669443,0.00020725,10.52260113
1691757640117749,-0.01499825,-0.01409930,-0.00069199,10.38895607
1691757640118002,-0.03695292,0.07723549,-0.00261998,10.20723629
1691757640121579,0.06314053,0.30599752,-0.01049859,10.06427193
1691757640125197,-0.02472368,-0.03759345,-0.00094091,10.78007603
1691757640127910,-0.03977990,-0.04085971,-0.00063730,10.70685196
1691757640131579,-0.04176897,-0.04822209,-0.00027507,10.49171829
1691757640135089,-0.04211358,-0.03303857,-0.00029558,10.59803486
1691757640139216,-0.00437652,-0.08056067,0.00137424,10.64519787
1691757640143151,-0.00644348,-0.01715715,0.00054342,10.55153370
1691757640147190,-0.00993872,-0.00321717,0.00053223,10.54862976
1691757640149691,-0.00597632,0.02113886,0.00009735,10.48909473
1691757640153458,-0.01499156,0.06807664,-0.00062863,10.32724857
1691757640157196,-0.04934711,0.03518036,0.00069832,10.52346516
1691757640161285,-0.01777915,-0.02491913,0.00203799,10.59646893
1691757640165202,0.00882830,-0.03432608,0.00237521,10.64960957
1691757640167887,-0.00882949,-0.02669599,0.00236891,10.57903385
1691757640171532,0.00102781,-0.01180490,0.00212358,10.33392715
1691757640175160,0.07784402,0.24697959,-0.00608773,10.24223614
1691757640179302,-0.01586243,-0.08895978,0.00303823,10.78029537
1691757640183350,-0.02869558,-0.05677340,0.00251063,10.77441883
1691757640189397,-0.05689091,-0.06787146,0.00290417,10.78232098
1691757640189584,0.00907488,-0.01107155,0.00203727,10.31440353
1691757640193682,0.01680077,0.01971138,0.00137505,10.43699741
1691757640199918,-0.03855325,-0.15986477,0.00522632,10.84878826
1691757640201169,-0.02234368,-0.04925057,0.00327357,10.59011459
1691757640205326,0.00212558,-0.00445716,0.00227550,10.59497070
1691757640208884,-0.01732763,-0.00385088,0.00224020,10.35540104
1691757640216459,-0.02844046,-0.00481871,0.00238697,10.64281940
1691757640216590,-0.01576100,-0.01599381,0.00262108,10.49939251
1691757640219694,0.01429779,-0.01477163,0.00263813,10.53065968
1691757640223524,0.00451147,-0.02253397,0.00301909,10.50445271
1691757640226111,0.01397992,0.07473715,0.00084049,10.16813183
1691757640229865,-0.02510532,-0.09458441,0.00455383,10.68268585
1691757640233371,-0.00015118,-0.05345407,0.00386226,10.69450760
1691757640237380,-0.00341213,-0.05033309,0.00392900,10.59965134
1691757640240655,-0.00992404,-0.05499364,0.00400720,10.46748447
1691757640244319,0.06949867,0.24299525,-0.00446523,10.12145138
1691757640248429,-0.01301185,-0.10028272,0.00437572,10.70481586
1691757640252507,-0.02901439,-0.08319609,0.00409345,10.65570164
1691757640256232,-0.03989404,-0.06249579,0.00361242,10.51773548
1691757640258764,0.08117804,0.20823081,-0.00376027,10.00553131
1691757640262503,-0.01863721,-0.13948721,0.00516386,10.59865379
1691757640266526,-0.03656197,-0.13197210,0.00487283,10.59723759
1691757640270333,-0.04722624,-0.13579226,0.00494354,10.56890678
1691757640274592,0.04041090,-0.06099192,0.00411027,10.03457260
1691757640276972,-0.02162545,-0.12778825,0.00537361,10.45230770
1691757640285504,-0.03292286,-0.03575316,0.00363087,10.45594883
1691757640286755,-0.01278555,-0.04941386,0.00420441,10.43994522
1691757640288366,0.12474205,0.28280517,-0.00593826,9.79775429
1691757640293015,-0.01433832,-0.11801063,0.00584373,10.63733768
1691757640297132,-0.02620015,-0.07772636,0.00531877,10.60693359
1691757640298629,-0.00678825,-0.08954450,0.00604120,10.48231125
1691757640302744,-0.01019640,-0.09892972,0.00640451,10.48636627
1691757640306132,-0.00864843,-0.10465849,0.00668756,10.24390125
1691757640309769,-0.02297814,-0.06229078,0.00595490,10.36312580
1691757640316600,0.02166288,-0.02269206,0.00557472,10.08014870
1691757640317906,0.10035469,0.26402843,-0.00301834,9.97585392
1691757640322228,-0.02848179,-0.08335320,0.00650778,10.67071152
1691757640324454,-0.00413315,-0.08799818,0.00707700,10.54950809
1691757640328384,0.01600575,-0.08712544,0.00729806,10.30572224
1691757640332440,0.02355347,0.01294486,0.00519651,10.12042904
1691757640335161,-0.04697655,-0.14233039,0.00880829,10.56407738
1691757640339391,-0.01203386,-0.02815194,0.00703693,10.54592228
1691757640343447,0.02397335,-0.04803305,0.00755817,10.56182098
1691757640350922,0.01092296,-0.02218278,0.00715935,10.55398464
1691757640351095,0.01591956,-0.00817288,0.00692573,10.37184143
1691757640353654,0.07994566,0.23409912,-0.00073249,10.07894897
1691757640357490,-0.01377359,-0.10748667,0.00814457,10.72767830
1691757640361402,-0.01441734,-0.06171947,0.00743861,10.58826733
1691757640367341,-0.02085621,-0.03060869,0.00684268,10.48858738
1691757640368162,0.00878675,-0.01783790,0.00655587,10.33940506
1691757640371984,0.00853729,0.01103671,0.00588896,10.33209991
1691757640375428,0.00671461,0.00164260,0.00577649,10.18206787
1691757640379508,0.06487103,0.25622174,-0.00207485,10.03808212
1691757640383814,-0.02934750,-0.12714939,0.00708311,10.65692711
1691757640386453,-0.00887914,-0.05048551,0.00556203,10.55258656
1691757640389860,-0.01864840,-0.01159435,0.00450074,10.48944378
1691757640393491,0.01361183,-0.00290142,0.00400219,10.39707375
1691757640398710,0.02636901,0.08540887,0.00171449,10.20467281
1691757640401779,0.07949258,0.28695086,-0.00476411,10.11236572
1691757640405322,-0.04170680,-0.11970296,0.00549374,10.84464836
1691757640407859,-0.01884302,-0.06138240,0.00455485,10.82219124
1691757640412753,-0.00842867,-0.00820549,0.00354358,10.59853363
1691757640415390,-0.01255986,0.00038607,0.00336982,10.46683121
1691757640419355,-0.01428317,0.01951107,0.00295949,10.45575619
1691757640422440,0.00949065,0.01075876,0.00306285,10.39906788
1691757640426791,0.08422728,0.28070876,-0.00525396,10.04830170
1691757640430527,-0.03160534,-0.09390639,0.00439493,10.64258289
1691757640434784,-0.01720340,-0.04167335,0.00335860,10.72023010
1691757640437054,-0.01655965,-0.04054737,0.00337822,10.47996426
1691757640442250,0.00038165,0.05290853,0.00131712,10.31663895
1691757640444603,0.09074872,0.32039630,-0.00811340,10.18927193
1691757640448279,-0.02344006,-0.08771430,0.00294089,10.87325668
1691757640452348,-0.04051508,-0.07131013,0.00261788,10.63011646
1691757640456874,-0.02414776,0.00726453,0.00101060,10.57345963
1691757640458854,-0.00652340,0.00719754,0.00090498,10.65000439
1691757640462556,0.01341043,0.03312559,0.00037383,10.48737717
1691757640466536,-0.02852325,-0.08004024,0.00300017,10.80264664
1691757640473424,-0.00418614,0.02216207,0.00094622,10.53600693
1691757640474270,0.00401034,-0.00351713,0.00155912,10.62712097
1691757640476866,0.03427453,0.05344887,0.00005481,10.29970074
1691757640480770,-0.02118945,-0.07003697,0.00284031,10.78093910
1691757640484408,0.00034956,0.03391353,0.00068740,10.36335850
1691757640488470,0.01471524,0.05297029,0.00024361,10.40670586
1691757640493857,0.00026328,0.05826797,0.00023613,10.38487530
1691757640497269,0.07451124,0.35602662,-0.00921021,10.12178516
1691757640498881,-0.02449199,-0.04024935,0.00160366,10.66040325
1691757640502566,-0.00336251,-0.04322373,0.00171851,10.66113281
1691757640506519,-0.01901028,-0.02370442,0.00123622,10.55841541
1691757640510469,0.00272081,0.00303338,0.00068393,10.40789032
1691757640515735,0.10258128,0.27888072,-0.00816156,10.13521481
1691757640517865,-0.03318845,-0.08371212,0.00195916,10.66753197
1691757640521873,-0.03674874,-0.03547309,0.00105965,10.54006767
1691757640525656,-0.00930530,-0.01839701,0.00082819,10.50033760
1691757640528185,0.01482000,0.00265186,0.00036866,10.29845428
1691757640531679,0.08924997,0.23310353,-0.00683154,10.21579838
1691757640535583,0.05138967,0.24484104,-0.00688875,10.29822826
1691757640540319,-0.04823235,-0.15924098,0.00242497,10.57446957
1691757640543402,-0.02987758,-0.09361974,0.00136928,10.51343727
1691757640546243,-0.03277222,-0.03824141,0.00038447,10.45646381
1691757640549898,-0.03478308,-0.00367214,-0.00015641,10.45682526
1691757640554992,0.02099203,0.00815276,-0.00039759,10.32808876
1691757640557691,0.10248034,0.31064811,-0.01003006,10.12631989
1691757640560588,-0.01825846,-0.08392008,0.00160651,10.74981689
1691757640564424,-0.01180621,-0.04226501,0.00094851,10.54780006
1691757640567857,0.00628380,-0.02458857,0.00088860,10.49037361
1691757640571587,0.01171614,0.04017428,-0.00050053,10.34536362
1691757640575762,0.08432744,0.28582221,-0.00844798,10.16559696
1691757640579592,-0.02374269,-0.07882666,0.00159275,10.68366528
1691757640583329,-0.00047605,-0.07198688,0.00167575,10.60588455
1691757640585979,-0.01121720,-0.07058227,0.00162393,10.55688667
1691757640589748,-0.00975930,-0.04599921,0.00111446,10.36211300
1691757640596331,0.01118688,0.05036012,-0.00105066,10.25642395
1691757640597870,0.02612120,0.06419086,-0.00144791,10.22900009
1691757640600818,0.08976717,0.30393502,-0.00929683,10.14317036
1691757640604295,-0.02491830,-0.08527830,0.00163415,10.71171188
1691757640607990,-0.01201057,-0.05718276,0.00122418,10.66254425
1691757640613325,-0.01552226,-0.04220383,0.00104635,10.54491711
1691757640615622,0.00832090,-0.01463184,0.00057038,10.41377354
1691757640619658,0.01374339,0.02991443,-0.00051069,10.41054440
1691757640622434,0.01351606,0.02830441,-0.00051540,10.50597954
1691757640626591,0.07779509,0.24442588,-0.00740236,10.38978481
1691757640631289,-0.00542853,-0.15608346,0.00325489,10.92060661
1691757640634573,0.00173067,-0.08539238,0.00187236,10.64605522
1691757640637119,0.00382153,-0.03639827,0.00093709,10.59501457
1691757640640650,-0.00269247,-0.03859882,0.00113534,10.49830246
1691757640644796,0.03597448,0.04202273,-0.00092523,10.33840466
1691757640648153,0.09340780,0.25198776,-0.00848619,10.32579708
1691757640652295,0.08104713,0.22310889,-0.00866290,10.46421337
1691757640656247,-0.03554999,-0.13790323,0.00053286,10.78751755
1691757640658927,-0.02021921,-0.09346733,-0.00020380,10.76826859
1691757640662660,-0.02386515,-0.06941348,-0.00056912,10.69845009
1691757640666790,0.00523619,-0.04486116,-0.00089735,10.52812386
1691757640671314,0.07445736,0.22907998,-0.00973077,10.34697819
1691757640673681,0.01841910,0.19158500,-0.00877224,10.88403320
1691757640677002,-0.01937092,-0.13824345,-0.00097718,10.66501713
1691757640681789,0.00498385,-0.12536468,-0.00081240,10.70181084
1691757640684746,0.01432471,-0.09919626,-0.00117319,10.62198925
1691757640689502,0.11521762,0.17097226,-0.00945994,10.46849346
1691757640701089,-0.01060622,-0.16518903,0.00001401,10.84556675
1691757640701227,-0.03160261,-0.09407003,-0.00161462,10.57989979
1691757640701936,0.01494415,-0.10637124,-0.00086123,10.60409260
1691757640702618,-0.00158064,-0.09426655,-0.00117865,10.68779755
1691757640708454,0.03098116,-0.04932686,-0.00201749,10.50158405
1691757640710683,0.12082579,0.21846940,-0.01128069,10.38308716
1691757640713856,-0.01247258,-0.15961032,-0.00032093,10.94075489
1691757640717093,-0.00298525,-0.09274695,-0.00149254,10.70309067
1691757640720718,0.00791937,-0.05762040,-0.00198186,10.53866482
1691757640724814,0.03108708,-0.04032540,-0.00213445,10.64704323
1691757640731528,0.12829986,0.25557941,-0.01235021,10.29016113
1691757640731677,0.00470641,-0.09581093,-0.00129816,10.80766106
1691757640735375,-0.00382847,-0.08108068,-0.00151283,10.56653309
1691757640738779,0.02574021,-0.06363268,-0.00173555,10.58813381
1691757640742706,0.11867297,0.21475023,-0.01086687,10.29803658
1691757640746742,0.00417910,-0.17767623,0.00087766,10.76582909
1691757640751511,-0.00819899,-0.13806199,-0.00002770,10.56256580
1691757640755043,0.00050503,-0.08972534,-0.00111187,10.71165180
1691757640757108,0.01493790,-0.10100301,-0.00050060,10.30201912
1691757640763017,0.03669242,-0.03301586,-0.00197056,10.44804001
1691757640764846,0.11789000,0.22882579,-0.01118820,10.22739601
1691757640768942,-0.02265851,-0.13203384,-0.00053811,10.77539349
1691757640771504,-0.00066565,-0.11418115,-0.00044923,10.56683254
1691757640775206,0.00024695,-0.09284347,-0.00085603,10.62917900
1691757640778811,0.06487343,-0.00134238,-0.00315513,10.34331417
1691757640783140,0.01389587,-0.15139811,0.00109597,10.70629215
1691757640786861,0.00701242,-0.10284960,0.00026220,10.48758602
1691757640790692,0.02015756,-0.04427863,-0.00087941,10.46166992
1691757640794021,0.04581906,-0.02845667,-0.00117160,10.40447903
1691757640796988,0.03055530,-0.09972744,0.00122172,10.58752728
1691757640800824,0.01831553,-0.12048940,0.00210152,10.32998371
1691757640804853,0.02858244,-0.02394299,-0.00034305,10.68838215
1691757640809922,0.03595100,-0.03448621,0.00046775,10.29006386
1691757640814639,0.04899657,0.00656068,-0.00028492,10.29251003
1691757640816986,0.12553707,0.26580650,-0.01017795,10.10291576
1691757640818723,-0.01787718,-0.10248579,0.00202893,10.73333073
1691757640823174,0.00611801,-0.11232156,0.00308630,10.50192833
1691757640827220,0.00570634,-0.07222566,0.00269819,10.50905037
1691757640832782,-0.01448261,-0.05278327,0.00237954,10.46532249
1691757640833988,0.05110517,-0.01875107,0.00206026,10.23907089
1691757640837394,0.14315119,0.24453311,-0.00818096,10.32141876
1691757640840931,0.00648298,-0.14213069,0.00546895,10.71061611
1691757640844881,-0.00999730,-0.09016394,0.00426996,10.52502155
1691757640848829,0.02070267,-0.07748407,0.00434026,10.59240055
1691757640851932,0.02813463,-0.06098960,0.00421926,10.34555435
1691757640855186,0.08265823,0.27712661,-0.00787630,10.02752399
1691757640858980,-0.02244394,-0.15175734,0.00547814,10.72650623
1691757640862935,-0.00355694,-0.08236616,0.00397979,10.48212528
1691757640866936,0.00140823,-0.04811116,0.00348880,10.37672997
1691757640869730,0.00054442,0.00290233,0.00240067,10.44704437
1691757640874693,0.02432834,0.01307937,0.00194183,10.25359821
1691757640878407,0.04363612,0.01703509,0.00198786,10.27135849
1691757640880556,0.13000612,0.28929174,-0.00901088,10.16063786
1691757640885308,0.00048751,-0.09213711,0.00474043,10.86671162
1691757640887918,0.01938297,-0.06800500,0.00415912,10.70889473
1691757640891885,0.03586193,-0.03018478,0.00332073,10.55686188
1691757640895974,0.00321152,0.00389479,0.00233010,10.53618908
1691757640899764,0.03479278,0.00532026,0.00202190,10.37599182
1691757640902496,0.04655202,-0.00713822,0.00253223,10.31269932
1691757640906258,0.02357375,0.03065889,0.00134239,10.42901230
1691757640911066,0.10967362,0.31400654,-0.01064632,10.10049534
1691757640914811,-0.01567212,-0.05446718,0.00263146,10.71873569
1691757640921120,-0.01359795,-0.02968495,0.00200001,10.66061878
1691757640921278,-0.03704421,-0.01957085,0.00167336,10.50071049
1691757640925405,0.02089153,0.04808041,-0.00060843,10.27881145
1691757640929953,0.12838930,0.28237024,-0.01116564,10.09260178
1691757640934250,-0.03634015,-0.08725668,0.00253648,10.69050407
1691757640935188,-0.02665775,-0.03476728,0.00122104,10.68525219
1691757640939565,0.00633546,-0.00199764,0.00042981,10.71392345
1691757640943050,0.01254793,0.00998438,0.00014491,10.47952271
1691757640946930,0.10937325,0.29098505,-0.01139716,10.05509663
1691757640949754,-0.02994624,-0.09418386,0.00264839,10.74815369
1691757640953946,-0.01111455,-0.08979306,0.00270295,10.66639137
1691757640957520,-0.01473416,-0.03346837,0.00117319,10.58965492
1691757640960979,-0.00632045,-0.00938922,0.00051736,10.44619846
1691757640967651,0.08695749,0.25401631,-0.01022975,10.25048256
1691757640968710,-0.03776271,-0.09465354,0.00200943,10.62557030
1691757640971431,-0.03210428,-0.01161000,-0.00015641,10.47945881
1691757640975176,-0.03505231,0.02844816,-0.00127987,10.51437759
1691757640979149,0.04646705,0.05754641,-0.00248394,10.10634518
1691757640983032,-0.02624932,-0.08728351,0.00259340,10.65771961
1691757640987051,-0.02471098,0.04329222,-0.00100396,10.44861984
1691757640990130,-0.00085133,0.06708522,-0.00188257,10.43302727
1691757640993390,0.03027906,0.02733106,-0.00057551,10.39594173
1691757640997433,0.10468151,0.26997957,-0.01084175,10.12938976
1691757641001576,-0.05503675,-0.06844067,0.00180264,10.66656590
1691757641005002,-0.03212428,-0.00720002,0.00016137,10.45942593
1691757641009205,-0.00563059,0.01028379,-0.00029069,10.38530159
1691757641018119,-0.00089287,0.03096895,-0.00084437,10.23699760
1691757641018360,0.06588417,0.33655348,-0.01258518,10.03930092
1691757641018875,-0.04372381,-0.07807820,0.00212686,10.59520149
1691757641027964,-0.02476290,-0.02495025,0.00083977,10.43906212
1691757641028107,-0.02378850,0.02862899,-0.00076317,10.31502628
1691757641029665,-0.01212379,0.04494367,-0.00145213,10.11821175
1691757641033492,-0.02298488,0.02105573,-0.00078568,10.45289135
1691757641037371,-0.00276734,-0.02313884,0.00067068,10.38403893
1691757641041448,-0.02176466,0.06447389,-0.00190316,10.30260372
1691757641045202,-0.01049844,0.04826366,-0.00141466,10.20293331
1691757641047908,0.11584900,0.33963940,-0.01408680,9.98005295
1691757641052073,-0.04417072,-0.06478857,0.00173961,10.58087540
1691757641055964,-0.05203224,0.00908656,-0.00010239,10.38285351
1691757641058863,-0.01674978,0.02288895,-0.00046892,10.32982540
1691757641064596,0.00918342,0.00648135,0.00006821,10.26135635
1691757641066032,-0.01344050,0.03473395,-0.00065942,10.09250736
1691757641069844,-0.01900354,0.08167647,-0.00207279,10.27107048
1691757641073984,0.09312188,0.31276333,-0.01241414,10.09597969
1691757641078232,-0.02561307,-0.12500085,0.00330135,10.46732140
1691757641081228,-0.04517941,0.00753869,-0.00049567,10.28485870
1691757641085120,-0.03463832,0.06341046,-0.00219349,10.38711166
1691757641088135,0.00373461,0.03627581,-0.00163164,10.06519890
1691757641092121,0.09087554,0.31212476,-0.01304068,10.08893013
1691757641096120,0.04417523,0.31278217,-0.01314814,10.14282799
1691757641098843,-0.08484574,-0.15625069,0.00155640,10.64443970
1691757641102467,-0.04809565,-0.08245680,0.00016837,10.49203587
1691757641106427,-0.04334722,0.00591766,-0.00219863,10.47667885
1691757641111152,-0.05532705,0.02550531,-0.00274002,10.49695969
1691757641114009,-0.00260796,0.01539800,-0.00268725,10.22237778
1691757641121155,0.01229582,0.09742818,-0.00550657,10.24151039
1691757641121324,0.06621721,0.36986855,-0.01741183,10.05486298
1691757641124254,-0.04173222,-0.02749544,-0.00332194,10.62629604
1691757641128673,-0.02536849,-0.03267632,-0.00325358,10.62154484
1691757641132504,-0.02502640,-0.03424754,-0.00320237,10.29851627
1691757641138993,0.06454144,0.25604832,-0.01446073,10.16148281
1691757641139114,-0.03167012,0.20790419,-0.01262831,10.65319347
1691757641142803,-0.08098216,-0.19466206,-0.00199177,10.56838703
1691757641146200,-0.05874648,-0.14273478,-0.00259657,10.52912521
1691757641150214,-0.03612126,-0.06172311,-0.00455188,10.48767757
1691757641154205,-0.00371876,-0.03859456,-0.00497387,10.52696037
1691757641157722,0.06584045,0.23016997,-0.01518331,10.23466492
1691757641163122,-0.05369278,-0.07624681,-0.00491258,10.78548050
1691757641171973,-0.02000733,-0.07864039,-0.00459456,10.76085567
1691757641172165,-0.00737815,-0.05087386,-0.00531127,10.50491714
1691757641172319,0.08496153,0.25263017,-0.01701066,10.16290855
1691757641177726,-0.06164320,-0.13338402,-0.00428148,10.69947815
1691757641179042,-0.03948533,-0.09742593,-0.00498000,10.59873867
1691757641183114,-0.03536098,-0.06054106,-0.00592428,10.55637836
1691757641189375,0.03591374,0.19788843,-0.01457640,10.39877319
1691757641190155,-0.07123411,-0.17497830,-0.00333900,10.66085243
1691757641195858,-0.03174096,-0.13248587,-0.00391516,10.46979237
1691757641197036,-0.02403199,-0.06758550,-0.00569429,10.48846054
1691757641201297,-0.01856719,-0.05024226,-0.00613734,10.51855755
1691757641205165,-0.01340403,-0.04255701,-0.00634564,10.39019394
1691757641209045,0.10811197,0.24535410,-0.01781964,10.01548958
1691757641212056,-0.04511913,-0.11187553,-0.00555916,10.59940529
1691757641217036,-0.04154355,-0.08766376,-0.00606068,10.64529514
1691757641219554,-0.01732281,-0.05372771,-0.00696286,10.46895695
1691757641223099,-0.04167030,-0.03543043,-0.00767330,10.58398151
1691757641226447,-0.04460743,-0.05966454,-0.00712525,10.47789192
1691757641230227,-0.03143428,-0.04998009,-0.00733926,10.36541557
1691757641234628,-0.01246231,-0.05807211,-0.00711587,10.39936447
1691757641239921,0.07046220,0.20752960,-0.01672591,10.26091099
1691757641240681,-0.04067037,-0.03534831,-0.00860460,10.63399887
1691757641244362,-0.04383516,-0.09921542,-0.00702709,10.50278568
1691757641248198,-0.02509749,-0.09137951,-0.00709616,10.40669060
1691757641252206,0.10352433,0.21884057,-0.01843095,10.10147095
1691757641256081,-0.03227962,-0.15840079,-0.00604960,10.60530376
1691757641259255,-0.04309208,-0.10840578,-0.00735133,10.71278954
1691757641262523,-0.02249410,-0.11988604,-0.00682637,10.48844337
1691757641266240,0.09017734,0.16769554,-0.01644401,10.15369606
1691757641270486,-0.04596999,-0.17496292,-0.00577475,10.60725880
1691757641274264,-0.04633001,-0.12497527,-0.00691838,10.65544224
1691757641277010,-0.02603609,-0.08733890,-0.00769032,10.42519855
1691757641282396,-0.03054049,-0.11947053,-0.00655813,10.63454819
1691757641284327,-0.00994825,-0.15064313,-0.00501104,10.46384716
1691757641288323,-0.03245961,-0.06827068,-0.00726026,10.33490372
1691757641292226,-0.02792498,-0.02698065,-0.00816497,10.44570446
1691757641296718,0.08487552,0.14640366,-0.01410607,10.27259827
1691757641298719,-0.04717787,-0.20595160,-0.00301430,10.62393188
1691757641302622,-0.04907832,-0.09482756,-0.00546634,10.37304783
1691757641306337,-0.02754831,-0.04807480,-0.00638372,10.44702148
1691757641310132,0.09980727,0.15360107,-0.01352274,10.22221661
1691757641314307,-0.04178505,-0.25328916,-0.00080311,10.65172005
1691757641316912,-0.03952773,-0.15304102,-0.00263362,10.59934616
1691757641320559,-0.00596210,-0.10183343,-0.00342681,10.49338055
1691757641324304,0.01423250,-0.11870787,-0.00248224,10.52038765
1691757641328244,0.01120418,-0.06426795,-0.00375970,10.31946087
1691757641333616,0.09467983,0.23037916,-0.01434720,10.07199097
1691757641335192,-0.03965623,-0.11091211,-0.00328372,10.77886677
1691757641339242,-0.01622511,-0.12526485,-0.00234932,10.70161819
1691757641343583,0.04437492,0.14563915,-0.01067945,10.28490639
1691757641346401,-0.07454894,-0.19841751,-0.00165543,10.64640427
1691757641350234,-0.02690153,-0.18015459,-0.00122946,10.40162182
1691757641354318,-0.00887452,-0.10435416,-0.00290806,10.51016331
1691757641356911,0.03584283,0.14884897,-0.01101204,10.39830399
1691757641361693,-0.05406395,-0.20075469,-0.00135783,10.69122505
1691757641364311,-0.02356555,-0.12470825,-0.00302117,10.55881786
1691757641368236,-0.01344937,-0.09627145,-0.00356108,10.41234303
1691757641373040,0.16561520,0.27327827,-0.01810404,7.65892458
1691757641375759,-0.01471272,-0.17201234,-0.00173537,8.38744545
1691757641379249,0.01662732,-0.12632905,-0.00248415,8.14500999
1691757641383281,0.04031396,-0.08982780,-0.00303368,8.05419636
1691757641385996,0.15469411,0.26169047,-0.01678309,7.66002417
1691757641389874,-0.00995292,-0.19391981,-0.00076349,8.14250660
1691757641393488,0.02084319,-0.16032937,-0.00092433,8.07402706
1691757641397340,0.02671228,-0.10350847,-0.00247489,8.11277485
1691757641401326,0.01682317,-0.07341804,-0.00308715,8.01810741
1691757641404406,0.02874089,-0.04783446,-0.00337130,7.99520254
1691757641408383,0.03296175,-0.03841761,-0.00341782,8.09039211
1691757641412299,0.03232940,-0.02879856,-0.00347840,8.28609276
1691757641415082,0.02191053,-0.00307452,-0.00375662,8.22595215
1691757641422867,0.03484102,-0.05511363,-0.00166236,8.37822914
1691757641423041,0.02697136,-0.13636227,0.00170325,8.56523705
1691757641426306,0.16534144,0.31672728,-0.01524710,8.13950920
1691757641430810,0.03967699,0.01693113,-0.00280133,8.69893456
1691757641434373,0.01689415,-0.03871892,-0.00078942,8.82356071
1691757641439599,0.01742333,-0.02812495,-0.00048943,8.69230747
1691757641440634,0.02111185,-0.03284686,0.00027054,8.81414604
1691757641448224,0.00161405,-0.10475432,0.00295041,8.94344139
1691757641449127,0.05154310,0.02630888,-0.00052646,8.84762287
1691757641452394,0.01058907,0.04043038,-0.00042731,9.07698727
1691757641455186,0.00575506,0.02912830,0.00003716,9.07529163
1691757641459051,0.00153870,0.04306493,-0.00026488,9.25302124
1691757641462489,-0.00011679,0.04752447,-0.00020926,9.27404213
1691757641466447,0.00906237,0.05400341,-0.00025504,9.32804108
1691757641470423,0.01022643,0.04058899,0.00017747,9.35615158
1691757641473467,0.01102899,0.03863677,0.00039417,9.44506741
1691757641476987,-0.00229338,0.06064550,-0.00007602,9.56754303
1691757641480684,0.00186814,0.04267934,0.00059120,9.57611370
1691757641484068,-0.00706428,0.05324905,0.00041831,9.66496181
1691757641487917,-0.00647782,0.04606527,0.00058200,9.72119999
1691757641491693,-0.00273035,0.04018428,0.00086024,9.75998783
1691757641495510,-0.00593463,0.04443750,0.00087526,9.79133701
1691757641499471,-0.00753774,0.05156321,0.00074994,9.80456829
1691757641502324,-0.00854459,0.06419047,0.00060068,9.86534595
1691757641506466,-0.01150902,0.06241528,0.00080422,9.87821198
1691757641510353,-0.01603885,0.07281506,0.00063324,9.90482330
1691757641514303,0.02758554,0.15004596,-0.00245686,9.86894989
1691757641516983,0.03221251,0.14826676,-0.00301810,9.86993980
1691757641520752,-0.02003494,0.03871504,0.00058552,9.98216820
1691757641524468,-0.02589179,0.04752073,0.00041538,10.00855732
1691757641530722,-0.03063065,0.05520425,0.00034295,10.02620029
1691757641532437,-0.03069475,0.05898553,0.00019823,10.04589272
1691757641535421,-0.02623506,0.04986133,0.00039137,10.06325626
1691757641539716,-0.02583698,0.05506533,0.00042888,10.08176517
1691757641542447,-0.00159182,0.10062203,-0.00190089,10.08013535
1691757641547432,0.01666485,0.11284553,-0.00359205,10.07273674
1691757641552620,-0.01842334,0.03232472,-0.00073449,10.16502476
1691757641553559,-0.02701289,0.03978601,-0.00073880,10.17459869
1691757641557794,-0.02845734,0.04602837,-0.00064413,10.19033527
1691757641561390,0.00077345,0.10969554,-0.00341051,10.24059010
1691757641564577,0.00551631,0.11002477,-0.00423513,10.22037506
1691757641568482,-0.01329261,0.12109164,-0.00508437,10.24495983
1691757641571548,-0.02696809,0.00193570,-0.00155063,10.27906132
1691757641575565,-0.02371839,0.00191959,-0.00138333,10.32722664
1691757641579585,-0.01982381,0.00429584,-0.00076386,10.33954811
1691757641583311,-0.00480321,0.08051901,-0.00363993,10.33111668
1691757641586016,0.01103875,0.09262347,-0.00505143,10.33442879
1691757641589755,-0.02842744,-0.09290311,0.00100511,10.51963043
1691757641596499,-0.03175537,-0.02832836,-0.00036707,10.40465736
1691757641597405,-0.03002339,-0.00772607,-0.00064727,10.39604378
1691757641602249,-0.02465625,-0.01431967,-0.00014552,10.41220665
1691757641604583,0.00869894,0.08883519,-0.00378452,10.40740871
1691757641608117,-0.03988088,-0.01735217,-0.00019312,10.46313286
1691757641611610,-0.03617911,-0.00253180,-0.00037008,10.48334122
1691757641615640,-0.02845653,0.00020216,-0.00026774,10.43415546
1691757641619936,-0.03977232,-0.00723220,0.00030251,10.42128277
1691757641622309,-0.04273167,-0.00379808,0.00050787,10.43607330
1691757641626621,-0.03275348,-0.00053304,0.00060224,10.48157024
1691757641630550,-0.00208452,0.07902285,-0.00205564,10.45755100
1691757641634596,-0.00071210,0.07658978,-0.00243779,10.35683441
1691757641636987,-0.03803633,-0.04974349,0.00113480,10.46103668
1691757641640718,-0.02511227,-0.05213726,0.00128962,10.46598434
1691757641644620,-0.02559962,-0.04503575,0.00120284,10.48289299
1691757641648930,-0.00915621,0.04982943,-0.00203058,10.36675358
1691757641652132,-0.04534586,-0.06508330,0.00116865,10.46711445
1691757641655891,-0.03443376,-0.04252031,0.00081112,10.40548038
1691757641659588,-0.02789567,-0.02710017,0.00070024,10.41464329
1691757641663684,-0.01227534,0.06244902,-0.00224208,10.35311127
1691757641666056,-0.04671106,-0.04343644,0.00103033,10.40490150
1691757641669753,-0.03420085,-0.01995982,0.00061664,10.33909225
1691757641673552,-0.02706718,-0.02203270,0.00091637,10.32776737
1691757641678604,-0.00425439,0.06442826,-0.00175519,10.30351830
1691757641681724,-0.03690017,-0.02919868,0.00115198,10.34760189
1691757641684313,-0.02731882,-0.03338474,0.00138318,10.30818081
1691757641689800,-0.02577477,-0.02712384,0.00145433,10.29876423
1691757641693428,-0.00424447,0.03608273,-0.00044430,10.27460289
1691757641695733,-0.02990422,-0.05816529,0.00256396,10.37421227
1691757641699825,-0.01695640,-0.05583503,0.00272397,10.34007549
1691757641703444,-0.01579124,-0.04206277,0.00252362,10.31711102
1691757641706020,-0.02111191,-0.01980491,0.00198049,10.25910378
1691757641709765,-0.02004139,-0.10804634,0.00497462,10.37713242
1691757641714784,-0.01615918,-0.04634610,0.00363816,10.30641556
1691757641717782,-0.01684619,-0.02310831,0.00314633,10.29353428
1691757641720598,-0.02227992,-0.01273721,0.00298131,10.23803520
1691757641725350,-0.02359465,-0.01979632,0.00342631,10.24906826
1691757641727878,-0.01725973,-0.02358513,0.00376659,10.26252365
1691757641731887,-0.01434407,-0.01385070,0.00370283,10.26317692
1691757641735110,-0.01884003,-0.00521916,0.00371639,10.23199940
1691757641738882,0.01462997,0.04012312,0.00224450,10.20437336
1691757641742592,-0.00762415,-0.04794429,0.00501079,10.24952602
1691757641745928,-0.01265878,-0.01656353,0.00453496,10.23828506
1691757641749812,-0.01050184,-0.01547214,0.00500548,10.24185658
1691757641753542,-0.00895539,-0.01141095,0.00517272,10.23039532
1691757641757395,0.02379626,0.03455983,0.00371445,10.19955158
1691757641760667,-0.00210494,-0.05204179,0.00666372,10.25440598
1691757641765417,-0.00605824,-0.02500042,0.00630672,10.22637463
1691757641768736,0.00122326,-0.01979001,0.00657193,10.24421406
1691757641772056,0.02117358,0.04101560,0.00472413,10.23890305
1691757641776453,0.02439326,0.04692697,0.00428889,10.19826984
1691757641780127,0.00122497,-0.06180165,0.00797233,10.25161362
1691757641782369,-0.00138927,-0.02285697,0.00717255,10.22028065
1691757641786124,0.00668644,-0.02041487,0.00716279,10.22863865
1691757641790737,0.00532567,-0.01725129,0.00731230,10.24096870
1691757641794907,0.02371225,0.02998512,0.00561966,10.22065353
1691757641797814,0.04383278,0.04002047,0.00448203,10.19161320
1691757641800710,0.01703281,-0.06054027,0.00743294,10.29182243
1691757641804293,0.00667347,-0.02805649,0.00666502,10.26346970
1691757641807922,0.01624085,-0.03582865,0.00685552,10.26584339
1691757641811700,0.01932010,-0.02444465,0.00655122,10.28758049
1691757641820506,0.03454294,0.03653424,0.00460255,10.25555515
1691757641820674,0.00963076,-0.09425220,0.00824254,10.36363792
1691757641822615,0.01180023,-0.03212644,0.00661165,10.29204845
1691757641826157,0.01370952,-0.02020240,0.00627292,10.27008343
1691757641829799,0.00860721,-0.00556945,0.00587213,10.27935410
1691757641835445,0.03980445,0.04313998,0.00406919,10.26481056
1691757641839354,0.01993069,-0.06534488,0.00703481,10.35235500
1691757641841611,0.01193176,-0.01704727,0.00570100,10.29481506
1691757641844211,0.01302569,-0.00317051,0.00535376,10.29318047
1691757641848038,0.01472663,-0.00274329,0.00530580,10.27245903
1691757641853638,0.04972642,0.07062715,0.00248533,10.28912354
1691757641856249,0.01880277,0.01419175,0.00410571,10.31665897
1691757641859494,0.01671268,-0.00982202,0.00482728,10.32132721
1691757641862784,0.01911559,0.00046951,0.00450530,10.31538773
1691757641866828,0.02225789,-0.00154433,0.00452139,10.30198002
1691757641870554,0.05374554,0.05854552,0.00249019,10.27261353
1691757641873850,0.02581567,-0.05862850,0.00602695,10.37877560
1691757641879129,0.01970882,-0.00660009,0.00462170,10.31747723
1691757641880875,0.02361861,0.00468061,0.00434235,10.32444572
1691757641884801,0.01816673,0.00826176,0.00427970,10.29599190
1691757641889027,0.05144160,0.07258686,0.00172299,10.25383186
1691757641891555,0.02358896,-0.00353139,0.00387442,10.32227802
1691757641899293,0.02262750,-0.00020195,0.00378932,10.31344604
1691757641899815,0.01587921,0.00576205,0.00366233,10.30288887
1691757641902837,0.04836234,0.07595767,0.00121096,10.28227329
1691757641907546,0.02636990,-0.04740639,0.00467026,10.36336803
1691757641910646,0.02664790,-0.02185248,0.00404793,10.33597946
1691757641913556,0.02336041,-0.01294925,0.00390011,10.32449722
1691757641917874,0.01899240,-0.00347476,0.00353588,10.30285549
1691757641921517,0.04834587,0.05232507,0.00096231,10.26771259
1691757641924914,0.02950773,-0.05748222,0.00418975,10.35798073
1691757641929164,0.01378479,-0.00475934,0.00274806,10.28819180
1691757641931929,0.01385623,0.00927528,0.00225064,10.29229450
1691757641935678,0.04765857,0.07095738,-0.00008121,10.29132175
1691757641938950,0.06314993,0.08786265,-0.00138440,10.23937893
1691757641942974,0.01455865,0.00372001,0.00119191,10.27133369
1691757641946836,0.00929509,0.01419404,0.00084613,10.26463127
1691757641950906,0.01718808,0.01130655,0.00093526,10.28461838
1691757641954199,0.03611955,0.05934135,-0.00072222,10.28256607
1691757641958262,0.04961012,0.08722678,-0.00243594,10.24649239
1691757641960839,0.02168175,-0.01486449,0.00058729,10.30557728
1691757641964303,0.01881359,-0.01177237,0.00062279,10.29009819
1691757641969417,0.01204467,0.00114277,0.00038594,10.28381920
1691757641972872,0.02776480,0.05201391,-0.00171266,10.24547672
1691757641977810,0.01748489,-0.06076479,0.00165038,10.35499191
1691757641980087,0.01241864,-0.01343069,0.00066343,10.29518604
1691757641983799,0.00137612,0.00852185,0.00026916,10.27371979
1691757641987660,0.00102878,0.01605127,0.00018245,10.27495575
1691757641990309,0.03856669,0.06115007,-0.00164860,10.25612164
1691757641994448,0.02811329,0.10422736,-0.00327665,10.30826569
1691757641997870,0.00568973,-0.00213929,-0.00005191,10.29743958
1691757642000719,0.00623990,-0.00473787,0.00004924,10.29743385
1691757642004295,0.01461846,-0.01538866,0.00058454,10.29942894
1691757642010167,0.02492345,0.03954539,-0.00159518,10.25789356
1691757642013565,-0.00181217,-0.00300071,-0.00031652,10.27338505
1691757642015953,0.00283480,-0.01719256,0.00017588,10.29718399
1691757642019839,0.00647960,-0.01462647,0.00025157,10.30314350
1691757642022313,-0.00295371,0.00130608,0.00006125,10.29510212
1691757642026144,0.02396391,0.06263819,-0.00225009,10.29335117
1691757642029925,0.00476133,-0.05952701,0.00152672,10.37996483
1691757642035004,-0.00230518,-0.01191604,0.00045187,10.29459381
1691757642038064,-0.01011551,0.00798345,0.00026300,10.27550507
1691757642040546,-0.01031141,0.01296336,0.00029846,10.26863575
1691757642045050,0.04127301,0.08121254,-0.00249941,10.27111912
1691757642047861,0.00034587,-0.01959259,0.00112277,10.32813454
1691757642051873,-0.01412906,0.00276481,0.00073123,10.29163933
1691757642057496,-0.00904927,0.00561961,0.00086736,10.29514313
1691757642058832,0.01822412,0.06470530,-0.00121878,10.30882740
1691757642065052,0.02232269,0.07282261,-0.00187157,10.26542854
1691757642066647,-0.01561756,-0.02081371,0.00113923,10.32457256
1691757642069886,-0.01417849,-0.01199631,0.00097956,10.31407738
1691757642073962,-0.00408055,-0.01264160,0.00131125,10.31847954
1691757642076993,0.00375506,0.04616131,-0.00073567,10.30283356
1691757642080962,0.01291668,0.05794325,-0.00183357,10.27634144
1691757642085015,-0.00659392,-0.06786427,0.00217770,10.35235214
1691757642089683,-0.02031181,-0.01707710,0.00077105,10.31597328
1691757642091548,-0.02123068,-0.01136709,0.00084060,10.32875919
1691757642095167,-0.00434903,0.03726839,-0.00072076,10.31464958
1691757642099023,0.00664011,0.05367778,-0.00177850,10.27961349
1691757642102979,-0.02070018,-0.04194761,0.00136864,10.33847046
1691757642107031,-0.03108140,-0.01494007,0.00085752,10.31060982
1691757642109720,-0.03018192,-0.00833318,0.00088034,10.30088711
1691757642113680,-0.02905013,-0.00560602,0.00098200,10.27915764
1691757642117052,-0.00255820,0.04921148,-0.00073348,10.27942276
1691757642120961,-0.02502072,-0.05356845,0.00283125,10.35069370
1691757642125053,-0.02992002,-0.01620486,0.00192356,10.32189083
1691757642127859,-0.02538912,-0.00997462,0.00202476,10.32271099
1691757642131854,-0.02985222,-0.00997336,0.00226404,10.30255413
1691757642135973,-0.00140478,0.04860127,0.00025405,10.28347397
1691757642139489,-0.02683925,-0.01790524,0.00247538,10.35177708
1691757642142401,-0.02761399,-0.01762635,0.00270938,10.33450222
1691757642146192,-0.03139658,-0.01019680,0.00287144,10.35506248
1691757642150141,-0.00829867,0.04391098,0.00117995,10.33113384
1691757642154067,-0.01197866,0.08004268,-0.00023447,10.37472630
1691757642157870,-0.03030535,-0.04058648,0.00339301,10.37125492
1691757642160745,-0.03809291,-0.01907886,0.00289600,10.32808113
1691757642164293,-0.03678490,-0.00907683,0.00270400,10.32225704
1691757642169320,-0.01748614,0.03562396,0.00118616,10.32331276
1691757642173021,-0.00961193,0.04058498,0.00093782,10.29560280
1691757642176310,-0.03730547,-0.05431961,0.00426001,10.35921192
1691757642178637,-0.03817010,-0.02163003,0.00356163,10.32124138
1691757642182387,-0.02878794,-0.02595198,0.00405741,10.33212090
1691757642186056,-0.03512573,-0.01044180,0.00393665,10.29364491
1691757642190010,-0.00825499,0.05673515,0.00168663,10.28714657
1691757642194460,-0.03045433,-0.02641160,0.00446622,10.34632683
1691757642197912,-0.02884647,-0.02109900,0.00492885,10.34059429
1691757642200713,-0.03723427,-0.01048433,0.00513191,10.31332493
1691757642204346,-0.01594297,0.04921434,0.00322199,10.29434967
1691757642208460,-0.03104886,-0.06002231,0.00671602,10.34613991
1691757642213534,-0.03312799,-0.02280975,0.00597560,10.30709171
1691757642215972,-0.03977795,-0.00878773,0.00572543,10.30582619
1691757642219032,-0.03740545,-0.01078132,0.00595823,10.29509163
1691757642224378,-0.00677777,0.03559986,0.00453135,10.27531433
1691757642226453,-0.03130428,-0.03087240,0.00692011,10.31653023
1691757642230167,-0.03817596,-0.01140969,0.00681042,10.28928947
1691757642234350,-0.03466532,-0.01296123,0.00725276,10.29050446
1691757642236980,-0.01335138,0.03650424,0.00571599,10.28212070
1691757642241097,-0.02011223,0.07676443,0.00419312,10.31358719
1691757642245171,-0.03323863,-0.00935271,0.00713294,10.29830647
1691757642247881,-0.03200829,-0.01222565,0.00760244,10.29028702
1691757642252301,-0.02891424,-0.00716706,0.00777197,10.28403091
1691757642255155,-0.01354836,0.03322173,0.00664798,10.26617908
1691757642259531,-0.00055383,0.03391295,0.00648759,10.23432255
1691757642263759,-0.02184316,-0.05871539,0.00928324,10.28128624
1691757642268029,-0.02767374,-0.02208288,0.00845905,10.27020645
1691757642269772,-0.02658821,-0.01610494,0.00873779,10.26822281
1691757642273288,-0.01597067,0.02012883,0.00747370,10.25434399
1691757642277159,0.00527134,0.04271484,0.00651178,10.22295380
1691757642281094,-0.02125232,-0.04235872,0.00950026,10.25924301
1691757642286205,-0.02656405,-0.01271044,0.00901089,10.25065517
1691757642288167,-0.02486121,-0.00633102,0.00902320,10.24895191
1691757642295476,-0.02215390,-0.00249064,0.00904718,10.24178505
1691757642295637,0.00660004,0.04438473,0.00740228,10.21763325
1691757642299116,-0.01638873,-0.03190926,0.01001681,10.24879551
1691757642303270,-0.01963515,-0.01025251,0.00967832,10.24243641
1691757642307413,-0.01940750,-0.00350855,0.00965598,10.24571133
1691757642309752,-0.00012203,0.02644828,0.00861811,10.23671150
1691757642313695,0.01909682,0.04831060,0.00763224,10.19669819
1691757642321088,-0.00672240,-0.04869078,0.01038346,10.24473763
1691757642321265,-0.01362312,-0.01881343,0.00957300,10.23996353
1691757642325214,-0.01465859,-0.01213157,0.00955623,10.23304176
1691757642327830,-0.01405545,-0.00595210,0.00942690,10.22992802
1691757642331999,0.01524626,0.04120418,0.00752601,10.20243645
1691757642335464,0.03353138,0.05027382,0.00681901,10.16053104
1691757642339743,-0.00475542,-0.03566304,0.00950892,10.21188068
1691757642342383,-0.01051155,-0.00946794,0.00872543,10.21875572
1691757642346218,-0.00742497,-0.00932376,0.00874089,10.22290802
1691757642351030,-0.00793374,-0.00343474,0.00870807,10.22142124
1691757642354304,0.02506640,0.05385484,0.00648451,10.19393158
1691757642356897,0.01312709,0.06173205,0.00537119,10.23339081
1691757642364446,0.00357575,-0.02217196,0.00776762,10.23534966
1691757642364639,-0.00736434,-0.00557926,0.00732751,10.22899246
1691757642368240,-0.00816885,-0.00170454,0.00715097,10.23054218
1691757642372795,0.00259453,-0.00901210,0.00728128,10.23019505
1691757642375729,0.03614777,0.03857300,0.00540490,10.19469070
1691757642378765,0.05022555,0.05827571,0.00381747,10.15126705
1691757642382456,0.01237173,-0.04645716,0.00668546,10.22124386
1691757642386180,0.00415590,-0.01989327,0.00586537,10.23465252
1691757642390689,-0.00180143,-0.00823092,0.00549993,10.23441124
1691757642394481,-0.00449879,-0.00463780,0.00536273,10.23287868
1691757642396885,0.03971141,0.04871775,0.00303586,10.21308613
1691757642400705,0.00458131,-0.00101496,0.00437869,10.23365307
1691757642404714,-0.00183458,-0.00790921,0.00454417,10.24051380
1691757642408185,0.00186301,-0.01196156,0.00459293,10.23592663
1691757642413916,0.00751466,-0.00936628,0.00446823,10.24440289
1691757642414941,0.00529147,0.00061613,0.00415680,10.23631763
1691757642419292,0.05731783,0.07506648,0.00134961,10.21362972
1691757642422383,0.01841797,-0.02585855,0.00432551,10.26854992
1691757642426001,0.00673780,-0.00915273,0.00383779,10.25546074
1691757642429699,0.00468419,-0.00095872,0.00366327,10.25288486
1691757642433435,0.00205633,0.00073409,0.00354383,10.24622345
1691757642443672,0.05791743,0.04692934,0.00141328,10.22449398
1691757642444016,0.04301694,0.07328227,-0.00006344,10.25865936
