timestamp,roll,pitch,yaw,norm_thrust
1704712213192892,0.07414851,0.17508648,0.05242571,6.27964306
1704712213250875,-0.13336295,-0.44520390,0.04420368,10.68564987
1704712213257040,-0.13744286,-0.45371684,0.04370970,10.40926361
1704712213262880,-0.14296004,-0.44355291,0.04292002,10.14969254
1704712213268897,-0.13579923,-0.42903328,0.04257447,9.86812305
1704712213274871,-0.11830069,-0.40235749,0.04267237,9.59629726
1704712213280834,-0.10615139,-0.35997668,0.04181596,9.32382870
1704712213290824,-0.06495185,-0.24836558,0.03521506,8.84780025
1704712213296853,-0.03161515,-0.14593557,0.03292808,8.56249619
1704712213302866,0.01266010,-0.02852651,0.03162991,8.27126408
1704712213306865,0.04265297,0.05342487,0.03105019,8.09269333
1704712213314825,0.10171437,0.20343809,0.03033570,7.79268551
1704712213318879,0.12921900,0.26888955,0.02987383,7.66739321
1704712213326861,0.16999854,0.37070149,0.02767771,7.48510218
1704712213332917,0.18827613,0.41976050,0.02585087,7.40995121
1704712213338890,0.19619896,0.43596262,0.02387524,7.38115168
1704712213346850,0.19219154,0.41096002,0.02109625,7.40249395
1704712213352848,0.17835398,0.36397272,0.01897966,7.45400095
1704712213358858,0.15567711,0.29114813,0.01678615,7.54589558
1704712213364852,0.12442527,0.20471421,0.01488710,7.65581512
1704712213370838,0.08609612,0.10601711,0.01391137,7.75940895
1704712213376921,0.04855246,0.00423658,0.01331697,7.87132454
1704712213382914,0.01839105,-0.07327276,0.01274375,7.93228817
1704712213388870,-0.01737740,-0.15040752,0.01269636,7.90395546
1704712213394875,-0.06695570,-0.24304676,0.01236634,7.85230494
1704712213400858,-0.12507674,-0.33686832,0.01210446,7.80456448
1704712213410846,-0.20465413,-0.43925971,0.01360568,7.75209141
1704712213415010,-0.23264712,-0.44782984,0.01413578,7.74444485
1704712213422874,-0.27199784,-0.42140746,0.01385129,7.70058775
1704712213428868,-0.28882569,-0.37070283,0.01357967,7.67688847
1704712213432868,-0.29096058,-0.32082903,0.01345030,7.68118143
1704712213438893,-0.27556515,-0.23592919,0.01299352,7.70240593
1704712213446867,-0.22412300,-0.10822253,0.01352094,7.69778967
1704712213452925,-0.16978203,0.00482949,0.01431200,7.69004250
1704712213458922,-0.10719218,0.11156366,0.01503604,7.67908764
1704712213464943,-0.04082883,0.20572424,0.01587997,7.65084124
1704712213472925,0.05441240,0.31097883,0.01587846,7.63348436
1704712213478909,0.12637135,0.36722970,0.01550325,7.63811111
1704712213484920,0.19334781,0.39801776,0.01471188,7.65288448
1704712213490839,0.24703553,0.39806584,0.01390746,7.66404867
1704712213496868,0.28823119,0.37024289,0.01294871,7.70589590
1704712213503035,0.31268859,0.31152511,0.01160573,7.76269007
1704712213508889,0.31735364,0.23353398,0.01032272,7.81452751
1704712213514868,0.30262581,0.13778128,0.00863923,7.89346838
1704712213520871,0.27012938,0.02769168,0.00722688,7.97952127
1704712213526901,0.22302300,-0.08723957,0.00607899,8.05057430
1704712213536908,0.11159429,-0.22929955,0.00494006,8.13850212
1704712213540928,0.05780667,-0.27132785,0.00607712,8.12820816
1704712213548867,-0.07065570,-0.34150594,0.00511513,8.06833649
1704712213554891,-0.17373973,-0.37896755,0.00571929,8.03681946
1704712213560855,-0.25804776,-0.39271754,0.00714026,8.02702427
1704712213566830,-0.31709874,-0.38241154,0.00812417,7.99689960
1704712213572836,-0.36104202,-0.32906106,0.00799570,7.97180843
1704712213576873,-0.38351709,-0.27411497,0.00789545,7.95729589
1704712213584936,-0.39764288,-0.15839715,0.00574541,7.95285130
1704712213592854,-0.36652586,-0.05305845,0.00635994,7.93753147
1704712213598920,-0.30949211,0.05603921,0.00700668,7.93654966
1704712213604863,-0.23532820,0.15705492,0.00763079,7.94659853
1704712213610869,-0.15180221,0.23088971,0.00947635,7.93352556
1704712213616836,-0.05371594,0.30409029,0.01073769,7.93933105
1704712213623018,0.05158421,0.36119863,0.01182379,7.96061182
1704712213628901,0.14344692,0.38036895,0.01355420,7.97442961
1704712213634888,0.23332620,0.37999517,0.01431961,8.00954342
1704712213640853,0.31379360,0.36245328,0.01392493,8.06081867
1704712213646901,0.37668321,0.32049507,0.01287880,8.11276817
1704712213652916,0.41906196,0.25450242,0.01127576,8.18456841
1704712213658900,0.43743983,0.17309240,0.00938660,8.25990200
1704712213668848,0.40877593,0.02104042,0.00511425,8.38187504
1704712213674848,0.35879642,-0.07432217,0.00434977,8.46049786
1704712213680836,0.28198728,-0.15660661,0.00339905,8.49036503
1704712213686894,0.18320476,-0.21919152,0.00306956,8.50335693
1704712213692858,0.07427309,-0.26190645,0.00232110,8.49550629
1704712213698850,-0.04091115,-0.28810945,0.00148816,8.47977066
1704712213704867,-0.15183008,-0.29926938,0.00141699,8.45268059
1704712213708888,-0.21983641,-0.29177225,0.00232001,8.44211578
1704712213716875,-0.32755008,-0.24400572,0.00264930,8.42676735
1704712213724853,-0.41696584,-0.16148224,0.00236039,8.39925385
1704712213730858,-0.46427959,-0.08712289,0.00239214,8.39091206
1704712213736899,-0.48372167,-0.01311573,0.00248946,8.40009689
1704712213742880,-0.47523031,0.06195676,0.00289165,8.40447044
1704712213748837,-0.44213548,0.14299276,0.00308579,8.40319633
1704712213754878,-0.37916368,0.21962881,0.00321005,8.42956543
1704712213760919,-0.29612380,0.26893780,0.00417259,8.45658398
1704712213766895,-0.20320389,0.29929692,0.00496541,8.47362232
1704712213772882,-0.09957764,0.31959695,0.00574922,8.52488327
1704712213778914,0.00180460,0.31701833,0.00706025,8.58916759
1704712213784874,0.09098309,0.28790301,0.00801140,8.63844967
1704712213790868,0.17468098,0.24861044,0.00749006,8.70768452
1704712213796945,0.24515088,0.19892703,0.00651932,8.78569412
1704712213806898,0.31208080,0.09464315,0.00411672,8.89552879
1704712213812885,0.31300396,0.03009512,0.00430316,8.93978500
1704712213818891,0.29688445,-0.03681126,0.00360430,8.95108891
1704712213824856,0.27017844,-0.10761733,0.00198855,8.93831635
1704712213830869,0.23063028,-0.16148242,0.00063056,8.94017506
1704712213836965,0.17449901,-0.19849715,0.00000871,8.95382118
1704712213842867,0.11116255,-0.21859077,0.00066049,8.96148491
1704712213848952,0.03982003,-0.21505843,0.00107004,8.97512436
1704712213854920,-0.03722452,-0.19763471,0.00109477,8.98395824
1704712213862910,-0.14157741,-0.16040644,0.00078376,8.99496365
1704712213868871,-0.21207452,-0.12260728,0.00096870,9.01047707
1704712213874866,-0.26756912,-0.08398151,0.00068798,9.02474213
1704712213880893,-0.29865181,-0.03985232,-0.00012754,9.08739948
1704712213886870,-0.31003228,-0.00713892,-0.00082910,9.09222031
1704712213892909,-0.31121212,0.04435029,-0.00161232,9.10354805
1704712213898898,-0.29628175,0.09989233,-0.00237400,9.11726093
1704712213904895,-0.26565951,0.14311205,-0.00237894,9.12288761
1704712213910861,-0.21927287,0.17755580,-0.00191500,9.15785694
1704712213916900,-0.16056544,0.19795264,-0.00123442,9.20236397
1704712213922889,-0.10217036,0.20094876,-0.00044712,9.23316288
1704712213928893,-0.04088083,0.19377887,0.00013725,9.28500366
1704712213937091,0.04208133,0.16790928,0.00056541,9.34589958
1704712213944886,0.11063762,0.12790060,-0.00019740,9.41119194
1704712213950849,0.15069292,0.09127650,-0.00111174,9.47272205
1704712213956995,0.17855285,0.05067068,-0.00216787,9.53537464
1704712213962872,0.18952063,0.01380577,-0.00310882,9.57960987
1704712213968875,0.19141100,-0.02064777,-0.00391178,9.63972759
1704712213974966,0.18136075,-0.05349591,-0.00470982,9.69689846
1704712213978898,0.16551456,-0.07409124,-0.00483899,9.72677135
1704712213986997,0.12399144,-0.10661173,-0.00433421,9.78340244
1704712213994952,0.07124716,-0.12385045,-0.00355282,9.83045292
1704712214000836,0.02732074,-0.12723750,-0.00348669,9.86884785
1704712214006902,-0.01963167,-0.12537758,-0.00396229,9.88685894
1704712214012855,-0.06284525,-0.10838237,-0.00432503,9.91686535
1704712214018977,-0.09877445,-0.08254427,-0.00485967,9.94285488
1704712214024927,-0.12550049,-0.05600993,-0.00537363,9.94923592
1704712214030908,-0.14202651,-0.02137434,-0.00578326,9.97032928
1704712214036897,-0.14837341,0.01581007,-0.00640262,9.99048710
1704712214042897,-0.14545499,0.04829871,-0.00689992,9.99292946
1704712214048909,-0.13395603,0.08202921,-0.00762942,10.01328564
1704712214058926,-0.09767579,0.11935627,-0.00890837,10.02017117
1704712214064914,-0.06829886,0.13629797,-0.00908878,10.03573895
1704712214070863,-0.03671732,0.14513041,-0.00864908,10.04803467
1704712214076904,-0.00536999,0.14499606,-0.00784151,10.05620289
1704712214082905,0.02192474,0.13538234,-0.00679615,10.04473019
1704712214088881,0.04338816,0.12068031,-0.00570049,10.03173828
1704712214094888,0.05759388,0.10306006,-0.00492318,10.03611279
1704712214099907,0.06208267,0.08459438,-0.00466125,10.04414463
1704712214106906,0.05863000,0.05838532,-0.00461810,10.04015255
1704712214114948,0.04739703,0.02658777,-0.00463678,10.03037643
1704712214120841,0.03516657,0.00305642,-0.00441193,10.02691936
1704712214126942,0.01974373,-0.01958123,-0.00395737,10.00703239
1704712214132924,0.00268318,-0.02914448,-0.00355419,9.99607182
1704712214138841,-0.01464714,-0.03037864,-0.00309764,9.98508644
1704712214145033,-0.03031674,-0.03779908,-0.00276391,9.95915031
1704712214150879,-0.04069749,-0.03187040,-0.00273265,9.94476223
1704712214156908,-0.04755003,-0.02211098,-0.00298396,9.93130207
1704712214162871,-0.05263301,-0.01543523,-0.00324360,9.90651989
1704712214168916,-0.05482206,0.00040060,-0.00360206,9.89429283
1704712214178877,-0.05750814,0.02007633,-0.00499948,9.85605812
1704712214184901,-0.05667349,0.02575079,-0.00556269,9.82984924
1704712214190888,-0.05500690,0.02977299,-0.00592092,9.80536556
1704712214192896,-0.05427954,0.02996846,-0.00601096,9.79764175
1704712214200873,-0.03162731,0.04695416,-0.00659416,9.83166790
1704712214206937,-0.02104692,0.04802036,-0.00661040,9.82208824
1704712214214942,-0.00939251,0.04491051,-0.00661238,9.84756088
1704712214220833,-0.00488577,0.04047184,-0.00672075,9.84845066
1704712214226955,0.00172876,0.03431544,-0.00660034,9.86848927
1704712214230908,0.00809932,0.02854671,-0.00635790,9.87660885
1704712214240894,0.02449858,0.01734244,-0.00642473,9.90712929
1704712214246913,0.02909563,0.00894489,-0.00627421,9.91257572
1704712214252905,0.03697919,0.00880616,-0.00588234,9.93152618
1704712214258889,0.03949365,0.01182550,-0.00529668,9.94982529
1704712214264872,0.03903143,0.00734725,-0.00473186,9.95084381
1704712214270892,0.03552182,0.00645840,-0.00387427,9.96960258
1704712214276915,0.03070670,-0.00078497,-0.00282769,9.96732330
1704712214282926,0.02685798,-0.00473348,-0.00207867,9.98055077
1704712214288896,0.02409855,-0.00622257,-0.00157931,9.99339008
1704712214294908,0.01633048,-0.00818640,-0.00133414,10.00772667
1704712214304868,-0.00178196,-0.02445938,-0.00110113,10.01575851
1704712214306905,-0.00507195,-0.02951727,-0.00110578,10.03036594
1704712214316925,-0.01994440,-0.05030186,-0.00178488,10.04830360
1704712214322892,-0.02130667,-0.05923481,-0.00213897,10.07892704
1704712214328889,-0.02327167,-0.06224639,-0.00229002,10.11053562
1704712214334904,-0.02615982,-0.06508628,-0.00198755,10.11992836
1704712214340882,-0.02478045,-0.06233536,-0.00163797,10.14949894
1704712214346896,-0.02235629,-0.05568993,-0.00148251,10.17602253
1704712214348888,-0.02322118,-0.05509870,-0.00146079,10.17082691
1704712214358965,-0.01759236,-0.03182459,-0.00117590,10.19899178
1704712214360882,-0.01577915,-0.02487646,-0.00115756,10.21398544
1704712214370876,-0.00481078,-0.01281158,-0.00110804,10.21913052
1704712214378891,0.00738169,-0.00411467,-0.00104025,10.24506569
1704712214380875,0.00936549,-0.00373476,-0.00103835,10.23578453
1704712214390842,0.02086224,-0.00066333,-0.00141175,10.24763775
1704712214397022,0.02498475,-0.00532496,-0.00184675,10.25934410
1704712214402923,0.02249106,-0.01524751,-0.00181858,10.24841499
1704712214408943,0.02038834,-0.02367780,-0.00162964,10.25409889
1704712214414910,0.01666613,-0.03289554,-0.00165231,10.25352383
1704712214420876,0.01402411,-0.04503699,-0.00163791,10.23427200
1704712214426955,0.01187886,-0.05397665,-0.00157827,10.23180676
1704712214436923,0.00240725,-0.07640168,-0.00177066,10.21103477
1704712214442923,-0.00321999,-0.08694595,-0.00176954,10.21277142
1704712214448876,-0.00660497,-0.08857799,-0.00163664,10.21007919
1704712214454926,-0.01085382,-0.08913478,-0.00166143,10.19035149
1704712214460847,-0.01272248,-0.08579969,-0.00187299,10.19351196
1704712214466881,-0.01445866,-0.07757826,-0.00206625,10.19504261
1704712214472860,-0.01589272,-0.07151464,-0.00214502,10.17996120
1704712214478890,-0.01522032,-0.05810473,-0.00216080,10.18338203
1704712214485128,-0.01674926,-0.05124180,-0.00225535,10.19231987
1704712214490877,-0.02043597,-0.05076859,-0.00232047,10.18819427
1704712214498894,-0.02098096,-0.05960065,-0.00260585,10.21661091
1704712214504878,-0.02070688,-0.06187892,-0.00256743,10.21060848
1704712214510870,-0.01730259,-0.05914880,-0.00261436,10.22421837
1704712214516893,-0.01578859,-0.05372221,-0.00267789,10.24464893
1704712214522896,-0.01614787,-0.05207530,-0.00259769,10.24667835
1704712214528943,-0.01543205,-0.05080888,-0.00214168,10.27176285
1704712214534940,-0.01404736,-0.04775809,-0.00170683,10.27479839
1704712214540884,-0.00918647,-0.04004448,-0.00141960,10.29940319
1704712214546922,-0.00454144,-0.03448976,-0.00118804,10.32760239
1704712214552914,-0.00368737,-0.03060266,-0.00102145,10.33325577
1704712214562932,-0.00210088,-0.02471250,-0.00108805,10.36349773
1704712214564887,-0.00121922,-0.02154749,-0.00117905,10.37628365
1704712214574862,-0.00137578,-0.00590647,-0.00150124,10.37463856
1704712214580856,-0.00314559,0.01137986,-0.00163241,10.38911438
1704712214586884,-0.00736788,0.02310533,-0.00165271,10.40553951
1704712214592888,-0.01238849,0.02546744,-0.00191003,10.39940834
1704712214598886,-0.01824065,0.02493212,-0.00243769,10.41204166
1704712214604839,-0.02177205,0.02813368,-0.00283666,10.42054462
1704712214608887,-0.02487522,0.02896959,-0.00301110,10.42168617
1704712214616867,-0.03029952,0.03005870,-0.00319080,10.42489815
1704712214624864,-0.03455291,0.02834411,-0.00323303,10.42925549
1704712214630870,-0.03403726,0.02920468,-0.00336293,10.44341850
1704712214636921,-0.03170501,0.02716614,-0.00349545,10.46130371
1704712214642903,-0.03108345,0.02037778,-0.00374980,10.45753288
1704712214648832,-0.02730009,0.02153019,-0.00406162,10.47100925
1704712214655244,-0.02327601,0.02892601,-0.00444720,10.48142242
1704712214660897,-0.01919012,0.02733338,-0.00475865,10.47552299
1704712214666935,-0.01159292,0.02801927,-0.00514548,10.48679924
1704712214672922,-0.00233696,0.02328985,-0.00556780,10.47393990
1704712214678917,0.00717690,0.02455794,-0.00599781,10.47704220
1704712214684917,0.01527823,0.02682864,-0.00627934,10.47832108
1704712214694963,0.03001107,0.02442512,-0.00690513,10.45219612
1704712214700883,0.03507015,0.02238223,-0.00741409,10.45818329
1704712214706902,0.03817313,0.02077491,-0.00785101,10.45998764
1704712214712951,0.03986254,0.01756537,-0.00824996,10.44215393
1704712214718979,0.03883050,0.02264896,-0.00843739,10.44273567
1704712214724881,0.03513736,0.01975059,-0.00830543,10.44968987
1704712214730972,0.02903427,0.01621288,-0.00810327,10.43634892
1704712214737005,0.02111176,0.02129258,-0.00781456,10.44342613
1704712214742886,0.01399320,0.02902114,-0.00773786,10.45697498
1704712214748951,0.00940344,0.03182234,-0.00746529,10.45484161
1704712214756902,0.00961695,0.04660169,-0.00730182,10.49222755
1704712214762936,0.00856464,0.05338137,-0.00722820,10.49626637
1704712214768889,0.01256035,0.06684680,-0.00728228,10.51912403
1704712214774862,0.01661069,0.07046527,-0.00722255,10.52575207
1704712214780905,0.02259004,0.07568686,-0.00745768,10.55432701
1704712214786965,0.03228239,0.07928094,-0.00746103,10.57791996
1704712214792883,0.04018509,0.07868592,-0.00736341,10.58302689
1704712214798926,0.04795868,0.07734439,-0.00733042,10.61149883
1704712214805008,0.05134450,0.07315281,-0.00728626,10.63484383
1704712214810894,0.05051170,0.06364625,-0.00731360,10.63665104
1704712214820907,0.04766681,0.04282224,-0.00738605,10.66303539
1704712214822928,0.04758944,0.04106048,-0.00733375,10.67283630
1704712214832941,0.04093147,0.01346693,-0.00755973,10.67580700
1704712214838903,0.03219803,-0.00116336,-0.00743024,10.68900490
1704712214844954,0.02056009,-0.00820641,-0.00717734,10.69964027
1704712214850917,0.00488321,-0.01675856,-0.00677075,10.69239998
1704712214856903,-0.00475284,-0.02088059,-0.00669546,10.70082569
1704712214863088,-0.01400329,-0.01833002,-0.00669352,10.70742130
1704712214868879,-0.01931378,-0.01999576,-0.00658022,10.69868660
1704712214874882,-0.01949252,-0.01747533,-0.00656372,10.70724869
1704712214882903,-0.01638264,-0.01441931,-0.00621805,10.70019054
1704712214888937,-0.01077202,-0.00760977,-0.00611251,10.70122051
1704712214894968,-0.00406595,-0.00242822,-0.00602285,10.69686699
1704712214900851,0.00097153,-0.00030012,-0.00587324,10.68042946
1704712214906981,0.00739770,0.00124295,-0.00587583,10.67179775
1704712214912955,0.00925195,-0.00142388,-0.00600531,10.65199089
1704712214918927,0.01335082,-0.00556290,-0.00617072,10.64409351
1704712214924923,0.02166038,-0.00835702,-0.00608531,10.63430309
1704712214930896,0.02470862,-0.01465734,-0.00621665,10.61110020
1704712214940902,0.03024988,-0.01272991,-0.00635789,10.58477116
1704712214942900,0.03066321,-0.01372746,-0.00647391,10.58544636
1704712214952948,0.02873418,-0.01932818,-0.00708647,10.54815578
1704712214958873,0.02591579,-0.02097810,-0.00732470,10.54086113
1704712214964899,0.02393129,-0.01770142,-0.00730579,10.53261280
1704712214970885,0.01810383,-0.01663524,-0.00716555,10.51943970
1704712214976874,0.01201242,-0.01337998,-0.00684630,10.52377701
1704712214982902,0.00694656,-0.00473391,-0.00637641,10.53015041
1704712214989086,-0.00240198,-0.00264924,-0.00599190,10.53029060
1704712214994971,-0.00809866,0.00230410,-0.00567484,10.54892731
1704712215000954,-0.01708659,0.00473627,-0.00556118,10.57590771
1704712215008882,-0.02617954,0.00588598,-0.00591875,10.60338116
1704712215015017,-0.03149536,0.00782162,-0.00635080,10.63451958
1704712215020920,-0.03501966,0.00504876,-0.00643031,10.64982986
1704712215026871,-0.03789221,-0.00054402,-0.00629401,10.68294811
1704712215033049,-0.04046816,-0.01019015,-0.00613723,10.69930458
1704712215039217,-0.04188392,-0.01162717,-0.00587469,10.72602654
1704712215044909,-0.04074219,-0.01662509,-0.00533600,10.75783157
1704712215050914,-0.03853302,-0.02314936,-0.00477493,10.77043056
1704712215056936,-0.03715139,-0.02393260,-0.00441928,10.79658985
1704712215062935,-0.03688901,-0.02779692,-0.00433375,10.82252026
1704712215073000,-0.03236342,-0.02588616,-0.00422169,10.83807278
1704712215078947,-0.02846220,-0.02766382,-0.00422963,10.85956955
1704712215084894,-0.02531900,-0.02434909,-0.00406253,10.87673855
1704712215091003,-0.02410335,-0.02450932,-0.00438047,10.87634182
1704712215096934,-0.02384091,-0.01951914,-0.00456023,10.88701057
1704712215102883,-0.02508046,-0.01350232,-0.00471239,10.89177418
1704712215108928,-0.02484379,-0.01282740,-0.00459064,10.87976456
1704712215114943,-0.02691095,-0.01194581,-0.00447081,10.87794685
1704712215120867,-0.02510645,-0.00931377,-0.00457554,10.87106323
1704712215126934,-0.02564582,-0.01014428,-0.00461132,10.85234833
1704712215132972,-0.02485864,-0.00973128,-0.00448559,10.84137821
1704712215140934,-0.02328672,-0.00877236,-0.00432208,10.81967926
1704712215144885,-0.02334937,-0.00819138,-0.00412751,10.80571461
1704712215152916,-0.02162622,-0.00798839,-0.00416872,10.77840137
1704712215158829,-0.02390677,-0.01103796,-0.00421076,10.76145935
1704712215165099,-0.02575467,-0.01430439,-0.00426016,10.74485397
1704712215170967,-0.02747273,-0.01885463,-0.00430802,10.72259140
1704712215176940,-0.02600200,-0.01871762,-0.00434420,10.70950222
1704712215182934,-0.02350235,-0.01908836,-0.00446136,10.69951725
1704712215188957,-0.01799865,-0.02071691,-0.00468989,10.68150806
1704712215194903,-0.01015308,-0.02098465,-0.00483052,10.67749500
1704712215200913,-0.00192888,-0.01383209,-0.00494961,10.66989899
1704712215210910,0.00491309,-0.01168943,-0.00470889,10.65370560
1704712215216955,0.00972391,-0.00816712,-0.00480687,10.65240860
1704712215222946,0.01038631,-0.01123160,-0.00473765,10.65629578
1704712215228880,0.00960307,-0.01403200,-0.00457825,10.64727688
1704712215234914,0.00612912,-0.01695886,-0.00456274,10.65198326
1704712215241069,0.00190847,-0.02126124,-0.00438222,10.65421295
1704712215246910,-0.00314981,-0.02441771,-0.00419173,10.64857578
1704712215252940,-0.00576434,-0.02569361,-0.00417086,10.65352726
1704712215258943,-0.00434302,-0.02657817,-0.00429500,10.66027927
1704712215266930,-0.00535870,-0.02278962,-0.00433210,10.66036987
1704712215272934,-0.00454250,-0.02010090,-0.00423035,10.65462971
1704712215278890,-0.00344737,-0.01371420,-0.00415144,10.66178322
1704712215284986,-0.00249685,-0.00613468,-0.00420400,10.66481400
1704712215291091,-0.00462740,-0.00538122,-0.00424078,10.65970707
1704712215296945,-0.00525830,-0.00083223,-0.00435900,10.66297626
1704712215302925,-0.00382668,0.00325469,-0.00440330,10.66512394
1704712215309004,-0.00297886,0.00032129,-0.00425324,10.65426636
1704712215314942,0.00117115,0.00159616,-0.00416701,10.65055084
1704712215320897,0.00296537,-0.00051370,-0.00412583,10.64959049
1704712215328881,0.00550855,-0.00042248,-0.00405316,10.63442135
1704712215336943,0.00709974,-0.00606994,-0.00397171,10.62407589
1704712215342931,0.01156065,-0.00446674,-0.00404384,10.61608028
1704712215348961,0.01356092,-0.00728280,-0.00402270,10.59958553
1704712215354914,0.01475539,-0.00872823,-0.00396137,10.59404373
1704712215360906,0.01547675,-0.00729980,-0.00382028,10.58731174
1704712215366948,0.01321093,-0.01339839,-0.00374764,10.57271862
1704712215372898,0.01308514,-0.01959444,-0.00352610,10.56839561
1704712215379024,0.01077704,-0.01976937,-0.00340145,10.56510639
1704712215384934,0.01019423,-0.02655462,-0.00321374,10.55526161
1704712215388892,0.01308554,-0.02771898,-0.00330947,10.55077171
1704712215398919,0.01108838,-0.02401712,-0.00290752,10.55191326
1704712215404903,0.01335622,-0.01617887,-0.00252430,10.55450726
1704712215410902,0.01207124,-0.01178314,-0.00221822,10.54922962
1704712215416951,0.01528242,-0.00507438,-0.00200156,10.55531216
1704712215422995,0.01821795,0.00068430,-0.00199386,10.56648159
1704712215428914,0.01870780,0.00143261,-0.00193599,10.56785583
1704712215434930,0.02040614,0.01017195,-0.00194385,10.57579231
1704712215440935,0.02051236,0.01404340,-0.00202109,10.59049129
1704712215446927,0.01982296,0.01323408,-0.00194314,10.59084129
1704712215452933,0.01728887,0.01386104,-0.00196272,10.60137939
1704712215458960,0.01225890,0.00902147,-0.00190347,10.61752892
1704712215468932,0.00121364,-0.00019310,-0.00173907,10.62193012
1704712215474960,-0.00756271,-0.00775488,-0.00182477,10.63836861
1704712215480894,-0.01527451,-0.01134563,-0.00189445,10.64862156
1704712215486932,-0.02157823,-0.01584414,-0.00197417,10.64777184
1704712215492948,-0.02396586,-0.01641485,-0.00186156,10.65670395
1704712215498898,-0.02334582,-0.01243645,-0.00138954,10.66156578
1704712215504924,-0.02310359,-0.01276377,-0.00111404,10.65304279
1704712215508953,-0.02134413,-0.01331114,-0.00120415,10.65021229
1704712215516992,-0.01429714,-0.01291239,-0.00123872,10.64143085
1704712215522925,-0.00968763,-0.00925923,-0.00124712,10.63741970
1704712215530879,-0.00376756,-0.00537887,-0.00114222,10.62198257
1704712215536999,-0.00205853,-0.00463795,-0.00114076,10.61420918
1704712215542993,-0.00059674,-0.00279058,-0.00121961,10.60447598
1704712215548921,0.00118552,-0.00438951,-0.00123746,10.58586311
1704712215554981,0.00218994,0.00153083,-0.00109444,10.57125568
1704712215558958,0.00177539,0.00677965,-0.00117049,10.55725098
1704712215566962,-0.00516286,0.01107636,-0.00128609,10.53614902
1704712215572907,-0.00948324,0.01843815,-0.00125294,10.52159977
1704712215578974,-0.01330259,0.01995744,-0.00124701,10.51459312
1704712215584969,-0.01785455,0.01555313,-0.00120782,10.49946117
1704712215590916,-0.02305374,0.01689782,-0.00126081,10.49377441
1704712215596928,-0.03066077,0.01320574,-0.00143186,10.48232937
1704712215606904,-0.03898547,0.00950152,-0.00196533,10.47387218
1704712215612991,-0.04399911,0.00162625,-0.00216443,10.47316647
1704712215614945,-0.04558708,-0.00271797,-0.00215776,10.47616673
1704712215624907,-0.04480279,-0.01550630,-0.00201924,10.46118641
1704712215630876,-0.04298008,-0.01975603,-0.00194602,10.45856762
1704712215636970,-0.03914134,-0.02160447,-0.00212218,10.45594025
1704712215642967,-0.03688829,-0.02439172,-0.00193114,10.44573021
1704712215646937,-0.03466782,-0.02157105,-0.00182337,10.44017124
1704712215654969,-0.02742795,-0.01187033,-0.00167426,10.43839645
1704712215660929,-0.02282220,-0.01375397,-0.00159415,10.42805958
1704712215668949,-0.01492282,-0.00974181,-0.00138478,10.41684628
1704712215674969,-0.01223434,-0.00952109,-0.00122566,10.41715336
1704712215680939,-0.01072899,-0.00746312,-0.00116131,10.41317368
1704712215686918,-0.01156270,-0.00606819,-0.00132324,10.40343571
1704712215692960,-0.01427456,-0.00513363,-0.00145598,10.40585423
1704712215699014,-0.01635757,-0.01001823,-0.00138223,10.40753365
1704712215704963,-0.01806182,-0.01447299,-0.00129895,10.40232754
1704712215710973,-0.02413118,-0.02146782,-0.00129510,10.41062355
1704712215716994,-0.02693244,-0.02823645,-0.00107135,10.41804218
1704712215722943,-0.03179787,-0.03280518,-0.00093353,10.41973495
1704712215728973,-0.03671780,-0.03723944,-0.00084505,10.43320656
1704712215734951,-0.03661485,-0.03761669,-0.00065727,10.44636822
1704712215744964,-0.03553760,-0.03474189,-0.00040573,10.45908546
1704712215750890,-0.03293812,-0.01921561,-0.00028465,10.46997261
1704712215756919,-0.03015283,-0.01199481,-0.00020952,10.47508240
1704712215762948,-0.02798465,-0.00510715,-0.00002742,10.48868847
1704712215768962,-0.02534030,-0.00029034,0.00006813,10.48768997
1704712215774926,-0.02002023,0.01425486,-0.00014395,10.50578690
1704712215780920,-0.01612200,0.01354747,-0.00021673,10.50282001
1704712215787107,-0.00863373,0.02359200,-0.00045620,10.50217915
1704712215792937,-0.00582977,0.02502638,-0.00041252,10.49513054
1704712215800961,-0.00072062,0.02432363,-0.00038624,10.50033379
1704712215806906,0.00039729,0.02105707,-0.00021102,10.49078846
1704712215812953,0.00157062,0.01608001,-0.00004039,10.49052143
1704712215818952,0.00251008,0.01255901,-0.00004724,10.48399448
1704712215824898,0.00315945,0.00440867,-0.00002011,10.47016907
1704712215830870,0.00186051,-0.00382167,-0.00024868,10.46484852
1704712215836964,0.00183684,-0.01215769,-0.00034959,10.45517921
1704712215842986,-0.00025086,-0.02105592,-0.00027852,10.43906593
1704712215848938,-0.00199602,-0.02365891,0.00002452,10.42981243
1704712215854950,-0.00239960,-0.02716654,0.00033801,10.42234516
1704712215860951,-0.00618218,-0.03188775,0.00030119,10.40859795
1704712215866938,-0.00956114,-0.03108260,0.00033074,10.40029049
1704712215872946,-0.01149171,-0.02886686,0.00027515,10.38237476
1704712215882963,-0.01060032,-0.01812765,0.00057808,10.37076092
1704712215888965,-0.00917542,-0.00687618,0.00065586,10.36384296
1704712215894968,-0.00923174,-0.00027145,0.00061678,10.36059093
1704712215900903,-0.00903191,0.00412001,0.00062710,10.34746265
1704712215906912,-0.00651265,0.01639283,0.00050625,10.33913422
1704712215912933,-0.00728995,0.02106884,0.00050616,10.32974243
1704712215918911,-0.00878816,0.02562080,0.00053988,10.33275795
1704712215925049,-0.00970365,0.02701887,0.00044197,10.33932877
1704712215928977,-0.01226408,0.02777309,0.00043014,10.34212399
1704712215938935,-0.01641717,0.02572595,0.00038207,10.35349941
1704712215944962,-0.01761650,0.02103741,0.00022625,10.35577106
1704712215950894,-0.02148795,0.01804834,0.00040878,10.36970425
1704712215956939,-0.02417547,0.01391808,0.00073579,10.38230991
1704712215962986,-0.02442536,0.00739198,0.00107110,10.38573551
1704712215969091,-0.02196457,0.00145669,0.00126021,10.40195084
1704712215974958,-0.02312073,-0.00184577,0.00137459,10.41427994
1704712215980929,-0.02389768,-0.01284097,0.00137338,10.41937637
1704712215986984,-0.02726990,-0.02337820,0.00126200,10.43306351
1704712215992936,-0.02966768,-0.03184615,0.00130043,10.43247986
1704712216002936,-0.03556512,-0.03270378,0.00155866,10.43599606
1704712216004960,-0.03635932,-0.03359117,0.00158848,10.44101906
1704712216014950,-0.03302370,-0.02413118,0.00161378,10.43507481
1704712216020955,-0.02801167,-0.02407340,0.00175366,10.41618538
1704712216026909,-0.02313809,-0.02491748,0.00174324,10.39572906
1704712216030926,-0.02172125,-0.02093395,0.00169138,10.38949585
1704712216038967,-0.01368799,-0.00672530,0.00160808,10.38079929
1704712216044940,-0.00700112,0.00502678,0.00138762,10.37553787
1704712216050974,-0.00233744,0.00891531,0.00127399,10.36063385
1704712216054994,0.00009115,0.01546694,0.00117231,10.36361408
1704712216064946,0.00762230,0.02398922,0.00127505,10.33818436
1704712216070939,0.00959754,0.02738898,0.00141144,10.33583546
1704712216076962,0.00758712,0.02957046,0.00156796,10.33138084
1704712216082945,0.00352942,0.02758481,0.00153926,10.31761742
1704712216088972,0.00333608,0.02795707,0.00156936,10.31309795
1704712216095153,0.00047902,0.02432439,0.00140608,10.31075668
1704712216100936,-0.00460905,0.01904251,0.00121537,10.30189323
1704712216106959,-0.00993417,0.01374528,0.00109426,10.30277729
1704712216112961,-0.01736405,0.00217728,0.00102022,10.30124187
1704712216118952,-0.02352395,-0.01021183,0.00114590,10.30965424
1704712216124975,-0.02696427,-0.01254814,0.00122148,10.31178570
1704712216134947,-0.03365321,-0.02313535,0.00133069,10.31519890
1704712216139081,-0.03489340,-0.02652310,0.00140252,10.32709599
1704712216146992,-0.03454524,-0.02461335,0.00156146,10.33235550
1704712216152918,-0.03379850,-0.02453066,0.00183502,10.33355331
1704712216158942,-0.03120923,-0.02358708,0.00214664,10.34367466
1704712216164951,-0.02872620,-0.01920927,0.00222361,10.35297680
1704712216170888,-0.02644940,-0.01786417,0.00231812,10.35385895
1704712216177108,-0.02043749,-0.00861069,0.00220810,10.35984039
1704712216182930,-0.01316207,-0.00042258,0.00235693,10.36869144
1704712216190921,-0.00633123,0.00656728,0.00236105,10.37453079
1704712216197003,0.00054636,0.01852831,0.00218384,10.38044930
1704712216202928,0.00649404,0.02286346,0.00198149,10.37986946
1704712216208942,0.01195989,0.02686060,0.00189531,10.38839149
1704712216214939,0.01745869,0.03198166,0.00193231,10.39202976
1704712216220911,0.02042316,0.03217887,0.00195863,10.38568115
1704712216226959,0.02349904,0.03276018,0.00181844,10.38989258
1704712216232975,0.02116438,0.02538075,0.00188786,10.38390350
1704712216238993,0.01764799,0.02538705,0.00209139,10.38182831
1704712216244943,0.01375451,0.02523093,0.00226294,10.38158417
1704712216251005,0.00614514,0.01794389,0.00241024,10.37193871
1704712216260900,-0.00749659,0.01779054,0.00230026,10.35896397
1704712216266970,-0.01707339,0.01287893,0.00241921,10.35449314
1704712216268949,-0.02059234,0.00869651,0.00243948,10.34742451
1704712216276943,-0.02459185,0.00620206,0.00227444,10.33675289
1704712216285004,-0.02622139,0.00093874,0.00223178,10.31925201
1704712216290992,-0.02669925,-0.00389645,0.00214072,10.30311298
1704712216296951,-0.02694969,-0.00282635,0.00206379,10.29227257
1704712216302868,-0.02486735,-0.00028330,0.00204332,10.28164864
1704712216306985,-0.02111210,0.00034020,0.00209559,10.27283382
1704712216314983,-0.01435314,-0.00139466,0.00213959,10.26088905
1704712216322978,-0.00970072,-0.00387988,0.00206456,10.24996471
1704712216328955,-0.00433672,-0.00830381,0.00194474,10.23417091
1704712216335033,-0.00010546,-0.01374761,0.00172445,10.22043705
1704712216340954,0.00395594,-0.01880180,0.00166621,10.20901394
1704712216346980,0.00627636,-0.02484987,0.00152659,10.19952011
1704712216353009,0.00655191,-0.02717547,0.00131134,10.19620609
1704712216356983,0.00754523,-0.02325582,0.00128798,10.21036339
1704712216364997,0.00725930,-0.01560225,0.00127999,10.23382282
1704712216370992,0.00718303,-0.01005129,0.00139928,10.24346447
1704712216376981,0.00519138,-0.00167669,0.00139315,10.26778984
1704712216382971,0.00352575,0.00350942,0.00137866,10.29270172
1704712216392998,-0.00037706,0.01106287,0.00127195,10.31709003
1704712216398971,-0.00330351,0.01416070,0.00119105,10.34260273
1704712216400944,-0.00416057,0.01468779,0.00121920,10.35482311
1704712216410925,-0.01037844,0.01062699,0.00139631,10.37967777
1704712216416968,-0.01396099,0.01303633,0.00157891,10.40179253
1704712216422932,-0.01679856,0.01347706,0.00183411,10.42287350
1704712216428953,-0.02240979,0.00952987,0.00201371,10.43321514
1704712216435003,-0.02532474,0.00988835,0.00213741,10.44940281
1704712216438953,-0.02688533,0.01119678,0.00223860,10.45666218
1704712216446892,-0.02468392,0.01332485,0.00233402,10.46563148
1704712216452966,-0.02048410,0.01576122,0.00253619,10.47189331
1704712216460949,-0.01520804,0.01757528,0.00263257,10.47074509
1704712216466966,-0.01065721,0.02199532,0.00259243,10.46798420
1704712216473030,-0.00762255,0.02018131,0.00268602,10.45724583
1704712216478981,-0.00342440,0.02285471,0.00251261,10.45279312
1704712216484990,0.00102289,0.02593989,0.00250985,10.44502735
1704712216490994,0.00303781,0.02088011,0.00257396,10.43223286
1704712216497000,0.00537716,0.01718697,0.00237055,10.42702866
1704712216502969,0.00633686,0.01314023,0.00211544,10.41851521
1704712216509081,0.00390626,0.00708337,0.00192366,10.40305233
1704712216514970,0.00039109,0.00092856,0.00183158,10.39562702
1704712216520940,-0.00484050,-0.00516468,0.00180985,10.38753033
1704712216530911,-0.01298755,-0.01392528,0.00180762,10.36800671
1704712216536969,-0.01860630,-0.02017688,0.00205782,10.36317444
1704712216542963,-0.02161316,-0.02348638,0.00227220,10.35839176
1704712216548966,-0.02370782,-0.02933761,0.00258933,10.34972763
1704712216554942,-0.02689092,-0.03522823,0.00261931,10.34814358
1704712216556973,-0.02694337,-0.03697001,0.00262175,10.34356308
1704712216566950,-0.02689514,-0.03863969,0.00272797,10.33870220
1704712216572947,-0.02566425,-0.03695665,0.00251923,10.33921623
1704712216578884,-0.02423496,-0.03369525,0.00225150,10.34005165
1704712216585096,-0.02369931,-0.03274133,0.00218776,10.33671951
1704712216588963,-0.02228741,-0.02932055,0.00224897,10.33710194
1704712216596961,-0.01649015,-0.01715314,0.00219454,10.34419346
1704712216604926,-0.01111251,-0.00993192,0.00219899,10.35008049
1704712216610941,-0.00773177,-0.00625511,0.00218977,10.35153389
1704712216616989,-0.00099299,0.00410641,0.00220619,10.35953331
1704712216622955,0.00615963,0.01138653,0.00224199,10.37070942
1704712216628953,0.00975900,0.01192177,0.00233477,10.37523842
1704712216635070,0.01021398,0.00969288,0.00254670,10.37930679
1704712216640948,0.00852171,0.00323919,0.00266601,10.37547588
1704712216646981,0.01195407,0.00248982,0.00276975,10.39132977
1704712216652973,0.01467395,0.00253698,0.00280923,10.40965748
1704712216659008,0.01893315,0.00181547,0.00277858,10.42659760
1704712216664959,0.02060676,-0.00357418,0.00274998,10.43258476
1704712216670960,0.02511732,-0.00330843,0.00289195,10.44577312
1704712216677010,0.02707798,-0.00331121,0.00284609,10.45541859
1704712216687002,0.02470261,-0.01123632,0.00289627,10.46055508
1704712216688968,0.02352110,-0.01200817,0.00293141,10.46590996
1704712216699056,0.01327907,-0.01988748,0.00286966,10.47315502
1704712216704956,0.00361148,-0.02575286,0.00274213,10.47028351
1704712216710936,-0.00352965,-0.02828032,0.00254666,10.47235203
1704712216716985,-0.01128847,-0.03030796,0.00236893,10.47324467
1704712216722965,-0.01704965,-0.03333620,0.00244115,10.46613693
1704712216728953,-0.01941283,-0.03236885,0.00259867,10.46402550
1704712216734974,-0.02108203,-0.02690346,0.00272528,10.46001720
1704712216740939,-0.02061032,-0.02335691,0.00290449,10.44878864
1704712216746898,-0.01769829,-0.01589466,0.00311117,10.44153786
1704712216750971,-0.01619180,-0.01007165,0.00308740,10.43454075
1704712216757039,-0.01279380,-0.00176054,0.00312306,10.42661667
1704712216762990,-0.01100930,0.00195462,0.00312501,10.41398907
1704712216772935,-0.00494696,0.01156009,0.00272918,10.40657425
1704712216778981,-0.00254699,0.01454737,0.00264202,10.40444088
1704712216785007,0.00016732,0.01208649,0.00258930,10.39602947
1704712216790947,0.00153650,0.00868159,0.00257801,10.39563370
1704712216796944,0.00191349,0.00253471,0.00241555,10.39683247
1704712216802961,0.00206189,-0.00430925,0.00237079,10.39388180
1704712216808967,0.00056087,-0.01042975,0.00231550,10.39997292
1704712216814968,-0.00286057,-0.01583839,0.00228183,10.40800667
1704712216820983,-0.00744430,-0.02174658,0.00243451,10.41100597
1704712216827023,-0.01197414,-0.02583852,0.00238654,10.42212009
1704712216832935,-0.01583176,-0.02924024,0.00228993,10.42670536
1704712216838987,-0.01905233,-0.02996840,0.00236748,10.43622780
1704712216845021,-0.02303356,-0.02891945,0.00231799,10.44651985
1704712216850945,-0.02584401,-0.02809716,0.00225207,10.44896507
1704712216857054,-0.02599935,-0.01987999,0.00225440,10.45455170
1704712216862984,-0.02644254,-0.01162576,0.00237048,10.46055889
1704712216869136,-0.02748816,-0.00643910,0.00241925,10.45984173
1704712216879038,-0.02244427,0.00737179,0.00250453,10.46612835
1704712216880944,-0.02070935,0.01090156,0.00259585,10.47045612
1704712216889023,-0.01284986,0.01781729,0.00281175,10.47195530
1704712216897035,-0.00371736,0.02505150,0.00316868,10.46946526
1704712216900998,-0.00049562,0.02657523,0.00322470,10.46825314
1704712216909038,0.00327130,0.02597252,0.00330038,10.46484947
1704712216914991,0.00613965,0.02534064,0.00326203,10.46398354
1704712216916968,0.00723279,0.02518263,0.00323741,10.46566868
1704712216926974,0.00637937,0.01214871,0.00320974,10.45842743
1704712216932982,0.00429441,0.00549832,0.00342657,10.45781994
1704712216937028,0.00248091,0.00049797,0.00367003,10.45633793
1704712216944993,-0.00088483,-0.01025421,0.00419911,10.45317459
1704712216950949,-0.00203748,-0.01276649,0.00436080,10.45143890
1704712216957075,-0.00467372,-0.01420899,0.00428045,10.45051003
1704712216962950,-0.00783299,-0.01621675,0.00420774,10.44491577
1704712216968960,-0.00993985,-0.01320321,0.00407125,10.44428444
1704712216974978,-0.01186150,-0.01025613,0.00396124,10.44510460
1704712216980947,-0.01358128,-0.00988866,0.00374846,10.44106960
1704712216987010,-0.01422098,-0.00517081,0.00345968,10.44231129
1704712216992945,-0.01775475,-0.00356007,0.00313048,10.43895626
1704712216998947,-0.02041660,0.00031300,0.00296661,10.44191456
1704712217005008,-0.02306594,0.00287893,0.00279207,10.44405365
1704712217011049,-0.02516555,0.00070377,0.00283862,10.44178200
1704712217016946,-0.02571615,0.00004743,0.00298984,10.44601059
1704712217020966,-0.02566668,-0.00101011,0.00301918,10.44679260
1704712217026975,-0.02596337,-0.00214324,0.00312534,10.45184231
1704712217034987,-0.02504794,-0.00534864,0.00307418,10.45433998
1704712217042945,-0.01986480,-0.00822461,0.00310320,10.45621014
1704712217048954,-0.01628900,-0.00918628,0.00322345,10.46096516
1704712217055025,-0.01325561,-0.01029893,0.00328327,10.46535873
1704712217060935,-0.01146720,-0.01411006,0.00345517,10.46522713
1704712217066939,-0.00831087,-0.01380430,0.00344735,10.47149658
1704712217072948,-0.00641558,-0.01782324,0.00332478,10.47171211
1704712217078961,-0.00435539,-0.01748550,0.00338040,10.47659683
1704712217085003,-0.00239637,-0.01576294,0.00332387,10.48042107
1704712217090926,-0.00140909,-0.01842152,0.00337617,10.47859383
1704712217096994,-0.00131390,-0.01558583,0.00335933,10.48117733
1704712217103105,-0.00296867,-0.01376886,0.00333886,10.48299789
1704712217108990,-0.00566810,-0.01151957,0.00339679,10.47932529
1704712217115029,-0.00722884,-0.00684531,0.00336610,10.47969151
1704712217120975,-0.01116406,-0.00245232,0.00323791,10.47985554
1704712217126950,-0.01503585,-0.00150827,0.00305450,10.47546577
1704712217132953,-0.01720382,0.00230039,0.00282503,10.47582054
1704712217138998,-0.01952425,0.00649279,0.00279835,10.47542000
1704712217144986,-0.02369550,0.00625420,0.00278972,10.46937656
1704712217151005,-0.02715858,0.00900897,0.00282678,10.46858883
1704712217157014,-0.02937946,0.01082584,0.00296577,10.46851158
1704712217163048,-0.03096874,0.01029123,0.00300529,10.46286201
1704712217168954,-0.03013972,0.01266519,0.00304993,10.46392345
1704712217175009,-0.02965217,0.01457155,0.00300900,10.46607113
1704712217180971,-0.02857715,0.01248493,0.00306231,10.46375179
1704712217186984,-0.02692284,0.01277958,0.00307792,10.46823692
1704712217192957,-0.02465356,0.00830307,0.00304917,10.46730328
1704712217199024,-0.02030945,0.00570726,0.00308122,10.46977806
1704712217205044,-0.01647595,0.00268134,0.00310385,10.47211933
1704712217210960,-0.01499866,-0.00335489,0.00307928,10.46929646
1704712217217007,-0.01615331,-0.00686987,0.00321759,10.47243977
1704712217223023,-0.01804922,-0.01054087,0.00311920,10.47647953
1704712217228990,-0.01926941,-0.01605096,0.00322247,10.47486210
1704712217234951,-0.02094949,-0.01773331,0.00319077,10.47886467
1704712217240974,-0.02228431,-0.01916097,0.00310295,10.48314571
1704712217250968,-0.02244662,-0.02231944,0.00292256,10.48228550
1704712217257011,-0.01884990,-0.01841081,0.00283951,10.48580647
1704712217260931,-0.01590025,-0.01732693,0.00285730,10.48682117
1704712217268991,-0.01175773,-0.01179548,0.00273226,10.48712826
1704712217270999,-0.01038812,-0.00796671,0.00274406,10.49032784
1704712217276983,-0.00780614,0.00088664,0.00261236,10.49322796
1704712217286962,-0.00351868,0.01078747,0.00250975,10.49020672
1704712217289052,-0.00329778,0.01344948,0.00256467,10.49316216
1704712217296987,-0.00113802,0.01786730,0.00255662,10.49218178
1704712217303020,-0.00047841,0.01887176,0.00281235,10.49360657
1704712217307000,-0.00136029,0.01854838,0.00293496,10.49203777
1704712217312989,-0.00286331,0.01463625,0.00330678,10.48697472
1704712217323029,-0.00817500,0.00841070,0.00336636,10.48761177
1704712217325141,-0.00948514,0.00768062,0.00330267,10.49027920
1704712217331139,-0.01381133,-0.00044144,0.00342670,10.48793602
1704712217340962,-0.02028746,-0.00688090,0.00349229,10.49459457
1704712217345211,-0.02262143,-0.00842082,0.00366154,10.49642944
1704712217350979,-0.02663021,-0.00849968,0.00367024,10.50257015
1704712217359013,-0.02825204,-0.00972985,0.00382774,10.50713539
1704712217362997,-0.02760975,-0.00914061,0.00392696,10.50931835
1704712217370970,-0.02584509,-0.00754204,0.00396663,10.51366138
1704712217377007,-0.02183958,-0.00606264,0.00438068,10.51898289
1704712217382983,-0.01804849,-0.00340561,0.00457901,10.52266979
1704712217386992,-0.01583453,-0.00314052,0.00476661,10.52233696
1704712217394960,-0.01013136,-0.00310724,0.00478183,10.51792431
1704712217401047,-0.00714889,0.00000229,0.00475912,10.51526356
1704712217407053,-0.00268320,-0.00143127,0.00476998,10.50617123
1704712217413018,-0.00087817,-0.00066677,0.00463036,10.50185776
1704712217418971,0.00013351,-0.00491066,0.00451204,10.49219704
1704712217425003,-0.00065533,-0.00722511,0.00460599,10.48867798
1704712217429120,-0.00020429,-0.00970330,0.00471293,10.48474407
1704712217435012,-0.00085975,-0.01117110,0.00478500,10.48409176
1704712217442980,-0.00115181,-0.01408773,0.00485321,10.48114967
1704712217449026,-0.00159400,-0.01463244,0.00472201,10.48402882
1704712217455021,-0.00279844,-0.01743505,0.00461093,10.48312569
1704712217460944,-0.00442004,-0.01585325,0.00450870,10.49042988
1704712217467014,-0.00562302,-0.01359030,0.00453638,10.49893856
1704712217470983,-0.00786983,-0.01382542,0.00462508,10.50277996
1704712217478962,-0.01232040,-0.01329158,0.00498934,10.51045227
1704712217485005,-0.01758413,-0.00980647,0.00524969,10.51879501
1704712217491074,-0.02216926,-0.00969407,0.00531343,10.51954269
1704712217496999,-0.02766215,-0.00719757,0.00511709,10.52585220
1704712217502985,-0.03192045,-0.00613998,0.00503165,10.53063774
1704712217510977,-0.03598841,-0.00838464,0.00503862,10.53086472
1704712217516984,-0.03633276,-0.00819538,0.00516572,10.53337479
1704712217527060,-0.03238507,-0.01169460,0.00544073,10.52648258
1704712217530966,-0.03011317,-0.01325478,0.00554114,10.52510738
1704712217537013,-0.02696081,-0.01234196,0.00569199,10.52550888
1704712217543690,-0.02399161,-0.01118943,0.00563501,10.52493668
1704712217554179,-0.01908837,-0.01232520,0.00559118,10.52305698
1704712217561704,-0.01376017,-0.01367154,0.00540907,10.52195835
1704712217567804,-0.00926566,-0.01243084,0.00533341,10.52363682
1704712217571715,-0.00635948,-0.01284582,0.00526109,10.52330494
1704712217579730,0.00117862,-0.01439546,0.00505421,10.52320004
1704712217587032,0.00302159,-0.01481686,0.00513772,10.52597237
1704712217595039,0.00279702,-0.01934774,0.00502511,10.52845001
1704712217601010,0.00211508,-0.02142244,0.00500396,10.53274918
1704712217607065,0.00060779,-0.02603319,0.00509529,10.52854252
1704712217612985,-0.00289674,-0.02578276,0.00522372,10.52983284
1704712217618953,-0.00535583,-0.02364303,0.00532417,10.52969551
1704712217625175,-0.00869135,-0.02555723,0.00561220,10.52213955
1704712217630956,-0.01191692,-0.02245621,0.00565753,10.52169228
1704712217637054,-0.01249091,-0.01802411,0.00562207,10.51969337
1704712217642994,-0.01186123,-0.02077395,0.00553771,10.50437450
1704712217649087,-0.01195278,-0.01297471,0.00543199,10.50952625
1704712217655019,-0.01169356,-0.00726066,0.00545987,10.50781822
1704712217661001,-0.01246331,-0.00431899,0.00520254,10.49951172
1704712217667070,-0.01387075,0.00120605,0.00487654,10.49817753
1704712217672995,-0.01538134,0.00190131,0.00435751,10.49111557
1704712217679044,-0.01693637,0.00402382,0.00407923,10.49131012
1704712217685034,-0.02097519,0.00322745,0.00389678,10.49236393
1704712217691034,-0.02474428,-0.00191027,0.00392301,10.48736382
1704712217698997,-0.02620532,-0.00336553,0.00381256,10.49321175
1704712217703020,-0.02665428,-0.00583566,0.00370892,10.49285507
1704712217713026,-0.02544596,-0.01210178,0.00351460,10.48949432
1704712217717058,-0.02458788,-0.01186439,0.00357085,10.49701023
1704712217725075,-0.02105124,-0.01827846,0.00368568,10.49311829
1704712217729037,-0.01770023,-0.01656916,0.00363091,10.50197506
1704712217730974,-0.01671838,-0.01893524,0.00365921,10.50008106
1704712217739021,-0.01335827,-0.01927805,0.00371852,10.51313877
1704712217749016,-0.01000809,-0.02527667,0.00388857,10.51859570
1704712217754987,-0.00645188,-0.02441900,0.00409966,10.52679634
1704712217759084,-0.00317001,-0.02389280,0.00417100,10.52917862
1704712217767030,0.00360430,-0.02189167,0.00412186,10.53157234
1704712217772973,0.00678528,-0.01985361,0.00416542,10.53459740
1704712217777038,0.00735829,-0.01928925,0.00413771,10.53353596
1704712217785002,0.00779350,-0.01777585,0.00415557,10.53072357
1704712217790948,0.00971883,-0.01604716,0.00410095,10.53083706
1704712217795035,0.01019263,-0.01502450,0.00417821,10.52928352
1704712217801037,0.00915084,-0.01239867,0.00399253,10.52895260
1704712217807706,0.00614835,-0.01183842,0.00401543,10.52760696
1704712217813582,0.00261586,-0.01288634,0.00394748,10.52258301
1704712217821030,-0.00073249,-0.01106883,0.00388892,10.51928234
1704712217829017,-0.00609606,-0.01124783,0.00404534,10.51630974
1704712217835013,-0.00857725,-0.00818468,0.00397464,10.51568604
1704712217840976,-0.01059454,-0.00730784,0.00400806,10.51606941
1704712217847079,-0.01261258,-0.01058096,0.00394056,10.51235008
1704712217853058,-0.01232544,-0.00883321,0.00391806,10.51304626
1704712217859038,-0.01166044,-0.00780918,0.00400160,10.51397610
1704712217865066,-0.01287610,-0.00935340,0.00401350,10.50998402
1704712217871052,-0.01402530,-0.00751428,0.00402671,10.51026249
1704712217877061,-0.01559231,-0.01152819,0.00405389,10.50545025
1704712217883047,-0.01663890,-0.01268131,0.00415445,10.50424957
1704712217889039,-0.01748438,-0.01439796,0.00434972,10.50282192
1704712217895027,-0.01723492,-0.01777292,0.00454569,10.50201225
1704712217900939,-0.01834619,-0.02298598,0.00478852,10.49724483
1704712217906930,-0.01833652,-0.02432137,0.00479363,10.49676037
1704712217913021,-0.02017499,-0.02846934,0.00480510,10.49163723
1704712217919081,-0.02096860,-0.02763565,0.00499487,10.49200535
1704712217925024,-0.02033137,-0.02403316,0.00520783,10.49358463
1704712217931179,-0.01542179,-0.02224844,0.00544297,10.49080563
1704712217935161,-0.01201397,-0.01613793,0.00565852,10.49641037
1704712217943069,-0.00649237,-0.01020372,0.00605794,10.49738789
1704712217949026,-0.00477736,-0.00748035,0.00603759,10.49523640
1704712217955042,-0.00255260,-0.00091595,0.00586517,10.49885750
1704712217961042,-0.00050129,0.00611199,0.00579548,10.50285244
1704712217967025,-0.00094300,0.00835106,0.00574432,10.50179386
1704712217973009,-0.00181073,0.01153058,0.00565542,10.50671482
1704712217979071,-0.00393047,0.01011620,0.00547995,10.50676155
1704712217985040,-0.00616430,0.01049909,0.00562671,10.51360893
1704712217990999,-0.01042125,0.01036415,0.00564641,10.52127552
1704712217997044,-0.01241292,0.01073023,0.00580371,10.52885818
1704712218003181,-0.01450245,0.00779201,0.00604239,10.52993011
1704712218009026,-0.01925086,0.00705819,0.00614494,10.53518867
1704712218015041,-0.02423034,0.00576811,0.00616159,10.53842640
1704712218025003,-0.03359479,-0.00029820,0.00637509,10.53445625
1704712218027054,-0.03468919,0.00038856,0.00641495,10.53647900
1704712218033019,-0.03840875,-0.00372065,0.00650024,10.53195667
1704712218043024,-0.03578760,-0.00384401,0.00655520,10.53053379
1704712218049006,-0.03236321,-0.00252189,0.00633442,10.52980900
1704712218053054,-0.03026648,-0.00148420,0.00614293,10.52740860
1704712218059046,-0.02737493,0.00211980,0.00580172,10.52666187
1704712218067018,-0.02395387,0.00345656,0.00509275,10.52392483
1704712218071003,-0.02074626,0.00417445,0.00474249,10.52241611
1704712218079015,-0.01551083,0.00337286,0.00473256,10.52083015
1704712218081008,-0.01417699,0.00431992,0.00479368,10.52327824
1704712218091002,-0.00581613,-0.00178977,0.00536150,10.51989174
1704712218095045,-0.00183942,-0.00143581,0.00537684,10.52560616
1704712218101000,0.00105362,-0.00608689,0.00552036,10.52282715
1704712218109030,0.00414423,-0.00949038,0.00559022,10.52218533
1704712218115042,0.00433544,-0.01039882,0.00557153,10.52468491
1704712218120992,0.00209346,-0.01133724,0.00564162,10.52766800
1704712218127050,0.00015702,-0.01345989,0.00577408,10.52455616
1704712218132982,-0.00281647,-0.01097822,0.00593205,10.52779865
1704712218138988,-0.00653654,-0.00900446,0.00604658,10.53112507
1704712218145078,-0.00920658,-0.00948056,0.00600695,10.52756977
1704712218150983,-0.01366938,-0.00578745,0.00611785,10.53059959
1704712218155058,-0.01721140,-0.00495173,0.00618203,10.53007698
1704712218161000,-0.02171288,-0.00184778,0.00605682,10.53185177
1704712218169097,-0.02882793,-0.00002263,0.00609550,10.52821732
1704712218173027,-0.03068411,-0.00018446,0.00618719,10.52586269
1704712218180996,-0.03293470,-0.00076659,0.00602023,10.52104855
1704712218189074,-0.03428024,-0.00107390,0.00621648,10.51565647
1704712218195035,-0.03265743,0.00116533,0.00619358,10.51511192
1704712218201041,-0.03091554,0.00290166,0.00619676,10.51436996
1704712218207020,-0.02946643,0.00190942,0.00641579,10.50871658
1704712218213067,-0.02452809,0.00440207,0.00638640,10.50989914
1704712218219094,-0.02006222,0.00623430,0.00635706,10.51237392
1704712218225090,-0.01592691,0.00162706,0.00630559,10.50973511
1704712218231033,-0.01020775,0.00115808,0.00604028,10.51291561
1704712218237090,-0.00612359,0.00053721,0.00567641,10.51531124
1704712218243035,-0.00451110,-0.00458894,0.00531941,10.51122856
1704712218249074,-0.00424722,-0.00436037,0.00482115,10.51164436
1704712218255295,-0.00201550,-0.00505434,0.00467451,10.51051426
1704712218261074,-0.00038320,-0.00676535,0.00464278,10.50407887
1704712218267204,-0.00184320,-0.00596366,0.00483324,10.50201988
1704712218273032,-0.00644277,-0.00753218,0.00489490,10.49454403
1704712218279252,-0.01184479,-0.00641399,0.00491830,10.49182415
1704712218285015,-0.01838968,-0.00482087,0.00500171,10.49010563
1704712218291045,-0.02480312,-0.00723212,0.00507917,10.48225975
1704712218297107,-0.03044400,-0.00685953,0.00495064,10.48060989
1704712218303050,-0.03651840,-0.00705337,0.00499128,10.47973824
1704712218309160,-0.04147315,-0.01081869,0.00505816,10.47417068
1704712218315046,-0.04422476,-0.01073803,0.00502985,10.47578144
1704712218319054,-0.04460841,-0.01209314,0.00499419,10.47568989
1704712218327032,-0.04282860,-0.01304072,0.00506353,10.47612476
1704712218333009,-0.04011040,-0.01270866,0.00510318,10.48110008
1704712218339105,-0.03500927,-0.01249718,0.00508134,10.48685837
1704712218349053,-0.02667236,-0.01484619,0.00528069,10.48847103
1704712218351034,-0.02531403,-0.01290333,0.00534431,10.49234962
1704712218357075,-0.02111471,-0.01136926,0.00546114,10.49853897
1704712218367068,-0.01435108,-0.01396015,0.00529500,10.50073814
1704712218371116,-0.01254110,-0.01475345,0.00538498,10.50215816
1704712218375142,-0.01128336,-0.01003467,0.00542645,10.50879860
1704712218385025,-0.00986536,-0.01129248,0.00563640,10.50921631
1704712218387089,-0.00941115,-0.00975235,0.00563692,10.51228237
1704712218397048,-0.01057694,-0.00670229,0.00529393,10.51713085
1704712218402983,-0.01347999,-0.00841152,0.00531698,10.51543999
1704712218409002,-0.01604163,-0.00637575,0.00538373,10.51816559
1704712218413030,-0.01860495,-0.00616355,0.00540364,10.51822567
1704712218420989,-0.02591157,-0.00777363,0.00523787,10.51766205
1704712218426997,-0.02929087,-0.00696418,0.00518575,10.51839828
1704712218433017,-0.03277489,-0.01007048,0.00536332,10.51325893
1704712218439049,-0.03028745,-0.00824771,0.00540490,10.51102161
1704712218445008,-0.02674608,-0.00766088,0.00553246,10.50782013
1704712218451077,-0.02295559,-0.01015993,0.00568151,10.49826241
1704712218457027,-0.01900979,-0.00894711,0.00574098,10.49259377
1704712218463001,-0.01732228,-0.00703836,0.00559112,10.48572922
1704712218469086,-0.01670351,-0.00772200,0.00559422,10.47492123
1704712218473173,-0.01477420,-0.00286132,0.00565354,10.47300148
1704712218480996,-0.01419115,-0.01018617,0.00567559,10.45606518
1704712218486980,-0.01290460,-0.01644676,0.00583961,10.44400787
1704712218491027,-0.01224742,-0.02116799,0.00594090,10.43623638
1704712218499025,-0.01158436,-0.02933845,0.00602793,10.42237663
1704712218503026,-0.00461219,-0.01541132,0.00601320,10.43169689
1704712218510943,0.00101881,-0.00722664,0.00585271,10.43223095
1704712218515071,0.00251331,-0.00541733,0.00579381,10.43263149
1704712218523067,0.00520957,-0.00064271,0.00597304,10.43352413
1704712218529061,0.00785023,0.00410745,0.00606557,10.43696404
1704712218533037,0.00891722,0.00625194,0.00607777,10.43697739
1704712218539078,0.00848777,0.00970483,0.00596021,10.43880558
1704712218547084,0.00688568,0.01122036,0.00552069,10.43756580
1704712218551013,0.00515915,0.01042591,0.00541526,10.43692875
1704712218559044,0.00323960,0.00825235,0.00547745,10.43544006
1704712218563045,0.00323157,0.00647025,0.00550550,10.43546677
1704712218573073,0.00276988,0.00189699,0.00547071,10.44107723
1704712218579011,0.00523962,-0.00112472,0.00546825,10.44708633
1704712218585075,0.00620100,-0.00534049,0.00550309,10.44923878
1704712218589162,0.00773708,-0.00772802,0.00557793,10.45237064
1704712218597222,0.00845115,-0.01166121,0.00551019,10.46351051
1704712218603034,0.00700392,-0.01730482,0.00538454,10.46608829
1704712218609030,0.00561303,-0.02175446,0.00549305,10.47185993
1704712218615066,0.00352974,-0.02478684,0.00577575,10.47620773
1704712218620985,-0.00036442,-0.02944373,0.00591601,10.47570419
1704712218627026,-0.00260435,-0.02807726,0.00608933,10.47832394
1704712218633118,-0.00231270,-0.02623107,0.00638495,10.47989750
1704712218639049,-0.00368367,-0.02405302,0.00632411,10.47728729
1704712218644994,-0.00404493,-0.01693792,0.00619170,10.47731018
1704712218651071,-0.00678407,-0.01267173,0.00601494,10.47167969
1704712218657303,-0.00851632,-0.00442073,0.00572915,10.46871090
1704712218663054,-0.00854530,0.00292052,0.00529674,10.46689701
1704712218669102,-0.00673535,0.00731673,0.00502000,10.46070671
1704712218675100,-0.00439642,0.01342864,0.00500622,10.45872402
1704712218681024,-0.00239280,0.01763690,0.00490512,10.45759296
1704712218687044,-0.00245591,0.01692112,0.00494303,10.45297050
1704712218693032,-0.00101823,0.01783736,0.00495192,10.45374680
1704712218699057,-0.00044730,0.01764542,0.00485722,10.45584679
1704712218705034,-0.00313678,0.01365627,0.00472251,10.45382881
1704712218711037,-0.00575970,0.01104456,0.00468076,10.45607662
1704712218717089,-0.00959289,0.00573912,0.00471603,10.45833206
1704712218723038,-0.01258041,-0.00261789,0.00474845,10.45625019
1704712218729017,-0.01261833,-0.00716761,0.00469004,10.45937443
1704712218735074,-0.01257424,-0.01149881,0.00459220,10.46352577
1704712218745055,-0.01494164,-0.01984920,0.00451625,10.46622849
1704712218747035,-0.01457687,-0.01952404,0.00454995,10.46961117
1704712218753046,-0.01596330,-0.02363094,0.00488726,10.47135353
1704712218763089,-0.01733532,-0.02538328,0.00531318,10.48039246
1704712218765046,-0.01731691,-0.02359604,0.00536979,10.48453236
1704712218773052,-0.01951837,-0.02219792,0.00529045,10.48883057
1704712218780980,-0.02061995,-0.02029636,0.00518479,10.49293613
1704712218787032,-0.02009632,-0.02217922,0.00505969,10.48792744
1704712218793048,-0.01746363,-0.02473018,0.00517114,10.48261070
1704712218795069,-0.01595852,-0.02528366,0.00510912,10.48055458
1704712218805030,-0.00536996,-0.01574501,0.00505177,10.48994923
1704712218811005,-0.00039477,-0.01220548,0.00510542,10.49038219
1704712218817056,0.00810353,-0.00181741,0.00516563,10.49654484
1704712218823014,0.01495364,0.00673112,0.00530113,10.50300884
1704712218829020,0.01746090,0.01053981,0.00524535,10.50396919
1704712218831047,0.01941760,0.01450976,0.00524787,10.50802231
1704712218837048,0.02137346,0.01952660,0.00538931,10.51511383
1704712218847013,0.02150390,0.01807190,0.00567107,10.52087593
1704712218853063,0.02187945,0.01757796,0.00579673,10.52762794
1704712218859070,0.01858509,0.01212355,0.00584905,10.52914524
1704712218865018,0.01590568,0.00775346,0.00603622,10.53532028
1704712218871005,0.00973972,0.00281681,0.00595396,10.54032803
1704712218877082,0.00102499,-0.00388000,0.00594115,10.54496479
1704712218883004,-0.00805461,-0.01324888,0.00625397,10.54434299
1704712218889070,-0.01583508,-0.01651157,0.00648725,10.54686546
1704712218895128,-0.02291949,-0.02234271,0.00663998,10.54464054
1704712218901030,-0.02861443,-0.02320431,0.00668895,10.54546070
1704712218907103,-0.03368137,-0.02206934,0.00642507,10.54440594
1704712218913005,-0.03748066,-0.02195507,0.00599393,10.53850842
1704712218919030,-0.03813398,-0.01666132,0.00546584,10.53499889
1704712218925001,-0.03564388,-0.01015770,0.00506220,10.53039742
1704712218930968,-0.03063439,-0.00839286,0.00463092,10.52082443
1704712218937007,-0.02566412,-0.00293714,0.00425593,10.51470661
1704712218943130,-0.02127815,0.00341819,0.00417907,10.50858593
1704712218949130,-0.01673823,0.00598020,0.00405144,10.49849033
1704712218955094,-0.00978719,0.01119466,0.00396658,10.49228764
1704712218959074,-0.00332602,0.01266787,0.00409365,10.48715401
1704712218965048,0.00238698,0.01581466,0.00419593,10.48180485
1704712218973028,0.00789694,0.01622163,0.00399375,10.47337055
1704712218979071,0.01010395,0.01548125,0.00382178,10.46948051
1704712218985099,0.00825703,0.01234895,0.00374506,10.46222496
1704712218990997,0.00684742,0.01290085,0.00369903,10.46108341
1704712218999020,0.00358485,0.00931696,0.00361626,10.45911217
1704712219005057,0.00251810,0.00987183,0.00359295,10.46131802
1704712219011040,0.00150759,0.00654738,0.00375821,10.45917702
1704712219017027,-0.00076908,0.00799495,0.00388161,10.46103287
1704712219023043,-0.00200940,0.01030564,0.00388775,10.46240330
1704712219029158,-0.00328923,0.01085936,0.00377181,10.45889854
1704712219035060,-0.00480691,0.01495495,0.00378769,10.46074009
1704712219040980,-0.00637763,0.01950289,0.00367147,10.46303082
1704712219047038,-0.00735674,0.02015786,0.00348983,10.46160412
1704712219057066,-0.02296504,-0.06909256,0.00361550,10.46882439
1704712219063051,-0.02354475,-0.07362758,0.00309514,10.47209644
1704712219069146,-0.02471316,-0.08395587,0.00314480,10.47194195
1704712219075212,-0.02588243,-0.09197051,0.00327803,10.47498035
1704712219079053,-0.02638987,-0.09864175,0.00356011,10.47540283
1704712219089055,-0.02923286,-0.10593819,0.00449660,10.47706223
1704712219095081,-0.03014346,-0.10361066,0.00464127,10.47651863
1704712219101018,-0.03012328,-0.10089568,0.00443437,10.47077465
1704712219106997,-0.02915983,-0.09430628,0.00428255,10.46720600
1704712219113163,-0.02844560,-0.08844656,0.00403298,10.46158028
1704712219119149,-0.02848960,-0.08359066,0.00367180,10.45349121
