timestamp,roll,pitch,thrust,yaw,aux1,aux2,aux3,aux4
1691763263564551,1500,1500,1000,1500,1000,0,0,0
1691763263574625,1500,1500,1000,1500,1000,0,0,0
1691763263584617,1500,1500,1000,1500,1000,0,0,0
1691763263594641,1500,1500,1000,1500,1000,0,0,0
1691763263604567,1500,1500,1000,1500,1000,0,0,0
1691763263614557,1500,1500,1000,1500,1000,0,0,0
1691763263624577,1500,1500,1000,1500,1000,0,0,0
1691763263634643,1500,1500,1000,1500,1000,0,0,0
1691763263644617,1500,1500,1000,1500,1000,0,0,0
1691763263654593,1500,1500,1000,1500,1000,0,0,0
1691763263664560,1500,1500,1000,1500,1000,0,0,0
1691763263674620,1500,1500,1000,1500,1000,0,0,0
1691763263686034,1489,1521,1257,1476,1000,0,0,0
1691763263689648,1490,1529,1279,1474,1000,0,0,0
1691763263693753,1490,1531,1280,1473,1000,0,0,0
1691763263696742,1491,1531,1281,1473,1000,0,0,0
1691763263700643,1491,1531,1281,1473,1000,0,0,0
1691763263704892,1491,1531,1281,1473,1000,0,0,0
1691763263708413,1490,1534,1281,1473,1000,0,0,0
1691763263711307,1491,1532,1282,1473,1000,0,0,0
1691763263714769,1491,1532,1282,1473,1000,0,0,0
1691763263718791,1490,1533,1283,1473,1000,0,0,0
1691763263722585,1491,1532,1283,1473,1000,0,0,0
1691763263727131,1491,1532,1284,1473,1000,0,0,0
1691763263729336,1491,1531,1284,1473,1000,0,0,0
1691763263735460,1492,1530,1285,1474,1000,0,0,0
1691763263736730,1491,1530,1285,1474,1000,0,0,0
1691763263740528,1491,1530,1285,1474,1000,0,0,0
1691763263744807,1492,1529,1284,1475,1000,0,0,0
1691763263748523,1492,1528,1284,1476,1000,0,0,0
1691763263751693,1492,1526,1284,1476,1000,0,0,0
1691763263755708,1493,1524,1285,1477,1000,0,0,0
1691763263758328,1492,1522,1284,1478,1000,0,0,0
1691763263763159,1493,1520,1283,1479,1000,0,0,0
1691763263765574,1488,1523,1290,1481,1000,0,0,0
1691763263769862,1483,1514,1296,1483,1000,0,0,0
1691763263773659,1487,1511,1293,1484,1000,0,0,0
1691763263777919,1491,1508,1292,1485,1000,0,0,0
1691763263780287,1491,1507,1288,1486,1000,0,0,0
1691763263784151,1489,1505,1283,1488,1000,0,0,0
1691763263788150,1489,1503,1280,1489,1000,0,0,0
1691763263791885,1491,1495,1278,1490,1000,0,0,0
1691763263795743,1495,1489,1276,1490,1000,0,0,0
1691763263799249,1495,1489,1266,1491,1000,0,0,0
1691763263802787,1492,1482,1270,1492,1000,0,0,0
1691763263806758,1493,1480,1267,1492,1000,0,0,0
1691763263809333,1499,1488,1253,1493,1000,0,0,0
1691763263813269,1503,1486,1251,1493,1000,0,0,0
1691763263818341,1501,1476,1259,1494,1000,0,0,0
1691763263820995,1512,1485,1243,1494,1000,0,0,0
1691763263824903,1502,1477,1251,1495,1000,0,0,0
1691763263827948,1500,1477,1252,1495,1000,0,0,0
1691763263831292,1503,1465,1255,1495,1000,0,0,0
1691763263835184,1516,1477,1235,1495,1000,0,0,0
1691763263838594,1510,1468,1244,1496,1000,0,0,0
1691763263842150,1509,1470,1244,1496,1000,0,0,0
1691763263846744,1507,1472,1241,1496,1000,0,0,0
1691763263849514,1519,1491,1219,1496,1000,0,0,0
1691763263853062,1520,1491,1229,1497,1000,0,0,0
1691763263857059,1507,1478,1248,1497,1000,0,0,0
1691763263860601,1504,1475,1247,1498,1000,0,0,0
1691763263864029,1505,1473,1242,1498,1000,0,0,0
1691763263868384,1506,1473,1245,1498,1000,0,0,0
1691763263874312,1508,1466,1248,1499,1000,0,0,0
1691763263875779,1508,1465,1244,1499,1000,0,0,0
1691763263878960,1510,1468,1243,1499,1000,0,0,0
1691763263882983,1513,1467,1239,1499,1000,0,0,0
1691763263885764,1512,1474,1237,1499,1000,0,0,0
1691763263889901,1512,1482,1235,1499,1000,0,0,0
1691763263895036,1516,1480,1238,1500,1000,0,0,0
1691763263897934,1512,1483,1237,1500,1000,0,0,0
1691763263901196,1512,1482,1239,1500,1000,0,0,0
1691763263904443,1511,1481,1239,1501,1000,0,0,0
1691763263907834,1510,1483,1242,1501,1000,0,0,0
1691763263913048,1505,1437,1223,1501,1000,0,0,0
1691763263916744,1596,1449,1176,1497,1000,0,0,0
1691763263918558,1564,1497,1202,1501,1000,0,0,0
1691763263922199,1533,1502,1228,1502,1000,0,0,0
1691763263926766,1516,1501,1239,1502,1000,0,0,0
1691763263931814,1510,1500,1242,1502,1000,0,0,0
1691763263933762,1510,1498,1243,1502,1000,0,0,0
1691763263937069,1508,1498,1242,1502,1000,0,0,0
1691763263940946,1503,1499,1239,1502,1000,0,0,0
1691763263944822,1499,1508,1241,1502,1000,0,0,0
1691763263947647,1496,1505,1243,1502,1000,0,0,0
1691763263951173,1495,1501,1249,1502,1000,0,0,0
1691763263954886,1493,1504,1245,1502,1000,0,0,0
1691763263958839,1458,1487,1268,1502,1000,0,0,0
1691763263963001,1452,1460,1280,1502,1000,0,0,0
1691763263965714,1465,1478,1279,1501,1000,0,0,0
1691763263969911,1474,1485,1273,1500,1000,0,0,0
1691763263974037,1478,1490,1265,1499,1000,0,0,0
1691763263976591,1483,1488,1261,1499,1000,0,0,0
1691763263980377,1486,1496,1251,1499,1000,0,0,0
1691763263985013,1492,1492,1252,1498,1000,0,0,0
1691763263987997,1494,1489,1254,1498,1000,0,0,0
1691763263991992,1493,1490,1250,1498,1000,0,0,0
1691763263994719,1493,1494,1254,1498,1000,0,0,0
1691763263998544,1498,1498,1247,1497,1000,0,0,0
1691763264002051,1501,1504,1230,1497,1000,0,0,0
1691763264005872,1498,1509,1238,1497,1000,0,0,0
1691763264009964,1498,1508,1246,1497,1000,0,0,0
1691763264013970,1504,1492,1250,1497,1000,0,0,0
1691763264016579,1503,1492,1252,1497,1000,0,0,0
1691763264020253,1506,1492,1251,1497,1000,0,0,0
1691763264025667,1503,1490,1254,1497,1000,0,0,0
1691763264027959,1503,1493,1251,1497,1000,0,0,0
1691763264031985,1501,1500,1248,1497,1000,0,0,0
1691763264035678,1502,1500,1248,1497,1000,0,0,0
1691763264038871,1501,1499,1248,1497,1000,0,0,0
1691763264042526,1503,1498,1249,1497,1000,0,0,0
1691763264046183,1504,1496,1251,1497,1000,0,0,0
1691763264050101,1506,1491,1252,1497,1000,0,0,0
1691763264053944,1505,1491,1252,1497,1000,0,0,0
1691763264056609,1505,1493,1253,1497,1000,0,0,0
1691763264060366,1503,1498,1250,1497,1000,0,0,0
1691763264064042,1504,1495,1252,1497,1000,0,0,0
1691763264068119,1505,1493,1252,1497,1000,0,0,0
1691763264072150,1504,1498,1252,1497,1000,0,0,0
1691763264075715,1505,1496,1254,1497,1000,0,0,0
1691763264078439,1506,1495,1253,1497,1000,0,0,0
1691763264082358,1506,1498,1251,1497,1000,0,0,0
1691763264085749,1504,1499,1251,1497,1000,0,0,0
1691763264090081,1506,1498,1250,1497,1000,0,0,0
1691763264093023,1506,1497,1250,1498,1000,0,0,0
1691763264097021,1505,1497,1251,1498,1000,0,0,0
1691763264101087,1503,1496,1252,1498,1000,0,0,0
1691763264104926,1503,1492,1257,1498,1000,0,0,0
1691763264107914,1505,1497,1252,1498,1000,0,0,0
1691763264111329,1505,1489,1254,1498,1000,0,0,0
1691763264116268,1507,1483,1254,1498,1000,0,0,0
1691763264118993,1505,1488,1254,1498,1000,0,0,0
1691763264123096,1505,1491,1252,1498,1000,0,0,0
1691763264126000,1505,1493,1255,1498,1000,0,0,0
1691763264130686,1505,1495,1254,1498,1000,0,0,0
1691763264133045,1505,1496,1253,1498,1000,0,0,0
1691763264137084,1507,1493,1251,1498,1000,0,0,0
1691763264141379,1508,1495,1255,1498,1000,0,0,0
1691763264143830,1505,1497,1252,1498,1000,0,0,0
1691763264147747,1506,1496,1250,1499,1000,0,0,0
1691763264151129,1509,1495,1248,1499,1000,0,0,0
1691763264154836,1507,1498,1249,1499,1000,0,0,0
1691763264159053,1502,1504,1249,1499,1000,0,0,0
1691763264163030,1502,1505,1250,1499,1000,0,0,0
1691763264165591,1505,1505,1249,1499,1000,0,0,0
1691763264169375,1503,1505,1251,1499,1000,0,0,0
1691763264173072,1502,1502,1252,1499,1000,0,0,0
1691763264176654,1501,1499,1259,1499,1000,0,0,0
1691763264180615,1503,1495,1255,1500,1000,0,0,0
1691763264183925,1504,1493,1254,1500,1000,0,0,0
1691763264187545,1617,1511,1185,1502,1000,0,0,0
1691763264191332,1550,1519,1228,1502,1000,0,0,0
1691763264195156,1521,1512,1246,1502,1000,0,0,0
1691763264199057,1510,1509,1250,1502,1000,0,0,0
1691763264201913,1505,1504,1254,1502,1000,0,0,0
1691763264206319,1503,1500,1254,1502,1000,0,0,0
1691763264210225,1500,1509,1245,1502,1000,0,0,0
1691763264214236,1496,1516,1248,1503,1000,0,0,0
1691763264217088,1493,1502,1258,1503,1000,0,0,0
1691763264221002,1492,1506,1256,1503,1000,0,0,0
1691763264223816,1489,1501,1258,1503,1000,0,0,0
1691763264227489,1487,1505,1253,1503,1000,0,0,0
1691763264231317,1489,1506,1254,1503,1000,0,0,0
1691763264235138,1491,1495,1255,1503,1000,0,0,0
1691763264239129,1490,1499,1260,1503,1000,0,0,0
1691763264243101,1488,1499,1259,1503,1000,0,0,0
1691763264246095,1489,1500,1263,1503,1000,0,0,0
1691763264250113,1489,1499,1259,1503,1000,0,0,0
1691763264253915,1485,1501,1255,1503,1000,0,0,0
1691763264256703,1485,1504,1255,1503,1000,0,0,0
1691763264260273,1450,1493,1279,1503,1000,0,0,0
1691763264264402,1454,1495,1281,1502,1000,0,0,0
1691763264268288,1463,1502,1279,1502,1000,0,0,0
1691763264271066,1468,1496,1275,1501,1000,0,0,0
1691763264275119,1475,1487,1273,1501,1000,0,0,0
1691763264279225,1480,1489,1269,1500,1000,0,0,0
1691763264282981,1483,1490,1264,1500,1000,0,0,0
1691763264285521,1488,1491,1263,1500,1000,0,0,0
1691763264289386,1493,1499,1261,1499,1000,0,0,0
1691763264293274,1492,1497,1259,1499,1000,0,0,0
1691763264296649,1498,1495,1255,1499,1000,0,0,0
1691763264300606,1499,1499,1253,1499,1000,0,0,0
1691763264304097,1497,1507,1253,1499,1000,0,0,0
1691763264309116,1497,1500,1261,1498,1000,0,0,0
1691763264311076,1501,1496,1257,1498,1000,0,0,0
1691763264314920,1504,1499,1252,1498,1000,0,0,0
1691763264318451,1499,1508,1251,1498,1000,0,0,0
1691763264321977,1497,1498,1257,1498,1000,0,0,0
1691763264325693,1500,1497,1257,1498,1000,0,0,0
1691763264329317,1502,1500,1256,1498,1000,0,0,0
1691763264333189,1505,1504,1252,1498,1000,0,0,0
1691763264337191,1576,1546,1214,1502,1000,0,0,0
1691763264341301,1564,1527,1215,1501,1000,0,0,0
1691763264344158,1533,1520,1232,1500,1000,0,0,0
1691763264347748,1514,1515,1252,1501,1000,0,0,0
1691763264351320,1509,1506,1258,1501,1000,0,0,0
1691763264355265,1509,1503,1256,1501,1000,0,0,0
1691763264360370,1500,1508,1254,1501,1000,0,0,0
1691763264362325,1500,1501,1259,1501,1000,0,0,0
1691763264366339,1504,1498,1251,1502,1000,0,0,0
1691763264370216,1501,1500,1257,1502,1000,0,0,0
1691763264373984,1496,1501,1260,1502,1000,0,0,0
1691763264379630,1494,1501,1262,1502,1000,0,0,0
1691763264380262,1495,1510,1257,1502,1000,0,0,0
1691763264384319,1497,1500,1257,1502,1000,0,0,0
1691763264388308,1495,1498,1261,1502,1000,0,0,0
1691763264392077,1496,1499,1263,1502,1000,0,0,0
1691763264394588,1496,1499,1262,1502,1000,0,0,0
1691763264398633,1496,1502,1261,1502,1000,0,0,0
1691763264402354,1491,1505,1259,1502,1000,0,0,0
1691763264407085,1490,1511,1261,1503,1000,0,0,0
1691763264410375,1493,1509,1258,1503,1000,0,0,0
1691763264415462,1491,1508,1260,1503,1000,0,0,0
1691763264418845,1493,1501,1263,1503,1000,0,0,0
1691763264420264,1491,1497,1263,1502,1000,0,0,0
1691763264424397,1491,1499,1264,1502,1000,0,0,0
1691763264428317,1497,1499,1255,1502,1000,0,0,0
1691763264431073,1493,1507,1258,1503,1000,0,0,0
1691763264435406,1492,1507,1261,1503,1000,0,0,0
1691763264439393,1492,1501,1266,1502,1000,0,0,0
1691763264442136,1491,1500,1265,1502,1000,0,0,0
1691763264447584,1493,1499,1263,1502,1000,0,0,0
1691763264449422,1496,1499,1262,1502,1000,0,0,0
1691763264453408,1489,1514,1286,1502,1000,0,0,0
1691763264460235,1483,1517,1286,1502,1000,0,0,0
1691763264460515,1474,1498,1262,1502,1000,0,0,0
1691763264463943,1513,1479,1232,1501,1000,0,0,0
1691763264467799,1512,1491,1243,1501,1000,0,0,0
1691763264475570,1510,1495,1252,1501,1000,0,0,0
1691763264476546,1493,1512,1283,1501,1000,0,0,0
1691763264479422,1490,1520,1280,1501,1000,0,0,0
1691763264482066,1493,1512,1279,1501,1000,0,0,0
1691763264485818,1488,1501,1275,1501,1000,0,0,0
1691763264489305,1490,1498,1270,1501,1000,0,0,0
1691763264493009,1498,1489,1264,1501,1000,0,0,0
1691763264496628,1504,1454,1239,1500,1000,0,0,0
1691763264500454,1503,1478,1245,1500,1000,0,0,0
1691763264504567,1538,1495,1220,1500,1000,0,0,0
1691763264508603,1523,1498,1246,1500,1000,0,0,0
1691763264511069,1516,1503,1257,1500,1000,0,0,0
1691763264514659,1512,1498,1257,1500,1000,0,0,0
1691763264519972,1510,1497,1263,1500,1000,0,0,0
1691763264522529,1509,1494,1265,1500,1000,0,0,0
1691763264526729,1506,1500,1263,1499,1000,0,0,0
1691763264531760,1506,1500,1259,1499,1000,0,0,0
1691763264533557,1511,1510,1253,1499,1000,0,0,0
1691763264536717,1501,1502,1265,1499,1000,0,0,0
1691763264540891,1499,1501,1265,1499,1000,0,0,0
1691763264544267,1503,1503,1263,1499,1000,0,0,0
1691763264548721,1501,1500,1266,1499,1000,0,0,0
1691763264551499,1501,1501,1266,1499,1000,0,0,0
1691763264554850,1501,1501,1267,1499,1000,0,0,0
1691763264558624,1500,1503,1266,1499,1000,0,0,0
1691763264562071,1501,1506,1264,1499,1000,0,0,0
1691763264565715,1505,1507,1265,1499,1000,0,0,0
1691763264569383,1504,1503,1265,1498,1000,0,0,0
1691763264572975,1502,1510,1259,1499,1000,0,0,0
1691763264576823,1500,1507,1264,1499,1000,0,0,0
1691763264580278,1498,1502,1268,1499,1000,0,0,0
1691763264584047,1501,1502,1264,1499,1000,0,0,0
1691763264588561,1499,1502,1267,1499,1000,0,0,0
1691763264591189,1501,1506,1264,1499,1000,0,0,0
1691763264594900,1502,1508,1263,1499,1000,0,0,0
1691763264598575,1497,1508,1261,1499,1000,0,0,0
1691763264602578,1495,1504,1267,1499,1000,0,0,0
1691763264606708,1498,1501,1270,1499,1000,0,0,0
1691763264610360,1506,1500,1264,1499,1000,0,0,0
1691763264613479,1500,1504,1262,1499,1000,0,0,0
1691763264617528,1499,1508,1261,1499,1000,0,0,0
1691763264621260,1499,1506,1260,1499,1000,0,0,0
1691763264623953,1497,1502,1264,1499,1000,0,0,0
1691763264627737,1499,1508,1259,1499,1000,0,0,0
1691763264631731,1499,1504,1257,1499,1000,0,0,0
1691763264635430,1483,1504,1272,1499,1000,0,0,0
1691763264638529,1480,1503,1267,1499,1000,0,0,0
1691763264642612,1483,1499,1269,1498,1000,0,0,0
1691763264646638,1488,1499,1265,1498,1000,0,0,0
1691763264650700,1524,1497,1239,1498,1000,0,0,0
1691763264653052,1521,1502,1246,1498,1000,0,0,0
1691763264656621,1512,1504,1258,1498,1000,0,0,0
1691763264660602,1495,1509,1275,1498,1000,0,0,0
1691763264664565,1491,1501,1275,1498,1000,0,0,0
1691763264668592,1487,1501,1269,1498,1000,0,0,0
1691763264671060,1490,1497,1267,1498,1000,0,0,0
1691763264674586,1532,1491,1234,1498,1000,0,0,0
1691763264678583,1502,1501,1267,1498,1000,0,0,0
1691763264682581,1494,1506,1268,1498,1000,0,0,0
1691763264686680,1494,1503,1265,1498,1000,0,0,0
1691763264689378,1498,1509,1278,1499,1000,0,0,0
1691763264694085,1501,1504,1275,1499,1000,0,0,0
1691763264697480,1502,1477,1250,1498,1000,0,0,0
1691763264700250,1544,1483,1219,1498,1000,0,0,0
1691763264704004,1529,1496,1242,1499,1000,0,0,0
1691763264707555,1517,1506,1254,1499,1000,0,0,0
1691763264711604,1514,1503,1257,1499,1000,0,0,0
1691763264715440,1510,1500,1261,1499,1000,0,0,0
1691763264719525,1509,1499,1263,1499,1000,0,0,0
1691763264722069,1504,1498,1262,1500,1000,0,0,0
1691763264725885,1502,1498,1266,1500,1000,0,0,0
1691763264729569,1503,1494,1267,1500,1000,0,0,0
1691763264733140,1503,1495,1265,1500,1000,0,0,0
1691763264741267,1488,1499,1280,1500,1000,0,0,0
1691763264741488,1486,1495,1276,1500,1000,0,0,0
1691763264748164,1491,1497,1273,1500,1000,0,0,0
1691763264748338,1493,1495,1268,1500,1000,0,0,0
1691763264755948,1524,1493,1233,1500,1000,0,0,0
1691763264756131,1515,1501,1250,1500,1000,0,0,0
1691763264759404,1507,1501,1264,1500,1000,0,0,0
1691763264762077,1507,1501,1264,1500,1000,0,0,0
1691763264765674,1504,1499,1268,1500,1000,0,0,0
1691763264769621,1505,1502,1264,1500,1000,0,0,0
1691763264773538,1502,1501,1265,1500,1000,0,0,0
1691763264777676,1497,1500,1265,1500,1000,0,0,0
1691763264780233,1496,1498,1269,1500,1000,0,0,0
1691763264783911,1499,1501,1266,1500,1000,0,0,0
1691763264787709,1497,1503,1263,1500,1000,0,0,0
1691763264791649,1494,1499,1264,1500,1000,0,0,0
1691763264795549,1495,1496,1265,1500,1000,0,0,0
1691763264799448,1495,1496,1266,1500,1000,0,0,0
1691763264802225,1496,1496,1267,1500,1000,0,0,0
1691763264805738,1497,1500,1265,1500,1000,0,0,0
1691763264809578,1499,1500,1264,1500,1000,0,0,0
1691763264813679,1500,1505,1260,1500,1000,0,0,0
1691763264816641,1496,1502,1265,1500,1000,0,0,0
1691763264820735,1496,1499,1268,1500,1000,0,0,0
1691763264824598,1497,1496,1271,1500,1000,0,0,0
1691763264828595,1500,1501,1266,1500,1000,0,0,0
1691763264831635,1483,1501,1282,1500,1000,0,0,0
1691763264835807,1479,1498,1279,1500,1000,0,0,0
1691763264839397,1484,1507,1291,1500,1000,0,0,0
1691763264842010,1484,1486,1266,1500,1000,0,0,0
1691763264847203,1520,1489,1230,1500,1000,0,0,0
1691763264849357,1511,1505,1245,1500,1000,0,0,0
1691763264854197,1507,1501,1254,1500,1000,0,0,0
1691763264857935,1501,1503,1262,1500,1000,0,0,0
1691763264861355,1498,1500,1264,1500,1000,0,0,0
1691763264863913,1501,1497,1262,1500,1000,0,0,0
1691763264867731,1487,1498,1278,1500,1000,0,0,0
1691763264871897,1493,1507,1269,1500,1000,0,0,0
1691763264875623,1502,1492,1254,1500,1000,0,0,0
1691763264878453,1504,1495,1256,1500,1000,0,0,0
1691763264882027,1504,1500,1258,1500,1000,0,0,0
1691763264885791,1502,1502,1257,1500,1000,0,0,0
1691763264889756,1496,1498,1265,1500,1000,0,0,0
1691763264893830,1498,1494,1264,1500,1000,0,0,0
1691763264897546,1499,1498,1265,1500,1000,0,0,0
1691763264900278,1499,1498,1258,1500,1000,0,0,0
1691763264903973,1489,1509,1286,1500,1000,0,0,0
1691763264907859,1482,1495,1270,1500,1000,0,0,0
1691763264911801,1506,1491,1243,1500,1000,0,0,0
1691763264915701,1503,1496,1251,1500,1000,0,0,0
1691763264918394,1503,1500,1260,1500,1000,0,0,0
1691763264922167,1507,1504,1256,1500,1000,0,0,0
1691763264925717,1490,1502,1279,1500,1000,0,0,0
1691763264929685,1486,1500,1277,1500,1000,0,0,0
1691763264933810,1489,1507,1287,1500,1000,0,0,0
1691763264937610,1487,1485,1265,1500,1000,0,0,0
1691763264940249,1526,1491,1231,1499,1000,0,0,0
1691763264943935,1518,1498,1246,1500,1000,0,0,0
1691763264947909,1496,1502,1273,1500,1000,0,0,0
1691763264951746,1492,1500,1276,1499,1000,0,0,0
1691763264954738,1492,1500,1270,1499,1000,0,0,0
1691763264959871,1494,1497,1266,1499,1000,0,0,0
1691763264962931,1495,1507,1282,1499,1000,0,0,0
1691763264966618,1495,1488,1261,1499,1000,0,0,0
1691763264969445,1532,1495,1227,1499,1000,0,0,0
1691763264973076,1522,1500,1245,1499,1000,0,0,0
1691763264976829,1516,1506,1256,1500,1000,0,0,0
1691763264980925,1508,1505,1265,1499,1000,0,0,0
1691763264984783,1504,1501,1265,1499,1000,0,0,0
1691763264987570,1507,1497,1265,1499,1000,0,0,0
1691763264991080,1496,1511,1289,1499,1000,0,0,0
1691763264995771,1496,1510,1269,1499,1000,0,0,0
1691763264998799,1505,1487,1252,1499,1000,0,0,0
1691763265002910,1506,1491,1257,1499,1000,0,0,0
1691763265009860,1500,1497,1262,1499,1000,0,0,0
1691763265010055,1504,1499,1261,1499,1000,0,0,0
1691763265013061,1506,1499,1261,1499,1000,0,0,0
1691763265016882,1490,1501,1281,1499,1000,0,0,0
1691763265020904,1490,1511,1289,1499,1000,0,0,0
1691763265024880,1489,1511,1284,1499,1000,0,0,0
1691763265027438,1494,1511,1274,1499,1000,0,0,0
1691763265031143,1499,1510,1269,1500,1000,0,0,0
1691763265034936,1493,1497,1270,1499,1000,0,0,0
1691763265039354,1497,1467,1249,1499,1000,0,0,0
1691763265042850,1507,1505,1264,1500,1000,0,0,0
1691763265046758,1506,1513,1266,1500,1000,0,0,0
1691763265049370,1500,1507,1270,1500,1000,0,0,0
1691763265054068,1497,1494,1274,1499,1000,0,0,0
1691763265057356,1501,1493,1265,1499,1000,0,0,0
1691763265061982,1502,1497,1262,1499,1000,0,0,0
1691763265065689,1498,1494,1266,1499,1000,0,0,0
1691763265067361,1501,1490,1264,1499,1000,0,0,0
1691763265071188,1505,1492,1261,1499,1000,0,0,0
1691763265074859,1506,1496,1260,1499,1000,0,0,0
1691763265082746,1506,1504,1255,1499,1000,0,0,0
1691763265082927,1505,1503,1260,1499,1000,0,0,0
1691763265085550,1508,1501,1264,1499,1000,0,0,0
1691763265090604,1502,1490,1267,1499,1000,0,0,0
1691763265093972,1503,1487,1265,1499,1000,0,0,0
1691763265098415,1504,1490,1261,1499,1000,0,0,0
1691763265101231,1504,1495,1261,1499,1000,0,0,0
1691763265106592,1500,1493,1268,1499,1000,0,0,0
1691763265108072,1502,1491,1261,1499,1000,0,0,0
1691763265111240,1505,1490,1261,1499,1000,0,0,0
1691763265115918,1507,1492,1259,1499,1000,0,0,0
1691763265118982,1506,1495,1258,1499,1000,0,0,0
1691763265123581,1505,1497,1258,1499,1000,0,0,0
1691763265125714,1502,1495,1267,1499,1000,0,0,0
1691763265129368,1501,1495,1265,1499,1000,0,0,0
1691763265133044,1506,1468,1240,1499,1000,0,0,0
1691763265137021,1544,1484,1216,1498,1000,0,0,0
1691763265140997,1507,1507,1273,1499,1000,0,0,0
1691763265144704,1498,1507,1282,1499,1000,0,0,0
1691763265148600,1494,1502,1281,1499,1000,0,0,0
1691763265151404,1492,1475,1251,1499,1000,0,0,0
1691763265155530,1529,1477,1226,1498,1000,0,0,0
1691763265159034,1518,1494,1247,1499,1000,0,0,0
1691763265162628,1509,1501,1253,1499,1000,0,0,0
1691763265166094,1507,1509,1255,1499,1000,0,0,0
1691763265169971,1502,1503,1263,1499,1000,0,0,0
1691763265172992,1503,1507,1258,1499,1000,0,0,0
1691763265177069,1498,1503,1267,1499,1000,0,0,0
1691763265181114,1496,1499,1267,1499,1000,0,0,0
1691763265184753,1491,1498,1269,1499,1000,0,0,0
1691763265187713,1493,1500,1266,1499,1000,0,0,0
1691763265191325,1496,1504,1267,1499,1000,0,0,0
1691763265194906,1483,1503,1283,1499,1000,0,0,0
1691763265199053,1489,1510,1277,1500,1000,0,0,0
1691763265203123,1496,1499,1257,1499,1000,0,0,0
1691763265207424,1498,1501,1260,1500,1000,0,0,0
1691763265209378,1491,1498,1268,1499,1000,0,0,0
1691763265214139,1493,1500,1268,1499,1000,0,0,0
1691763265220272,1492,1501,1272,1500,1000,0,0,0
1691763265220948,1495,1503,1268,1500,1000,0,0,0
1691763265223790,1493,1509,1264,1500,1000,0,0,0
1691763265228044,1489,1505,1270,1500,1000,0,0,0
1691763265232632,1491,1501,1266,1500,1000,0,0,0
1691763265235017,1494,1501,1267,1500,1000,0,0,0
1691763265239200,1491,1508,1265,1500,1000,0,0,0
1691763265242614,1491,1510,1260,1500,1000,0,0,0
1691763265246677,1491,1502,1268,1500,1000,0,0,0
1691763265251069,1491,1504,1267,1500,1000,0,0,0
1691763265257445,1491,1515,1273,1500,1000,0,0,0
1691763265258439,1490,1510,1256,1500,1000,0,0,0
1691763265261009,1489,1500,1266,1500,1000,0,0,0
1691763265264648,1489,1497,1266,1500,1000,0,0,0
1691763265268107,1491,1502,1266,1500,1000,0,0,0
1691763265272251,1486,1520,1284,1500,1000,0,0,0
1691763265274895,1485,1521,1281,1500,1000,0,0,0
1691763265278584,1487,1517,1278,1500,1000,0,0,0
1691763265282122,1483,1508,1274,1500,1000,0,0,0
1691763265286134,1488,1498,1271,1500,1000,0,0,0
1691763265290196,1493,1495,1262,1500,1000,0,0,0
1691763265294333,1495,1500,1260,1500,1000,0,0,0
1691763265296796,1494,1500,1267,1500,1000,0,0,0
1691763265300343,1500,1497,1262,1500,1000,0,0,0
1691763265304137,1504,1503,1255,1500,1000,0,0,0
1691763265308615,1502,1501,1261,1500,1000,0,0,0
1691763265311101,1503,1506,1260,1500,1000,0,0,0
1691763265315174,1508,1506,1258,1500,1000,0,0,0
1691763265319139,1510,1504,1255,1500,1000,0,0,0
1691763265322005,1504,1498,1263,1500,1000,0,0,0
1691763265325693,1506,1499,1259,1500,1000,0,0,0
1691763265329283,1502,1490,1267,1499,1000,0,0,0
1691763265332983,1505,1489,1260,1499,1000,0,0,0
1691763265337060,1507,1492,1259,1499,1000,0,0,0
1691763265341068,1509,1496,1256,1500,1000,0,0,0
1691763265344083,1508,1499,1258,1500,1000,0,0,0
1691763265347812,1506,1497,1262,1500,1000,0,0,0
1691763265358124,1503,1497,1266,1500,1000,0,0,0
1691763265358319,1510,1502,1257,1500,1000,0,0,0
1691763265359051,1513,1498,1257,1500,1000,0,0,0
1691763265362947,1513,1500,1257,1500,1000,0,0,0
1691763265365989,1512,1501,1255,1500,1000,0,0,0
1691763265369572,1512,1502,1258,1500,1000,0,0,0
1691763265373269,1507,1498,1263,1500,1000,0,0,0
1691763265377264,1501,1492,1268,1500,1000,0,0,0
1691763265382333,1504,1488,1262,1500,1000,0,0,0
1691763265385266,1508,1491,1260,1500,1000,0,0,0
1691763265387481,1508,1495,1257,1500,1000,0,0,0
1691763265391279,1503,1495,1262,1500,1000,0,0,0
1691763265395127,1508,1496,1262,1500,1000,0,0,0
1691763265399289,1511,1495,1258,1500,1000,0,0,0
1691763265403024,1508,1494,1260,1500,1000,0,0,0
1691763265405662,1508,1495,1258,1500,1000,0,0,0
1691763265409420,1510,1496,1259,1500,1000,0,0,0
1691763265413258,1508,1498,1259,1500,1000,0,0,0
1691763265417258,1503,1497,1265,1500,1000,0,0,0
1691763265421391,1504,1493,1262,1500,1000,0,0,0
1691763265424106,1511,1492,1254,1500,1000,0,0,0
1691763265427594,1510,1498,1254,1500,1000,0,0,0
1691763265431375,1511,1504,1253,1500,1000,0,0,0
1691763265435363,1509,1504,1258,1500,1000,0,0,0
1691763265438417,1510,1501,1257,1500,1000,0,0,0
1691763265442262,1514,1502,1254,1500,1000,0,0,0
1691763265446105,1512,1506,1253,1500,1000,0,0,0
1691763265449405,1508,1499,1257,1500,1000,0,0,0
1691763265453378,1503,1498,1265,1500,1000,0,0,0
1691763265457226,1502,1495,1261,1500,1000,0,0,0
1691763265460291,1503,1495,1259,1500,1000,0,0,0
1691763265464296,1505,1498,1257,1500,1000,0,0,0
1691763265468599,1505,1501,1256,1500,1000,0,0,0
1691763265472388,1501,1502,1258,1501,1000,0,0,0
1691763265474838,1494,1491,1270,1500,1000,0,0,0
1691763265478589,1493,1487,1267,1500,1000,0,0,0
1691763265482422,1495,1488,1262,1500,1000,0,0,0
1691763265486243,1498,1491,1260,1500,1000,0,0,0
1691763265490278,1501,1493,1257,1500,1000,0,0,0
1691763265492952,1503,1498,1255,1500,1000,0,0,0
1691763265496673,1499,1499,1257,1500,1000,0,0,0
1691763265500175,1500,1505,1259,1500,1000,0,0,0
1691763265505225,1498,1496,1267,1500,1000,0,0,0
1691763265510623,1496,1496,1263,1500,1000,0,0,0
1691763265511046,1496,1495,1259,1500,1000,0,0,0
1691763265515170,1500,1494,1260,1500,1000,0,0,0
1691763265518447,1502,1500,1255,1500,1000,0,0,0
1691763265522379,1499,1503,1256,1500,1000,0,0,0
1691763265526326,1496,1500,1265,1500,1000,0,0,0
1691763265530333,1497,1497,1260,1500,1000,0,0,0
1691763265533171,1500,1495,1257,1500,1000,0,0,0
1691763265537600,1499,1499,1259,1500,1000,0,0,0
1691763265541019,1499,1503,1255,1500,1000,0,0,0
1691763265544355,1498,1504,1260,1500,1000,0,0,0
1691763265548300,1496,1504,1262,1500,1000,0,0,0
1691763265551174,1496,1497,1260,1500,1000,0,0,0
1691763265555242,1497,1496,1258,1499,1000,0,0,0
1691763265559545,1497,1501,1258,1500,1000,0,0,0
1691763265562200,1497,1504,1258,1500,1000,0,0,0
1691763265565874,1496,1503,1259,1500,1000,0,0,0
1691763265569693,1494,1499,1265,1499,1000,0,0,0
1691763265572932,1494,1500,1263,1499,1000,0,0,0
1691763265577157,1503,1507,1250,1500,1000,0,0,0
1691763265580385,1503,1507,1251,1500,1000,0,0,0
1691763265583908,1502,1509,1252,1500,1000,0,0,0
1691763265587573,1500,1509,1256,1500,1000,0,0,0
1691763265591444,1495,1504,1264,1500,1000,0,0,0
1691763265595373,1496,1505,1260,1500,1000,0,0,0
1691763265599501,1499,1505,1259,1500,1000,0,0,0
1691763265602085,1496,1502,1257,1500,1000,0,0,0
1691763265606319,1489,1496,1265,1499,1000,0,0,0
1691763265610142,1487,1492,1269,1499,1000,0,0,0
1691763265612830,1495,1501,1260,1500,1000,0,0,0
1691763265616718,1495,1504,1258,1500,1000,0,0,0
1691763265620345,1497,1500,1257,1500,1000,0,0,0
1691763265623965,1498,1502,1259,1500,1000,0,0,0
1691763265627607,1491,1498,1265,1499,1000,0,0,0
1691763265631067,1490,1497,1261,1499,1000,0,0,0
1691763265634856,1491,1500,1257,1499,1000,0,0,0
1691763265639428,1495,1506,1259,1500,1000,0,0,0
1691763265642109,1490,1503,1264,1499,1000,0,0,0
1691763265645658,1492,1501,1260,1499,1000,0,0,0
1691763265649454,1494,1497,1261,1499,1000,0,0,0
1691763265653383,1503,1508,1250,1500,1000,0,0,0
1691763265657394,1494,1502,1260,1499,1000,0,0,0
1691763265660376,1492,1501,1264,1499,1000,0,0,0
1691763265664641,1490,1500,1267,1499,1000,0,0,0
1691763265668622,1499,1504,1253,1499,1000,0,0,0
1691763265671177,1501,1505,1255,1499,1000,0,0,0
1691763265675509,1500,1508,1253,1500,1000,0,0,0
1691763265678507,1496,1509,1258,1500,1000,0,0,0
1691763265682428,1493,1503,1264,1499,1000,0,0,0
1691763265686697,1495,1501,1261,1499,1000,0,0,0
1691763265690153,1500,1504,1256,1500,1000,0,0,0
1691763265693802,1497,1504,1254,1500,1000,0,0,0
1691763265697410,1493,1501,1262,1500,1000,0,0,0
1691763265701503,1491,1500,1261,1500,1000,0,0,0
1691763265703991,1489,1493,1264,1499,1000,0,0,0
1691763265707672,1500,1499,1254,1500,1000,0,0,0
1691763265711525,1500,1505,1252,1500,1000,0,0,0
1691763265715542,1497,1506,1254,1500,1000,0,0,0
1691763265718914,1490,1498,1270,1500,1000,0,0,0
1691763265722480,1495,1503,1258,1500,1000,0,0,0
1691763265729997,1496,1501,1259,1500,1000,0,0,0
1691763265730682,1498,1502,1256,1500,1000,0,0,0
1691763265734936,1500,1502,1255,1500,1000,0,0,0
1691763265737617,1500,1503,1254,1500,1000,0,0,0
1691763265740686,1494,1503,1261,1500,1000,0,0,0
1691763265744635,1497,1506,1258,1500,1000,0,0,0
1691763265748453,1497,1501,1260,1500,1000,0,0,0
1691763265751349,1497,1497,1256,1500,1000,0,0,0
1691763265754925,1500,1499,1256,1500,1000,0,0,0
1691763265758637,1501,1502,1255,1500,1000,0,0,0
1691763265762692,1500,1502,1258,1500,1000,0,0,0
1691763265765612,1497,1499,1264,1500,1000,0,0,0
1691763265769637,1497,1500,1264,1500,1000,0,0,0
1691763265773921,1496,1500,1262,1500,1000,0,0,0
1691763265777636,1498,1498,1260,1500,1000,0,0,0
1691763265780263,1499,1499,1259,1500,1000,0,0,0
1691763265784011,1501,1502,1257,1500,1000,0,0,0
1691763265787638,1502,1504,1256,1500,1000,0,0,0
1691763265791544,1498,1500,1263,1500,1000,0,0,0
1691763265795668,1498,1500,1264,1500,1000,0,0,0
1691763265799461,1499,1499,1258,1500,1000,0,0,0
1691763265802214,1501,1498,1258,1500,1000,0,0,0
1691763265805740,1502,1501,1255,1500,1000,0,0,0
1691763265809619,1501,1505,1255,1500,1000,0,0,0
1691763265813542,1499,1499,1263,1500,1000,0,0,0
1691763265817743,1498,1503,1262,1500,1000,0,0,0
1691763265820181,1499,1502,1259,1500,1000,0,0,0
1691763265823897,1502,1497,1259,1500,1000,0,0,0
1691763265827804,1502,1498,1257,1500,1000,0,0,0
1691763265831541,1500,1501,1258,1500,1000,0,0,0
1691763265835654,1497,1499,1266,1500,1000,0,0,0
1691763265841477,1499,1497,1262,1500,1000,0,0,0
1691763265841914,1502,1495,1260,1500,1000,0,0,0
1691763265845711,1503,1499,1256,1500,1000,0,0,0
1691763265850983,1503,1503,1255,1500,1000,0,0,0
1691763265854129,1500,1497,1263,1500,1000,0,0,0
1691763265857965,1496,1497,1262,1500,1000,0,0,0
1691763265861907,1499,1497,1259,1500,1000,0,0,0
1691763265868668,1505,1496,1257,1500,1000,0,0,0
1691763265868877,1507,1505,1252,1500,1000,0,0,0
1691763265871793,1504,1506,1254,1500,1000,0,0,0
1691763265876181,1498,1498,1264,1500,1000,0,0,0
1691763265878633,1499,1496,1263,1500,1000,0,0,0
1691763265882713,1503,1492,1259,1500,1000,0,0,0
1691763265886829,1503,1496,1257,1500,1000,0,0,0
1691763265889454,1504,1500,1256,1500,1000,0,0,0
1691763265893082,1503,1499,1258,1500,1000,0,0,0
1691763265897082,1498,1497,1262,1500,1000,0,0,0
1691763265900948,1500,1496,1260,1500,1000,0,0,0
1691763265904816,1504,1494,1257,1500,1000,0,0,0
1691763265908726,1506,1496,1256,1500,1000,0,0,0
1691763265911696,1504,1500,1253,1500,1000,0,0,0
1691763265915656,1502,1502,1256,1500,1000,0,0,0
1691763265918643,1500,1496,1263,1500,1000,0,0,0
1691763265922662,1500,1495,1261,1500,1000,0,0,0
1691763265926776,1501,1495,1259,1500,1000,0,0,0
1691763265929366,1505,1495,1257,1500,1000,0,0,0
1691763265932937,1507,1504,1252,1500,1000,0,0,0
1691763265936730,1502,1501,1263,1500,1000,0,0,0
1691763265940781,1498,1497,1263,1500,1000,0,0,0
1691763265945727,1500,1494,1262,1500,1000,0,0,0
1691763265947571,1505,1492,1259,1500,1000,0,0,0
1691763265951773,1505,1495,1256,1500,1000,0,0,0
1691763265957130,1504,1497,1256,1500,1000,0,0,0
1691763265958390,1504,1500,1257,1500,1000,0,0,0
1691763265962170,1500,1497,1261,1500,1000,0,0,0
1691763265966702,1498,1498,1260,1500,1000,0,0,0
1691763265970042,1503,1494,1259,1500,1000,0,0,0
1691763265973652,1506,1496,1255,1500,1000,0,0,0
1691763265978183,1504,1500,1255,1500,1000,0,0,0
1691763265980767,1502,1501,1256,1500,1000,0,0,0
1691763265984901,1501,1496,1264,1500,1000,0,0,0
1691763265987590,1500,1498,1262,1500,1000,0,0,0
1691763265991154,1501,1495,1261,1500,1000,0,0,0
1691763265994917,1506,1500,1254,1500,1000,0,0,0
1691763265998461,1507,1502,1255,1500,1000,0,0,0
1691763266002109,1503,1499,1258,1500,1000,0,0,0
1691763266006104,1498,1496,1264,1500,1000,0,0,0
1691763266009662,1498,1495,1263,1500,1000,0,0,0
1691763266014072,1503,1492,1258,1500,1000,0,0,0
1691763266017615,1502,1497,1255,1500,1000,0,0,0
1691763266020232,1502,1502,1254,1500,1000,0,0,0
1691763266023916,1500,1497,1262,1500,1000,0,0,0
1691763266027933,1500,1488,1207,1499,1000,0,0,0
1691763266031665,1500,1490,1199,1500,1000,0,0,0
1691763266035889,1502,1488,1198,1499,1000,0,0,0
1691763266038483,1506,1487,1196,1499,1000,0,0,0
1691763266041976,1507,1491,1193,1499,1000,0,0,0
1691763266047727,1505,1496,1194,1500,1000,0,0,0
1691763266049983,1504,1494,1196,1500,1000,0,0,0
1691763266053763,1505,1492,1196,1500,1000,0,0,0
1691763266057484,1502,1491,1201,1500,1000,0,0,0
1691763266060661,1503,1492,1198,1499,1000,0,0,0
1691763266063923,1498,1490,1205,1499,1000,0,0,0
1691763266067513,1497,1489,1206,1499,1000,0,0,0
1691763266071758,1499,1489,1206,1499,1000,0,0,0
1691763266075680,1502,1496,1201,1500,1000,0,0,0
1691763266078498,1502,1493,1208,1499,1000,0,0,0
1691763266082439,1498,1494,1213,1500,1000,0,0,0
1691763266086035,1498,1499,1215,1500,1000,0,0,0
1691763266089796,1501,1498,1213,1500,1000,0,0,0
1691763266093789,1501,1496,1219,1500,1000,0,0,0
1691763266096739,1500,1500,1220,1500,1000,0,0,0
1691763266100238,1498,1498,1224,1499,1000,0,0,0
1691763266103991,1497,1497,1226,1500,1000,0,0,0
1691763266107428,1497,1497,1226,1499,1000,0,0,0
1691763266111068,1500,1501,1225,1500,1000,0,0,0
1691763266114893,1500,1501,1226,1500,1000,0,0,0
1691763266118776,1499,1501,1229,1500,1000,0,0,0
1691763266122898,1498,1501,1232,1500,1000,0,0,0
1691763266127007,1497,1500,1234,1500,1000,0,0,0
1691763266129356,1497,1500,1236,1500,1000,0,0,0
1691763266132714,1497,1503,1238,1500,1000,0,0,0
1691763266136994,1495,1503,1240,1500,1000,0,0,0
1691763266141189,1495,1504,1241,1500,1000,0,0,0
1691763266143822,1495,1505,1242,1500,1000,0,0,0
1691763266147941,1495,1504,1243,1500,1000,0,0,0
1691763266151985,1495,1505,1244,1500,1000,0,0,0
1691763266154978,1495,1506,1245,1500,1000,0,0,0
1691763266158937,1495,1506,1246,1500,1000,0,0,0
1691763266163129,1495,1506,1246,1500,1000,0,0,0
1691763266166703,1495,1506,1247,1500,1000,0,0,0
1691763266169373,1496,1506,1247,1500,1000,0,0,0
1691763266173056,1496,1508,1248,1500,1000,0,0,0
1691763266176849,1496,1508,1248,1500,1000,0,0,0
1691763266180902,1497,1507,1248,1499,1000,0,0,0
1691763266184139,1497,1507,1248,1499,1000,0,0,0
1691763266188469,1497,1508,1249,1499,1000,0,0,0
1691763266191840,1497,1508,1249,1499,1000,0,0,0
1691763266195992,1497,1509,1250,1499,1000,0,0,0
1691763266198464,1497,1509,1250,1499,1000,0,0,0
1691763266202121,1496,1507,1251,1499,1000,0,0,0
1691763266205933,1496,1506,1253,1499,1000,0,0,0
1691763266209910,1497,1505,1254,1499,1000,0,0,0
1691763266213175,1497,1505,1254,1499,1000,0,0,0
1691763266216983,1498,1505,1254,1499,1000,0,0,0
1691763266221069,1498,1505,1254,1499,1000,0,0,0
1691763266224742,1498,1506,1254,1499,1000,0,0,0
1691763266227522,1497,1505,1255,1499,1000,0,0,0
1691763266231155,1496,1502,1258,1499,1000,0,0,0
1691763266234875,1495,1503,1259,1499,1000,0,0,0
1691763266239001,1495,1503,1259,1499,1000,0,0,0
1691763266242916,1496,1503,1258,1499,1000,0,0,0
1691763266245816,1497,1504,1258,1499,1000,0,0,0
1691763266249938,1497,1505,1257,1499,1000,0,0,0
1691763266253954,1497,1506,1257,1499,1000,0,0,0
1691763266256888,1498,1506,1257,1499,1000,0,0,0
1691763266260364,1496,1504,1260,1499,1000,0,0,0
1691763266264754,1496,1504,1261,1499,1000,0,0,0
1691763266267643,1497,1503,1261,1499,1000,0,0,0
1691763266271373,1498,1504,1259,1499,1000,0,0,0
1691763266274954,1497,1506,1257,1500,1000,0,0,0
1691763266278931,1497,1506,1257,1500,1000,0,0,0
1691763266283090,1497,1503,1260,1500,1000,0,0,0
1691763266285986,1497,1504,1260,1500,1000,0,0,0
1691763266289319,1497,1505,1258,1500,1000,0,0,0
1691763266293185,1498,1505,1257,1500,1000,0,0,0
1691763266297053,1499,1506,1256,1500,1000,0,0,0
1691763266301453,1498,1505,1257,1500,1000,0,0,0
1691763266305245,1497,1502,1260,1500,1000,0,0,0
1691763266308343,1498,1501,1260,1500,1000,0,0,0
1691763266312034,1498,1501,1260,1500,1000,0,0,0
1691763266314946,1498,1502,1258,1500,1000,0,0,0
1691763266320128,1499,1503,1257,1500,1000,0,0,0
1691763266322707,1499,1503,1257,1500,1000,0,0,0
1691763266328406,1498,1501,1259,1500,1000,0,0,0
1691763266330696,1497,1502,1258,1500,1000,0,0,0
1691763266333836,1499,1500,1258,1500,1000,0,0,0
1691763266336974,1499,1501,1257,1500,1000,0,0,0
1691763266341056,1499,1503,1256,1500,1000,0,0,0
1691763266343675,1498,1500,1257,1500,1000,0,0,0
1691763266347563,1499,1501,1257,1500,1000,0,0,0
1691763266351269,1499,1502,1256,1500,1000,0,0,0
1691763266354996,1500,1500,1257,1500,1000,0,0,0
1691763266359529,1500,1500,1256,1500,1000,0,0,0
1691763266362047,1500,1501,1256,1500,1000,0,0,0
1691763266366167,1500,1499,1257,1500,1000,0,0,0
1691763266370015,1499,1498,1258,1500,1000,0,0,0
1691763266374288,1499,1498,1258,1500,1000,0,0,0
1691763266377147,1500,1497,1257,1500,1000,0,0,0
1691763266381201,1501,1498,1257,1500,1000,0,0,0
1691763266383791,1500,1500,1256,1500,1000,0,0,0
1691763266387839,1502,1501,1255,1500,1000,0,0,0
1691763266391456,1500,1497,1257,1500,1000,0,0,0
1691763266396022,1499,1497,1257,1500,1000,0,0,0
1691763266399520,1500,1497,1257,1500,1000,0,0,0
1691763266402778,1501,1498,1256,1500,1000,0,0,0
1691763266405806,1501,1499,1255,1500,1000,0,0,0
1691763266409393,1501,1499,1255,1500,1000,0,0,0
1691763266413017,1500,1497,1257,1500,1000,0,0,0
1691763266417083,1500,1496,1257,1500,1000,0,0,0
1691763266420995,1501,1498,1256,1500,1000,0,0,0
1691763266423891,1501,1498,1256,1500,1000,0,0,0
1691763266427597,1501,1499,1255,1500,1000,0,0,0
1691763266431651,1501,1498,1255,1500,1000,0,0,0
1691763266435212,1501,1494,1258,1500,1000,0,0,0
1691763266439167,1500,1494,1258,1500,1000,0,0,0
1691763266443023,1500,1495,1257,1500,1000,0,0,0
1691763266445691,1501,1495,1257,1500,1000,0,0,0
1691763266449467,1502,1496,1256,1500,1000,0,0,0
1691763266453120,1501,1498,1255,1500,1000,0,0,0
1691763266457198,1501,1498,1255,1500,1000,0,0,0
1691763266461185,1501,1495,1257,1500,1000,0,0,0
1691763266464408,1500,1495,1257,1500,1000,0,0,0
1691763266468745,1501,1495,1257,1500,1000,0,0,0
1691763266471135,1502,1494,1257,1500,1000,0,0,0
1691763266475900,1502,1496,1256,1500,1000,0,0,0
1691763266479196,1501,1498,1255,1500,1000,0,0,0
1691763266483894,1501,1495,1258,1500,1000,0,0,0
1691763266486136,1501,1495,1258,1500,1000,0,0,0
1691763266491123,1500,1495,1258,1500,1000,0,0,0
1691763266492964,1500,1495,1257,1500,1000,0,0,0
1691763266497125,1501,1496,1257,1500,1000,0,0,0
1691763266500253,1502,1497,1256,1500,1000,0,0,0
1691763266504225,1501,1500,1255,1500,1000,0,0,0
1691763266508186,1501,1499,1256,1500,1000,0,0,0
1691763266512409,1501,1496,1258,1500,1000,0,0,0
1691763266514982,1501,1495,1258,1500,1000,0,0,0
1691763266518383,1501,1495,1257,1500,1000,0,0,0
1691763266523003,1501,1497,1257,1500,1000,0,0,0
1691763266525796,1502,1498,1257,1500,1000,0,0,0
1691763266529370,1500,1495,1259,1500,1000,0,0,0
1691763266533211,1499,1496,1259,1500,1000,0,0,0
1691763266537309,1500,1496,1259,1500,1000,0,0,0
1691763266540758,1502,1495,1259,1500,1000,0,0,0
1691763266544244,1501,1497,1257,1500,1000,0,0,0
1691763266548379,1500,1500,1256,1500,1000,0,0,0
1691763266552160,1500,1496,1259,1500,1000,0,0,0
1691763266554674,1499,1497,1258,1500,1000,0,0,0
1691763266558654,1499,1497,1258,1500,1000,0,0,0
1691763266562297,1501,1497,1258,1500,1000,0,0,0
1691763266565816,1501,1499,1257,1500,1000,0,0,0
1691763266569468,1500,1500,1256,1500,1000,0,0,0
1691763266573369,1500,1500,1257,1500,1000,0,0,0
1691763266577309,1499,1500,1258,1500,1000,0,0,0
1691763266581092,1500,1496,1259,1500,1000,0,0,0
1691763266583733,1500,1498,1258,1500,1000,0,0,0
1691763266587395,1500,1499,1257,1500,1000,0,0,0
1691763266591711,1500,1499,1257,1500,1000,0,0,0
1691763266595417,1499,1497,1259,1500,1000,0,0,0
1691763266599443,1499,1498,1259,1500,1000,0,0,0
1691763266601985,1500,1497,1258,1500,1000,0,0,0
1691763266605547,1500,1498,1257,1500,1000,0,0,0
1691763266609337,1500,1501,1256,1500,1000,0,0,0
1691763266613246,1499,1499,1257,1500,1000,0,0,0
1691763266617430,1499,1498,1257,1500,1000,0,0,0
1691763266621464,1499,1499,1257,1500,1000,0,0,0
1691763266623669,1499,1499,1257,1500,1000,0,0,0
1691763266627561,1499,1502,1256,1500,1000,0,0,0
1691763266631488,1499,1503,1255,1500,1000,0,0,0
1691763266635500,1499,1499,1257,1500,1000,0,0,0
1691763266639351,1498,1500,1257,1500,1000,0,0,0
1691763266642381,1498,1499,1257,1500,1000,0,0,0
1691763266645599,1500,1498,1257,1500,1000,0,0,0
1691763266649479,1499,1500,1256,1500,1000,0,0,0
1691763266653073,1499,1502,1255,1500,1000,0,0,0
1691763266657621,1499,1499,1257,1500,1000,0,0,0
1691763266660217,1498,1499,1257,1500,1000,0,0,0
1691763266664133,1498,1499,1256,1500,1000,0,0,0
1691763266667728,1499,1500,1256,1500,1000,0,0,0
1691763266671373,1499,1500,1255,1500,1000,0,0,0
1691763266675342,1499,1502,1255,1500,1000,0,0,0
1691763266679303,1498,1500,1256,1500,1000,0,0,0
1691763266682541,1497,1500,1257,1500,1000,0,0,0
1691763266685650,1498,1499,1257,1500,1000,0,0,0
1691763266689505,1499,1501,1256,1500,1000,0,0,0
1691763266693753,1499,1503,1255,1500,1000,0,0,0
1691763266697436,1499,1503,1255,1500,1000,0,0,0
1691763266700500,1498,1499,1257,1500,1000,0,0,0
1691763266704407,1497,1499,1257,1500,1000,0,0,0
1691763266708522,1497,1500,1257,1500,1000,0,0,0
1691763266711123,1499,1498,1256,1500,1000,0,0,0
1691763266714956,1499,1500,1256,1500,1000,0,0,0
1691763266718532,1498,1502,1255,1500,1000,0,0,0
1691763266722692,1498,1502,1255,1500,1000,0,0,0
1691763266726664,1498,1499,1257,1500,1000,0,0,0
1691763266730280,1497,1500,1257,1500,1000,0,0,0
1691763266733033,1497,1500,1256,1500,1000,0,0,0
1691763266737056,1499,1499,1257,1500,1000,0,0,0
1691763266740393,1498,1501,1256,1500,1000,0,0,0
1691763266744526,1498,1502,1256,1500,1000,0,0,0
1691763266748432,1497,1500,1257,1500,1000,0,0,0
1691763266751374,1498,1499,1257,1500,1000,0,0,0
1691763266755500,1497,1501,1257,1500,1000,0,0,0
1691763266758518,1497,1500,1257,1500,1000,0,0,0
1691763266762522,1498,1500,1257,1500,1000,0,0,0
1691763266766695,1498,1501,1256,1500,1000,0,0,0
1691763266770205,1498,1503,1256,1500,1000,0,0,0
1691763266772822,1498,1502,1256,1500,1000,0,0,0
1691763266777414,1498,1501,1257,1500,1000,0,0,0
1691763266780462,1498,1502,1257,1500,1000,0,0,0
1691763266784441,1498,1502,1257,1500,1000,0,0,0
1691763266788524,1499,1500,1257,1500,1000,0,0,0
1691763266791267,1499,1501,1257,1500,1000,0,0,0
1691763266795152,1498,1499,1258,1499,1000,0,0,0
1691763266798462,1498,1498,1259,1499,1000,0,0,0
1691763266802875,1498,1498,1259,1499,1000,0,0,0
1691763266806368,1498,1499,1259,1499,1000,0,0,0
1691763266810352,1499,1500,1258,1500,1000,0,0,0
1691763266812944,1499,1502,1257,1500,1000,0,0,0
1691763266817015,1498,1502,1257,1500,1000,0,0,0
1691763266820511,1498,1499,1258,1500,1000,0,0,0
1691763266824476,1497,1499,1259,1500,1000,0,0,0
1691763266827442,1498,1499,1259,1500,1000,0,0,0
1691763266831534,1499,1500,1258,1500,1000,0,0,0
1691763266835572,1499,1502,1257,1500,1000,0,0,0
1691763266839706,1498,1500,1258,1500,1000,0,0,0
1691763266842057,1498,1500,1259,1500,1000,0,0,0
1691763266845751,1498,1502,1258,1500,1000,0,0,0
1691763266849637,1499,1502,1257,1500,1000,0,0,0
1691763266853711,1499,1503,1257,1499,1000,0,0,0
1691763266857495,1499,1502,1257,1499,1000,0,0,0
1691763266860332,1498,1499,1259,1499,1000,0,0,0
1691763266863927,1498,1499,1259,1499,1000,0,0,0
1691763266867799,1498,1499,1258,1499,1000,0,0,0
1691763266871061,1499,1499,1258,1499,1000,0,0,0
1691763266874846,1499,1501,1257,1500,1000,0,0,0
1691763266878772,1499,1502,1257,1500,1000,0,0,0
1691763266882475,1498,1500,1258,1500,1000,0,0,0
1691763266886707,1498,1500,1258,1500,1000,0,0,0
1691763266889239,1499,1500,1258,1500,1000,0,0,0
1691763266893604,1499,1500,1257,1500,1000,0,0,0
1691763266897740,1499,1501,1257,1500,1000,0,0,0
1691763266900096,1499,1502,1257,1500,1000,0,0,0
1691763266903890,1498,1499,1258,1500,1000,0,0,0
1691763266912836,1498,1500,1258,1500,1000,0,0,0
1691763266913018,1498,1499,1258,1500,1000,0,0,0
1691763266915517,1500,1499,1258,1500,1000,0,0,0
1691763266919338,1499,1502,1257,1500,1000,0,0,0
1691763266922085,1499,1503,1256,1500,1000,0,0,0
1691763266925552,1499,1502,1257,1500,1000,0,0,0
1691763266929591,1499,1502,1257,1500,1000,0,0,0
1691763266933465,1500,1498,1258,1500,1000,0,0,0
1691763266936719,1500,1499,1258,1500,1000,0,0,0
1691763266940193,1500,1500,1257,1500,1000,0,0,0
1691763266944679,1500,1500,1257,1500,1000,0,0,0
1691763266947587,1500,1498,1258,1500,1000,0,0,0
1691763266951191,1499,1499,1258,1500,1000,0,0,0
1691763266954907,1501,1497,1258,1500,1000,0,0,0
1691763266958676,1501,1498,1258,1500,1000,0,0,0
1691763266962658,1500,1500,1257,1500,1000,0,0,0
1691763266966785,1500,1500,1257,1500,1000,0,0,0
1691763266969404,1500,1498,1258,1500,1000,0,0,0
1691763266972965,1500,1498,1258,1500,1000,0,0,0
1691763266976741,1500,1498,1258,1500,1000,0,0,0
1691763266980370,1501,1499,1257,1500,1000,0,0,0
1691763266983803,1501,1500,1257,1500,1000,0,0,0
1691763266987635,1501,1500,1257,1500,1000,0,0,0
1691763266991609,1500,1498,1258,1500,1000,0,0,0
1691763266995733,1500,1498,1258,1500,1000,0,0,0
1691763266999764,1501,1497,1258,1500,1000,0,0,0
1691763267002004,1501,1498,1257,1500,1000,0,0,0
1691763267005490,1501,1501,1256,1500,1000,0,0,0
1691763267009353,1502,1499,1257,1500,1000,0,0,0
1691763267012822,1501,1499,1257,1500,1000,0,0,0
1691763267016929,1500,1499,1257,1500,1000,0,0,0
1691763267021118,1502,1499,1257,1500,1000,0,0,0
1691763267025482,1503,1497,1257,1500,1000,0,0,0
1691763267028518,1502,1499,1257,1500,1000,0,0,0
1691763267033091,1501,1497,1258,1500,1000,0,0,0
1691763267034715,1501,1497,1258,1500,1000,0,0,0
1691763267038699,1502,1496,1258,1500,1000,0,0,0
1691763267043366,1502,1497,1258,1500,1000,0,0,0
1691763267046816,1502,1499,1257,1500,1000,0,0,0
1691763267049268,1502,1499,1257,1500,1000,0,0,0
1691763267053614,1501,1497,1258,1500,1000,0,0,0
1691763267056805,1500,1498,1258,1500,1000,0,0,0
1691763267061038,1501,1498,1258,1500,1000,0,0,0
1691763267064707,1502,1497,1257,1500,1000,0,0,0
1691763267067670,1501,1499,1257,1500,1000,0,0,0
1691763267071866,1501,1500,1256,1500,1000,0,0,0
1691763267075735,1501,1498,1258,1500,1000,0,0,0
1691763267078737,1500,1498,1257,1500,1000,0,0,0
1691763267082176,1500,1498,1257,1500,1000,0,0,0
1691763267085873,1501,1500,1257,1500,1000,0,0,0
1691763267089897,1501,1500,1256,1500,1000,0,0,0
1691763267093847,1501,1501,1256,1500,1000,0,0,0
1691763267096790,1500,1498,1257,1500,1000,0,0,0
1691763267100735,1500,1497,1258,1500,1000,0,0,0
1691763267104936,1502,1495,1258,1500,1000,0,0,0
1691763267107564,1501,1498,1257,1500,1000,0,0,0
1691763267111449,1500,1499,1256,1500,1000,0,0,0
1691763267114955,1501,1497,1257,1500,1000,0,0,0
1691763267120124,1500,1497,1257,1500,1000,0,0,0
1691763267122904,1500,1498,1257,1500,1000,0,0,0
1691763267126922,1500,1497,1257,1500,1000,0,0,0
1691763267129522,1501,1498,1257,1500,1000,0,0,0
1691763267133085,1500,1500,1256,1500,1000,0,0,0
1691763267136951,1500,1499,1257,1500,1000,0,0,0
1691763267140830,1500,1498,1257,1500,1000,0,0,0
1691763267144911,1501,1498,1257,1500,1000,0,0,0
1691763267147821,1500,1498,1257,1500,1000,0,0,0
1691763267151265,1500,1499,1256,1500,1000,0,0,0
1691763267154905,1500,1500,1256,1500,1000,0,0,0
1691763267158365,1500,1498,1257,1500,1000,0,0,0
1691763267162205,1499,1499,1257,1500,1000,0,0,0
1691763267165813,1499,1499,1257,1500,1000,0,0,0
1691763267170080,1500,1500,1257,1500,1000,0,0,0
1691763267173887,1500,1501,1256,1500,1000,0,0,0
1691763267176706,1499,1502,1256,1500,1000,0,0,0
1691763267181300,1499,1501,1257,1500,1000,0,0,0
1691763267183844,1499,1500,1257,1500,1000,0,0,0
1691763267187630,1499,1498,1258,1500,1000,0,0,0
1691763267191895,1500,1498,1257,1500,1000,0,0,0
1691763267195015,1500,1498,1257,1500,1000,0,0,0
1691763267198474,1500,1500,1257,1500,1000,0,0,0
1691763267202312,1499,1498,1258,1500,1000,0,0,0
1691763267205579,1498,1498,1258,1500,1000,0,0,0
1691763267209829,1499,1498,1258,1500,1000,0,0,0
1691763267213803,1499,1498,1258,1500,1000,0,0,0
1691763267216732,1499,1500,1257,1500,1000,0,0,0
1691763267220839,1499,1500,1257,1500,1000,0,0,0
1691763267224796,1499,1501,1257,1500,1000,0,0,0
1691763267227897,1498,1499,1258,1500,1000,0,0,0
1691763267231315,1498,1500,1258,1500,1000,0,0,0
1691763267234897,1499,1499,1258,1500,1000,0,0,0
1691763267238921,1499,1500,1258,1500,1000,0,0,0
1691763267242809,1499,1502,1257,1500,1000,0,0,0
1691763267246817,1498,1502,1257,1500,1000,0,0,0
1691763267249349,1498,1500,1258,1500,1000,0,0,0
1691763267253068,1498,1501,1258,1500,1000,0,0,0
1691763267256962,1498,1502,1258,1500,1000,0,0,0
1691763267260870,1499,1502,1258,1500,1000,0,0,0
1691763267263968,1499,1503,1257,1500,1000,0,0,0
1691763267267544,1498,1500,1259,1500,1000,0,0,0
1691763267271392,1498,1500,1259,1500,1000,0,0,0
1691763267274793,1498,1499,1259,1500,1000,0,0,0
1691763267278409,1499,1499,1258,1500,1000,0,0,0
1691763267281950,1498,1501,1258,1500,1000,0,0,0
1691763267285647,1498,1502,1257,1500,1000,0,0,0
1691763267289298,1498,1500,1258,1500,1000,0,0,0
1691763267292997,1498,1501,1258,1500,1000,0,0,0
1691763267296805,1498,1501,1258,1500,1000,0,0,0
1691763267300182,1499,1500,1258,1500,1000,0,0,0
1691763267304308,1499,1501,1258,1500,1000,0,0,0
1691763267307551,1498,1503,1257,1500,1000,0,0,0
1691763267311254,1498,1501,1258,1500,1000,0,0,0
1691763267316255,1498,1500,1258,1500,1000,0,0,0
1691763267318393,1498,1501,1258,1500,1000,0,0,0
1691763267322170,1498,1501,1258,1500,1000,0,0,0
1691763267325914,1498,1503,1257,1500,1000,0,0,0
1691763267330072,1498,1503,1257,1500,1000,0,0,0
1691763267333051,1498,1503,1257,1500,1000,0,0,0
1691763267336753,1498,1503,1258,1500,1000,0,0,0
1691763267340726,1498,1501,1258,1499,1000,0,0,0
1691763267343942,1499,1500,1258,1499,1000,0,0,0
1691763267347664,1498,1501,1258,1499,1000,0,0,0
1691763267351162,1498,1502,1257,1499,1000,0,0,0
1691763267355005,1498,1501,1258,1499,1000,0,0,0
1691763267358670,1498,1501,1259,1499,1000,0,0,0
1691763267362151,1498,1501,1258,1499,1000,0,0,0
1691763267365793,1498,1500,1258,1499,1000,0,0,0
1691763267369308,1499,1501,1258,1499,1000,0,0,0
1691763267373123,1498,1503,1257,1499,1000,0,0,0
1691763267377266,1498,1502,1258,1499,1000,0,0,0
1691763267382767,1498,1502,1258,1499,1000,0,0,0
1691763267384840,1498,1502,1258,1499,1000,0,0,0
1691763267388881,1499,1501,1258,1499,1000,0,0,0
1691763267392045,1499,1502,1258,1499,1000,0,0,0
1691763267394800,1498,1503,1257,1500,1000,0,0,0
1691763267398476,1498,1503,1257,1500,1000,0,0,0
1691763267402083,1498,1503,1257,1499,1000,0,0,0
1691763267406394,1498,1503,1258,1499,1000,0,0,0
1691763267410076,1499,1502,1258,1499,1000,0,0,0
1691763267414122,1499,1503,1257,1499,1000,0,0,0
1691763267417311,1499,1502,1257,1499,1000,0,0,0
1691763267420294,1499,1500,1259,1499,1000,0,0,0
1691763267424076,1498,1500,1259,1499,1000,0,0,0
1691763267428159,1499,1499,1259,1499,1000,0,0,0
1691763267432133,1499,1500,1258,1499,1000,0,0,0
1691763267434982,1499,1501,1258,1499,1000,0,0,0
1691763267439239,1499,1502,1257,1499,1000,0,0,0
1691763267442022,1499,1500,1258,1499,1000,0,0,0
1691763267446182,1498,1500,1258,1499,1000,0,0,0
1691763267450091,1499,1500,1258,1499,1000,0,0,0
1691763267453909,1499,1500,1258,1499,1000,0,0,0
1691763267457063,1500,1501,1258,1499,1000,0,0,0
1691763267461198,1499,1502,1257,1499,1000,0,0,0
1691763267463922,1499,1500,1258,1499,1000,0,0,0
1691763267467652,1499,1500,1258,1499,1000,0,0,0
1691763267472142,1499,1500,1258,1499,1000,0,0,0
1691763267475078,1500,1501,1257,1499,1000,0,0,0
1691763267478494,1500,1502,1257,1499,1000,0,0,0
1691763267482097,1499,1502,1257,1499,1000,0,0,0
1691763267486198,1500,1501,1257,1499,1000,0,0,0
1691763267490129,1499,1499,1258,1499,1000,0,0,0
1691763267493915,1500,1498,1258,1499,1000,0,0,0
1691763267497319,1501,1498,1258,1499,1000,0,0,0
1691763267500141,1500,1500,1257,1499,1000,0,0,0
1691763267504285,1500,1500,1257,1499,1000,0,0,0
1691763267508521,1501,1499,1258,1499,1000,0,0,0
1691763267511268,1500,1499,1258,1499,1000,0,0,0
1691763267515076,1500,1499,1258,1499,1000,0,0,0
1691763267519809,1501,1499,1258,1499,1000,0,0,0
1691763267523073,1500,1499,1257,1499,1000,0,0,0
1691763267525657,1500,1500,1257,1499,1000,0,0,0
1691763267529789,1501,1499,1257,1499,1000,0,0,0
1691763267533381,1500,1499,1258,1499,1000,0,0,0
1691763267537147,1500,1499,1258,1499,1000,0,0,0
1691763267541682,1500,1498,1258,1499,1000,0,0,0
1691763267544170,1501,1499,1257,1499,1000,0,0,0
1691763267548276,1501,1500,1257,1499,1000,0,0,0
1691763267551251,1501,1499,1257,1499,1000,0,0,0
1691763267556319,1500,1499,1258,1499,1000,0,0,0
1691763267559353,1500,1499,1258,1499,1000,0,0,0
1691763267563077,1501,1498,1258,1499,1000,0,0,0
1691763267565770,1501,1499,1257,1499,1000,0,0,0
1691763267569392,1501,1500,1257,1499,1000,0,0,0
1691763267573214,1501,1499,1257,1499,1000,0,0,0
1691763267577501,1501,1499,1257,1499,1000,0,0,0
1691763267581718,1500,1500,1257,1499,1000,0,0,0
1691763267584158,1501,1499,1257,1499,1000,0,0,0
1691763267588707,1502,1498,1257,1499,1000,0,0,0
1691763267591998,1501,1499,1257,1499,1000,0,0,0
1691763267595011,1501,1497,1258,1499,1000,0,0,0
1691763267598478,1501,1496,1258,1499,1000,0,0,0
1691763267602257,1501,1496,1258,1499,1000,0,0,0
1691763267606392,1501,1496,1258,1499,1000,0,0,0
1691763267610506,1501,1498,1258,1499,1000,0,0,0
1691763267612926,1502,1498,1257,1499,1000,0,0,0
1691763267616771,1501,1497,1258,1499,1000,0,0,0
1691763267620255,1500,1498,1258,1499,1000,0,0,0
1691763267624326,1501,1497,1258,1499,1000,0,0,0
1691763267628273,1502,1496,1258,1499,1000,0,0,0
1691763267632142,1501,1497,1258,1499,1000,0,0,0
1691763267634898,1500,1499,1257,1499,1000,0,0,0
1691763267638485,1501,1499,1257,1499,1000,0,0,0
1691763267642343,1501,1497,1258,1499,1000,0,0,0
1691763267646328,1500,1497,1258,1499,1000,0,0,0
1691763267650369,1501,1497,1258,1499,1000,0,0,0
1691763267652949,1502,1496,1258,1499,1000,0,0,0
1691763267656831,1500,1499,1258,1500,1000,0,0,0
1691763267660424,1500,1499,1257,1500,1000,0,0,0
1691763267664390,1500,1499,1258,1500,1000,0,0,0
1691763267668847,1500,1499,1258,1500,1000,0,0,0
1691763267672136,1500,1499,1258,1500,1000,0,0,0
1691763267675363,1501,1498,1258,1500,1000,0,0,0
1691763267679372,1500,1498,1258,1500,1000,0,0,0
1691763267682166,1500,1499,1258,1500,1000,0,0,0
1691763267685630,1500,1497,1258,1500,1000,0,0,0
1691763267689407,1500,1497,1259,1500,1000,0,0,0
1691763267693487,1501,1495,1259,1500,1000,0,0,0
1691763267697415,1500,1497,1258,1500,1000,0,0,0
1691763267701309,1499,1499,1258,1500,1000,0,0,0
1691763267704050,1500,1499,1258,1500,1000,0,0,0
1691763267707679,1500,1496,1259,1500,1000,0,0,0
1691763267711708,1499,1497,1259,1500,1000,0,0,0
1691763267715645,1499,1497,1259,1500,1000,0,0,0
1691763267719536,1500,1497,1258,1500,1000,0,0,0
1691763267722422,1499,1499,1258,1500,1000,0,0,0
1691763267726430,1499,1500,1257,1500,1000,0,0,0
1691763267729630,1499,1498,1258,1500,1000,0,0,0
1691763267733309,1499,1497,1259,1500,1000,0,0,0
1691763267737053,1499,1499,1258,1500,1000,0,0,0
1691763267740585,1499,1500,1257,1500,1000,0,0,0
1691763267744574,1499,1499,1257,1500,1000,0,0,0
1691763267748794,1499,1498,1258,1500,1000,0,0,0
1691763267751378,1498,1498,1258,1500,1000,0,0,0
1691763267755280,1498,1498,1258,1500,1000,0,0,0
1691763267758512,1499,1497,1258,1500,1000,0,0,0
1691763267762528,1499,1499,1257,1500,1000,0,0,0
1691763267766749,1498,1501,1257,1500,1000,0,0,0
1691763267770243,1498,1499,1258,1500,1000,0,0,0
1691763267773044,1498,1498,1258,1500,1000,0,0,0
1691763267776824,1498,1498,1257,1500,1000,0,0,0
1691763267780460,1498,1499,1257,1500,1000,0,0,0
1691763267784533,1499,1500,1257,1500,1000,0,0,0
1691763267788476,1498,1500,1257,1500,1000,0,0,0
1691763267791322,1498,1499,1257,1500,1000,0,0,0
1691763267795005,1498,1499,1257,1500,1000,0,0,0
1691763267798588,1499,1497,1257,1500,1000,0,0,0
1691763267802603,1499,1500,1257,1500,1000,0,0,0
1691763267805692,1498,1501,1256,1500,1000,0,0,0
1691763267809474,1499,1500,1257,1500,1000,0,0,0
1691763267813759,1498,1499,1257,1500,1000,0,0,0
1691763267817377,1498,1499,1257,1500,1000,0,0,0
1691763267820249,1498,1498,1257,1500,1000,0,0,0
1691763267824539,1499,1499,1256,1500,1000,0,0,0
1691763267829477,1499,1500,1256,1500,1000,0,0,0
1691763267831475,1498,1499,1257,1500,1000,0,0,0
1691763267835476,1498,1499,1257,1500,1000,0,0,0
1691763267838338,1498,1499,1257,1500,1000,0,0,0
1691763267842795,1499,1499,1257,1500,1000,0,0,0
1691763267846376,1498,1500,1256,1500,1000,0,0,0
1691763267850180,1498,1501,1256,1500,1000,0,0,0
1691763267852944,1499,1500,1256,1500,1000,0,0,0
1691763267856817,1498,1500,1257,1500,1000,0,0,0
1691763267860529,1498,1500,1257,1500,1000,0,0,0
1691763267864557,1498,1499,1257,1500,1000,0,0,0
1691763267868727,1498,1500,1257,1500,1000,0,0,0
1691763267871121,1498,1501,1256,1500,1000,0,0,0
1691763267874922,1498,1500,1257,1500,1000,0,0,0
1691763267878589,1498,1500,1257,1500,1000,0,0,0
1691763267882568,1498,1501,1257,1500,1000,0,0,0
1691763267886811,1498,1501,1257,1500,1000,0,0,0
1691763267890393,1498,1500,1257,1500,1000,0,0,0
1691763267893090,1499,1502,1256,1500,1000,0,0,0
1691763267896816,1499,1502,1257,1500,1000,0,0,0
1691763267900769,1498,1502,1257,1500,1000,0,0,0
1691763267904743,1498,1500,1257,1500,1000,0,0,0
1691763267907578,1499,1500,1257,1500,1000,0,0,0
1691763267911360,1499,1501,1257,1500,1000,0,0,0
1691763267915338,1499,1502,1256,1500,1000,0,0,0
1691763267918575,1499,1500,1257,1500,1000,0,0,0
1691763267922511,1498,1501,1257,1500,1000,0,0,0
1691763267926797,1499,1501,1257,1500,1000,0,0,0
1691763267929594,1499,1500,1257,1500,1000,0,0,0
1691763267934264,1499,1501,1256,1500,1000,0,0,0
1691763267937586,1499,1502,1256,1500,1000,0,0,0
1691763267940767,1499,1501,1257,1500,1000,0,0,0
1691763267944316,1498,1501,1257,1500,1000,0,0,0
1691763267947568,1499,1501,1257,1500,1000,0,0,0
1691763267951725,1499,1501,1257,1500,1000,0,0,0
1691763267955493,1499,1501,1256,1500,1000,0,0,0
1691763267959968,1499,1502,1256,1500,1000,0,0,0
1691763267962744,1499,1502,1256,1500,1000,0,0,0
1691763267967051,1499,1502,1257,1500,1000,0,0,0
1691763267969493,1499,1501,1257,1500,1000,0,0,0
1691763267973620,1499,1501,1257,1500,1000,0,0,0
1691763267977681,1500,1501,1257,1500,1000,0,0,0
1691763267980420,1500,1502,1257,1500,1000,0,0,0
1691763267984765,1499,1502,1256,1500,1000,0,0,0
1691763267987586,1499,1503,1257,1500,1000,0,0,0
1691763267991584,1499,1503,1257,1500,1000,0,0,0
1691763267995705,1500,1502,1257,1500,1000,0,0,0
1691763267999372,1500,1502,1257,1500,1000,0,0,0
1691763268002064,1500,1503,1257,1500,1000,0,0,0
1691763268005647,1500,1502,1257,1500,1000,0,0,0
1691763268009827,1500,1501,1257,1500,1000,0,0,0
1691763268013555,1500,1501,1258,1500,1000,0,0,0
1691763268017911,1500,1500,1258,1500,1000,0,0,0
1691763268020167,1501,1500,1258,1500,1000,0,0,0
1691763268023848,1501,1501,1257,1500,1000,0,0,0
1691763268027956,1500,1502,1257,1500,1000,0,0,0
1691763268031554,1500,1501,1258,1500,1000,0,0,0
1691763268035593,1500,1501,1258,1500,1000,0,0,0
1691763268038397,1500,1501,1258,1500,1000,0,0,0
1691763268042568,1501,1501,1258,1500,1000,0,0,0
1691763268046957,1500,1501,1258,1500,1000,0,0,0
1691763268049348,1500,1502,1257,1500,1000,0,0,0
1691763268053004,1500,1502,1258,1500,1000,0,0,0
1691763268056711,1500,1501,1258,1500,1000,0,0,0
1691763268060729,1500,1501,1258,1500,1000,0,0,0
1691763268064677,1501,1501,1258,1500,1000,0,0,0
1691763268068558,1501,1501,1258,1500,1000,0,0,0
1691763268071627,1501,1502,1257,1500,1000,0,0,0
1691763268076016,1501,1502,1257,1500,1000,0,0,0
1691763268078576,1500,1502,1258,1500,1000,0,0,0
1691763268082768,1501,1501,1258,1500,1000,0,0,0
1691763268086844,1501,1500,1258,1500,1000,0,0,0
1691763268089333,1501,1501,1257,1500,1000,0,0,0
1691763268093777,1501,1502,1257,1500,1000,0,0,0
1691763268096762,1501,1500,1258,1500,1000,0,0,0
1691763268100532,1500,1500,1258,1500,1000,0,0,0
1691763268105160,1501,1500,1258,1500,1000,0,0,0
1691763268108417,1501,1500,1257,1500,1000,0,0,0
1691763268111255,1501,1501,1257,1500,1000,0,0,0
1691763268114807,1501,1501,1257,1500,1000,0,0,0
1691763268119124,1500,1500,1257,1500,1000,0,0,0
1691763268122664,1500,1500,1258,1500,1000,0,0,0
1691763268125603,1501,1499,1258,1500,1000,0,0,0
1691763268129720,1500,1500,1257,1500,1000,0,0,0
1691763268133990,1501,1500,1257,1500,1000,0,0,0
1691763268138211,1501,1501,1257,1500,1000,0,0,0
1691763268140088,1500,1501,1257,1500,1000,0,0,0
1691763268144094,1499,1501,1257,1500,1000,0,0,0
1691763268147801,1500,1499,1257,1500,1000,0,0,0
1691763268151828,1502,1498,1257,1500,1000,0,0,0
1691763268155683,1500,1499,1257,1500,1000,0,0,0
1691763268158307,1500,1500,1257,1500,1000,0,0,0
1691763268162064,1501,1498,1257,1500,1000,0,0,0
1691763268165716,1500,1498,1257,1500,1000,0,0,0
1691763268169354,1500,1498,1257,1500,1000,0,0,0
1691763268172982,1501,1498,1257,1500,1000,0,0,0
1691763268177077,1501,1498,1257,1500,1000,0,0,0
