timestamp,roll,pitch,yaw,norm_thrust
1691763263564400,0.00000000,0.00000000,0.00000000,0.00000000
1691763263574405,0.00000000,0.00000000,0.00000000,0.00000000
1691763263584415,0.00000000,0.00000000,0.00000000,0.00000000
1691763263594410,0.00000000,0.00000000,0.00000000,0.00000000
1691763263604410,0.00000000,0.00000000,0.00000000,0.00000000
1691763263614407,0.00000000,0.00000000,0.00000000,0.00000000
1691763263624408,0.00000000,0.00000000,0.00000000,0.00000000
1691763263634421,0.00000000,0.00000000,0.00000000,0.00000000
1691763263644414,0.00000000,0.00000000,0.00000000,0.00000000
1691763263654429,0.00000000,0.00000000,0.00000000,0.00000000
1691763263664409,0.00000000,0.00000000,0.00000000,0.00000000
1691763263674410,0.00000000,0.00000000,0.00000000,0.00000000
1691763263685833,-0.14299715,0.30624866,0.33050418,11.42299557
1691763263689538,-0.11712292,0.38653049,0.32921931,11.25985050
1691763263693595,-0.11325491,0.39701465,0.32864106,11.24285412
1691763263696633,-0.10657008,0.40102103,0.32838014,11.26174164
1691763263700539,-0.11081446,0.39902052,0.32881984,11.27423859
1691763263704780,-0.11206953,0.40054768,0.32900777,11.27379894
1691763263708297,-0.11587514,0.44170135,0.32908243,11.27080631
1691763263711180,-0.11163312,0.40765825,0.32944369,11.30781937
1691763263714684,-0.10665567,0.40567726,0.32933900,11.29222298
1691763263718650,-0.11943030,0.41999006,0.32992294,11.33185196
1691763263722488,-0.10949381,0.41197747,0.32927635,11.33878803
1691763263726994,-0.10865026,0.40224439,0.32926556,11.37939930
1691763263729186,-0.10642144,0.39503089,0.32842347,11.38532257
1691763263735253,-0.09149158,0.38023457,0.32530725,11.43880653
1691763263736632,-0.10721228,0.38864970,0.32298747,11.42348862
1691763263740438,-0.10307575,0.37833607,0.31698036,11.40953159
1691763263744672,-0.09867120,0.36962825,0.30995619,11.36628532
1691763263748422,-0.09585360,0.35516983,0.30054486,11.37832355
1691763263751549,-0.09646708,0.33635542,0.28925228,11.36124420
1691763263755590,-0.08399410,0.30606607,0.27704698,11.41925907
1691763263758222,-0.09263890,0.28270957,0.26486883,11.37402725
1691763263763002,-0.08695523,0.25814191,0.25121433,11.35056973
1691763263765491,-0.15154685,0.29735273,0.23135290,11.66623878
1691763263769684,-0.21167719,0.17133579,0.21108690,11.87043285
1691763263773554,-0.15245847,0.14058100,0.19200003,11.71864223
1691763263777791,-0.09851325,0.10536023,0.17657861,11.68274117
1691763263780172,-0.10602006,0.08979118,0.16329138,11.54183388
1691763263783899,-0.13342749,0.07020868,0.14796421,11.33049202
1691763263788024,-0.12932669,0.04562862,0.13307825,11.19127178
1691763263791761,-0.10188879,-0.06183695,0.12316123,11.14370251
1691763263795609,-0.05585423,-0.14699680,0.11461194,11.04258728
1691763263799118,-0.06235497,-0.13341761,0.10736019,10.61438656
1691763263802679,-0.09331360,-0.23076773,0.09743536,10.81890869
1691763263806651,-0.07538401,-0.24149168,0.08943187,10.69938564
1691763263809229,0.00162173,-0.13041979,0.08443062,10.09692574
1691763263813117,0.04739231,-0.17355135,0.07876296,10.05537033
1691763263818206,0.01252051,-0.31324428,0.07276870,10.43506527
1691763263820860,0.17006338,-0.17396219,0.06994201,9.67178059
1691763263824777,0.02153687,-0.29208788,0.06119502,10.10778236
1691763263827751,0.00968539,-0.28954440,0.05478663,10.10057831
1691763263831099,0.04264137,-0.44677374,0.05070363,10.21671104
1691763263835022,0.22830132,-0.26464471,0.05291078,9.32766438
1691763263838410,0.11856861,-0.41518766,0.04713240,9.83739376
1691763263842012,0.11478778,-0.37351456,0.04439117,9.78356361
1691763263846486,0.09804737,-0.34321910,0.04159065,9.65945911
1691763263849407,0.26023406,-0.07596459,0.04079374,8.68007755
1691763263852913,0.25567216,-0.11026471,0.03603846,9.21105385
1691763263856920,0.07850612,-0.28127041,0.02869436,10.01169872
1691763263860336,0.05237944,-0.31285065,0.02323363,9.90560627
1691763263863878,0.07028785,-0.32890674,0.01829416,9.68682957
1691763263868235,0.08246722,-0.33505312,0.01357190,9.81366253
1691763263874154,0.10441229,-0.42618820,0.00966071,9.96952438
1691763263875679,0.11340676,-0.43597159,0.00772399,9.76449394
1691763263878779,0.13614152,-0.39545259,0.00715962,9.72654915
1691763263882838,0.17029679,-0.40702218,0.00625271,9.56659985
1691763263885645,0.14986020,-0.30398324,0.00306091,9.49919510
1691763263889755,0.15904847,-0.21629459,0.00009422,9.41254711
1691763263894853,0.20900762,-0.24667916,-0.00309862,9.53512764
1691763263897811,0.14845006,-0.20649733,-0.00733293,9.50875282
1691763263901049,0.15589638,-0.22484851,-0.00994429,9.58320618
1691763263904297,0.14554989,-0.23643017,-0.01303756,9.59466553
1691763263907678,0.12978578,-0.20299487,-0.01598663,9.71335125
1691763263912917,0.05867368,-0.84675306,-0.02054905,8.85251904
1691763263916644,1.34487188,-0.61123705,0.04128962,6.84468222
1691763263918316,0.76496249,0.03035288,-0.03031454,8.20730686
1691763263922068,0.37728944,0.04205886,-0.03076054,9.25800037
1691763263926665,0.18445478,0.02095788,-0.03003290,9.64548779
1691763263931675,0.12122094,0.00933317,-0.02953455,9.70926285
1691763263933670,0.12718777,-0.01773116,-0.02872013,9.75602436
1691763263936923,0.10681850,-0.01844222,-0.02740880,9.69739246
1691763263940827,0.03355030,-0.00780731,-0.02642588,9.54873180
1691763263944702,-0.00622770,0.11685930,-0.02966408,9.69127464
1691763263947466,-0.05044523,0.07103901,-0.03069295,9.73380756
1691763263951016,-0.06162310,0.01496449,-0.02946265,9.99618912
1691763263954766,-0.08091166,0.05522439,-0.02973477,9.80240345
1691763263958732,-0.56451267,-0.17969532,-0.02931381,10.82813263
1691763263962837,-0.60659957,-0.53074241,-0.03070156,11.27807713
1691763263965624,-0.40875271,-0.24966958,-0.01183570,11.16408443
1691763263969805,-0.31091392,-0.17763481,-0.00359771,10.89396286
1691763263973896,-0.26254112,-0.11090770,0.00067470,10.58458805
1691763263976354,-0.20126779,-0.14720309,0.00652057,10.46034718
1691763263980240,-0.16216102,-0.02990172,0.00898058,10.00350285
1691763263984853,-0.08402925,-0.10562478,0.01398214,10.09967899
1691763263987865,-0.06357269,-0.13060808,0.01730648,10.17571831
1691763263991866,-0.07896723,-0.11628959,0.02062084,9.99215412
1691763263994632,-0.07862229,-0.05923635,0.02357222,10.19274807
1691763263998425,-0.00533699,-0.01045290,0.03093443,9.84888935
1691763264001959,0.02730525,0.07137192,0.03070609,9.13633347
1691763264005763,-0.03040825,0.12963107,0.03005728,9.57423306
1691763264009856,-0.01227825,0.11165265,0.03310199,9.91054344
1691763264013852,0.05748546,-0.11541969,0.03599585,10.02933311
1691763264016358,0.04676961,-0.09268470,0.03523995,10.10791492
1691763264020128,0.08150999,-0.10086183,0.03578764,10.03970051
1691763264025555,0.04411959,-0.12218641,0.03617210,10.17708778
1691763264027793,0.03997507,-0.08343745,0.03596869,10.03803730
1691763264031851,0.01191161,0.01711261,0.03454064,9.94304466
1691763264035575,0.02798870,0.00070886,0.03376530,9.95374966
1691763264038769,0.02455386,-0.00583875,0.03282505,9.95431709
1691763264042354,0.04052605,-0.02495960,0.03183320,9.96882248
1691763264046064,0.05361962,-0.04490562,0.03103346,10.05162907
1691763264049976,0.08287024,-0.11985969,0.03118697,10.09120655
1691763264053825,0.07167254,-0.10385460,0.03046007,10.08527470
1691763264056438,0.07235209,-0.07245149,0.02998055,10.12491512
1691763264060261,0.04210201,-0.01223741,0.02911646,10.01501751
1691763264063926,0.05715073,-0.05614309,0.02905245,10.08859539
1691763264068026,0.06958586,-0.08001228,0.02902390,10.10660362
1691763264071979,0.05704675,-0.01918143,0.02839114,10.09766960
1691763264075604,0.06785863,-0.03944463,0.02832776,10.17243099
1691763264078317,0.08848299,-0.05773806,0.02833916,10.11591244
1691763264082205,0.08160832,-0.01245318,0.02749811,10.05574417
1691763264085631,0.05812959,-0.00002977,0.02664540,10.05376911
1691763264089972,0.08136202,-0.02002905,0.02559076,10.03379345
1691763264092924,0.08090246,-0.03794650,0.02471556,10.01623726
1691763264096917,0.06108597,-0.02720903,0.02335586,10.08027935
1691763264100973,0.04415398,-0.03938146,0.02171539,10.11751461
1691763264104787,0.04792813,-0.09631054,0.02068072,10.31680107
1691763264107796,0.06631597,-0.02862347,0.02016379,10.07482815
1691763264111224,0.06796177,-0.13657907,0.01919548,10.18213940
1691763264116136,0.09294682,-0.21087404,0.01934957,10.18652058
1691763264118887,0.07089346,-0.13729057,0.01828314,10.16056347
1691763264122980,0.07244278,-0.10406911,0.01760658,10.08146000
1691763264125916,0.07495025,-0.08432571,0.01708746,10.23327541
1691763264130568,0.06965470,-0.05626016,0.01653339,10.16884327
1691763264132938,0.06554378,-0.04388049,0.01594535,10.13349724
1691763264136991,0.09944594,-0.09220406,0.01546183,10.07015133
1691763264141278,0.11120410,-0.05385341,0.01402155,10.21743011
1691763264143751,0.06200662,-0.03541480,0.01288070,10.08428001
1691763264147532,0.08387427,-0.04182306,0.01243282,10.01191330
1691763264151023,0.12867397,-0.05926440,0.01188337,9.91148376
1691763264154743,0.09079075,-0.01303597,0.01037832,10.00156784
1691763264158951,0.02374368,0.05982088,0.00819850,9.96434402
1691763264162919,0.03218824,0.07218470,0.00584016,10.00936508
1691763264165490,0.06917165,0.07264684,0.00399283,9.96245480
1691763264169295,0.03940602,0.06538348,0.00266066,10.06511402
1691763264172948,0.03126440,0.02510184,0.00125281,10.08922100
1691763264176570,0.01661949,-0.00338872,0.00050351,10.41856956
1691763264180368,0.04706482,-0.06620690,-0.00013616,10.21477413
1691763264183825,0.06097373,-0.08578880,-0.00103549,10.16187763
1691763264187430,1.63994479,0.16940214,-0.04052095,7.11794662
1691763264191187,0.53654474,0.25858083,-0.03417244,9.34407520
1691763264195048,0.23122318,0.14524317,-0.02962537,9.94731045
1691763264198936,0.11834519,0.11571607,-0.03147287,10.05829525
1691763264201831,0.05524681,0.05134178,-0.03218918,10.19598866
1691763264206178,0.03843410,0.00013478,-0.03231791,10.17535973
1691763264210131,0.00567768,0.12688656,-0.03552788,9.76234818
1691763264214013,-0.05246203,0.21211754,-0.03959293,9.95550251
1691763264216979,-0.09176387,0.00793567,-0.03774558,10.38589382
1691763264220914,-0.09677788,0.08257905,-0.04030572,10.24656391
1691763264223708,-0.13209255,0.00846024,-0.04107465,10.34013367
1691763264227409,-0.16522418,0.07972510,-0.04559685,10.10647202
1691763264231199,-0.12756555,0.07936801,-0.04860638,10.17983150
1691763264235019,-0.10655181,-0.07422467,-0.04521215,10.22075176
1691763264239008,-0.12413672,-0.00124366,-0.04681072,10.44898033
1691763264242983,-0.14114572,-0.01143903,-0.04593522,10.38953400
1691763264245950,-0.12701645,0.00494654,-0.04580042,10.53944016
1691763264249987,-0.13089147,-0.01360555,-0.04485333,10.35836124
1691763264253812,-0.18286133,0.02705486,-0.04532382,10.19334507
1691763264256544,-0.18222721,0.05648204,-0.04594925,10.24314213
1691763264260181,-0.66451305,-0.09780116,-0.04011763,11.28237057
1691763264264252,-0.56643331,-0.05880169,-0.03274240,11.26108932
1691763264268164,-0.43936422,0.04149514,-0.02437507,11.16990948
1691763264270897,-0.39112630,-0.05011639,-0.02231611,10.98179722
1691763264274993,-0.30101475,-0.17516845,-0.01580768,10.94964790
1691763264279086,-0.23920539,-0.12992889,-0.01068621,10.78108788
1691763264282859,-0.20886092,-0.11357480,-0.00593359,10.57349586
1691763264285421,-0.13446784,-0.10311288,-0.00156119,10.52139759
1691763264289268,-0.07367082,0.00078577,0.00338258,10.46065712
1691763264293174,-0.10075394,-0.03296782,0.00711783,10.38062572
1691763264296436,-0.00724456,-0.05849743,0.01083066,10.21487045
1691763264300330,-0.00106074,0.00349603,0.01162269,10.14464474
1691763264303983,-0.03851057,0.10520122,0.01059049,10.15109444
1691763264308996,-0.03760336,-0.00036775,0.01314372,10.51632690
1691763264311001,0.02284887,-0.05439739,0.01512622,10.30133057
1691763264314805,0.05589659,0.00294640,0.01447287,10.05743694
1691763264318314,-0.00883812,0.11439933,0.01292676,10.06110096
1691763264321881,-0.02998441,-0.02822517,0.01431454,10.33498287
1691763264325582,0.00852771,-0.02697455,0.01496491,10.31063461
1691763264329231,0.02966197,0.00323943,0.01533005,10.27183914
1691763264333091,0.07537549,0.05810732,0.01775998,10.06745625
1691763264337103,1.05654800,0.64902461,-0.03895418,8.40774822
1691763264341184,0.79114103,0.31490520,-0.01531455,8.62635136
1691763264344054,0.38303858,0.24359155,-0.01160949,9.37863922
1691763264347522,0.15976681,0.18901892,-0.01378836,10.17365837
1691763264351185,0.11117509,0.07155237,-0.01623858,10.37327385
1691763264355098,0.11679229,0.04076966,-0.01862887,10.25435066
1691763264360236,-0.01169759,0.11631183,-0.02326838,10.18844509
1691763264362241,0.01367677,0.00633514,-0.02507430,10.41026688
1691763264366178,0.06342322,-0.01629245,-0.02698376,10.03268623
1691763264370115,0.00793672,0.00814040,-0.02902378,10.33189964
1691763264373853,-0.05693056,0.01830911,-0.03095804,10.42771053
1691763264379509,-0.07731837,0.01641235,-0.03245739,10.51677799
1691763264380184,-0.05296637,0.14471853,-0.03816906,10.29790211
1691763264384196,-0.02821502,-0.01107799,-0.03664055,10.30783844
1691763264388198,-0.05396525,-0.02649040,-0.03633172,10.49446583
1691763264391943,-0.04781071,-0.00614485,-0.03630317,10.53155804
1691763264394502,-0.04221272,-0.00576397,-0.03610108,10.49059391
1691763264398388,-0.04922792,0.02924099,-0.03652216,10.46916580
1691763264402234,-0.11453072,0.07849411,-0.03663842,10.36895370
1691763264406957,-0.12112627,0.15726487,-0.03828567,10.45304489
1691763264410241,-0.07961287,0.11082669,-0.03910087,10.31963539
1691763264415346,-0.11134864,0.10265261,-0.03943675,10.44406700
1691763264418751,-0.08436102,0.01105707,-0.03824382,10.56619740
1691763264420177,-0.10567117,-0.03184878,-0.03739243,10.52580357
1691763264424252,-0.10325911,-0.00867912,-0.03738662,10.57118797
1691763264428201,-0.02348588,-0.00569127,-0.03704760,10.19631290
1691763264430954,-0.08224887,0.10786586,-0.03898684,10.37246704
1691763264435227,-0.09232847,0.09536226,-0.03893811,10.45155525
1691763264439229,-0.09853452,0.00923611,-0.03702744,10.67375565
1691763264442004,-0.10406744,0.00140108,-0.03575651,10.59618855
1691763264447428,-0.07568336,-0.01170865,-0.03451372,10.54445744
1691763264449317,-0.03646535,-0.00374087,-0.03365843,10.47296047
1691763264453262,-0.14291522,0.20274641,-0.03225507,11.57789421
1691763264460103,-0.21823363,0.21998167,-0.02863631,11.47201061
1691763264460283,-0.33908188,-0.04267790,-0.02488283,10.39338875
1691763264463834,0.22493605,-0.28049085,-0.01442526,9.14879608
1691763264467651,0.15652886,-0.09165034,-0.01989856,9.78057098
1691763264475441,0.13275041,-0.05316736,-0.02004730,10.13967705
1691763264476317,-0.10661401,0.17855293,-0.02088611,11.46815872
1691763264479313,-0.12324048,0.27190608,-0.02143269,11.19875240
1691763264481933,-0.07775493,0.14734305,-0.02113101,11.17600536
1691763264485699,-0.15582374,0.00778246,-0.01985190,11.01788425
1691763264489176,-0.11448588,-0.02633031,-0.01953550,10.79014683
1691763264492892,-0.01481463,-0.15036529,-0.01779621,10.57315636
1691763264496414,0.06682514,-0.62397581,-0.00892171,9.44946098
1691763264500302,0.04825188,-0.24186271,-0.01037001,9.85708237
1691763264504397,0.53305346,-0.03732898,-0.00920855,8.72698879
1691763264508373,0.28019047,-0.01087661,-0.00905938,9.99222088
1691763264510977,0.19548526,0.04820877,-0.00831417,10.34192848
1691763264514564,0.15234086,-0.01893106,-0.00451457,10.30423641
1691763264519851,0.12392509,-0.03669647,-0.00259542,10.57698917
1691763264522425,0.11743955,-0.07430056,0.00008841,10.63660049
1691763264526554,0.08402719,0.01144843,0.00070331,10.51633739
1691763264531645,0.08749206,0.00639197,0.00273635,10.35988617
1691763264533402,0.15047938,0.15005499,0.00167284,10.13447380
1691763264536599,0.00812324,0.02073398,0.00648696,10.65303802
1691763264540772,-0.00421002,0.01353843,0.00833410,10.63188839
1691763264544141,0.04451872,0.05151967,0.00893982,10.52792931
1691763264548608,0.02023024,0.00633635,0.01060675,10.66833878
1691763264551348,0.01902872,0.01916188,0.01100372,10.65062428
1691763264554736,0.01787748,0.02517641,0.01137805,10.69097042
1691763264558416,0.01057886,0.04192793,0.01196227,10.65305996
1691763264561960,0.02486241,0.08683603,0.01163679,10.55500889
1691763264565607,0.07362092,0.10114335,0.01195783,10.63678741
1691763264569260,0.05347012,0.04128300,0.01348593,10.59735870
1691763264572863,0.03185072,0.14535859,0.01102795,10.36873913
1691763264576699,0.00684731,0.09604257,0.01104695,10.58856201
1691763264580190,-0.02632979,0.02577136,0.01241202,10.75393677
1691763264583909,0.02429398,0.03196334,0.01222836,10.56572437
1691763264588340,-0.01537054,0.03109197,0.01224995,10.73523712
1691763264590982,0.01773635,0.08143494,0.01102071,10.57560921
1691763264594806,0.03399206,0.11317355,0.00938272,10.53390884
1691763264598370,-0.04138843,0.10328587,0.00970301,10.46129131
1691763264602375,-0.06168522,0.05083094,0.01048841,10.70571136
1691763264606438,-0.00821728,0.02092248,0.01057624,10.81379986
1691763264610237,0.08859900,0.00445048,0.01065122,10.53747177
1691763264613377,-0.00399901,0.06385034,0.00950225,10.49260712
1691763264617408,-0.01027330,0.11553869,0.00766302,10.47773266
1691763264621088,-0.01152926,0.08130181,0.00724188,10.40696049
1691763264623804,-0.02991060,0.02182108,0.00801542,10.58366489
1691763264627554,-0.00097815,0.12063152,0.00664683,10.37427616
1691763264631624,-0.01348012,0.04669930,0.00809204,10.30084419
1691763264635319,-0.22350347,0.05242253,0.01085512,10.96352959
1691763264638365,-0.24555197,0.04364209,0.01245639,10.65726757
1691763264642425,-0.20118482,-0.00957060,0.01366759,10.80722141
1691763264646426,-0.14229020,-0.01162973,0.01546308,10.61106491
1691763264650588,0.36175185,-0.03503655,0.01703474,9.44153118
1691763264652941,0.26856193,0.04452340,0.01393081,9.88094521
1691763264656475,0.14563337,0.05234615,0.01382352,10.37817383
1691763264660368,-0.08526399,0.12162636,0.01662058,11.07658672
1691763264664365,-0.10623479,0.01125208,0.01738683,11.03582859
1691763264668388,-0.16132754,0.01863096,0.01657967,10.77096939
1691763264670965,-0.10906415,-0.03069845,0.01883641,10.70372486
1691763264674482,0.46215865,-0.11163656,0.02364126,9.21287632
1691763264678423,-0.01031123,0.03602273,0.01759297,10.86924458
1691763264682383,-0.07828189,0.08334929,0.01653360,10.75530815
1691763264686434,-0.07503934,0.04276484,0.01568929,10.59005451
1691763264689231,-0.00825349,0.12745023,0.01212596,11.19497585
1691763264693968,0.01696663,0.05615602,0.01098980,11.02237034
1691763264697377,0.03231477,-0.32173288,0.01464134,9.90563965
1691763264700151,0.61232340,-0.19675009,0.02118676,8.62794304
1691763264703883,0.34748238,-0.02257965,0.00917687,9.79286671
1691763264707429,0.20103855,0.09888688,0.00396530,10.21740055
1691763264711489,0.18331851,0.03572182,0.00355367,10.29725266
1691763264715347,0.12720829,-0.00286360,0.00230338,10.47826385
1691763264719401,0.11184994,-0.00088525,0.00035566,10.53615856
1691763264721969,0.04917536,-0.01570491,-0.00071951,10.51085186
1691763264725718,0.03250158,-0.02187623,-0.00083659,10.69780445
1691763264729461,0.04803276,-0.07830765,-0.00066528,10.68374825
1691763264732999,0.04755795,-0.05477216,-0.00152245,10.62402725
1691763264741139,-0.16109890,0.00270685,-0.00258577,11.27038383
1691763264741273,-0.17294863,-0.06620789,-0.00265423,11.05511475
1691763264748055,-0.10526314,-0.02143258,-0.00265169,10.92612648
1691763264748189,-0.07628499,-0.05549943,-0.00244099,10.70633316
1691763264755831,0.35391507,-0.07839734,-0.00070560,9.18794918
1691763264755959,0.18665513,0.02873878,-0.00606161,10.09727859
1691763264759281,0.07803335,0.01204404,-0.00607373,10.64280319
1691763264761936,0.08955245,0.01607347,-0.00647448,10.59627724
1691763264765577,0.05219517,-0.00323442,-0.00606574,10.75581932
1691763264769517,0.06607094,0.03182085,-0.00752232,10.57168102
1691763264773440,0.03216359,0.02385529,-0.00785598,10.62224197
1691763264777528,-0.03449969,0.00812605,-0.00792739,10.63199997
1691763264780131,-0.04100978,-0.02568013,-0.00805971,10.80810356
1691763264783806,-0.00925575,0.02261470,-0.00871963,10.63976002
1691763264787601,-0.02729756,0.04899384,-0.00892966,10.54853916
1691763264791536,-0.07132388,-0.01443079,-0.00831253,10.57049847
1691763264795436,-0.05066864,-0.04161026,-0.00822550,10.64303207
1691763264799345,-0.05096290,-0.04687545,-0.00835027,10.68172169
1691763264802079,-0.03799615,-0.03824259,-0.00851759,10.69715595
1691763264805619,-0.02437336,0.01418715,-0.00957152,10.61657524
1691763264809467,-0.00093193,0.00192245,-0.00955231,10.55895805
1691763264813559,0.00204176,0.07376394,-0.01151538,10.38311768
1691763264816513,-0.05568694,0.03237083,-0.01058871,10.66575527
1691763264820623,-0.04281138,-0.01227566,-0.00985663,10.76953602
1691763264824490,-0.03269772,-0.04204793,-0.00938271,10.88047218
1691763264828350,0.01338449,0.01916219,-0.01015486,10.64628506
1691763264831528,-0.22578913,0.01417024,-0.00878512,11.37229824
1691763264835671,-0.26388356,-0.02297471,-0.00838326,11.16516781
1691763264839290,-0.18374997,0.10342962,-0.00861012,11.69723129
1691763264841901,-0.19361402,-0.19883123,-0.00601368,10.55041122
1691763264847005,0.30953699,-0.13038227,-0.00102366,9.05436707
1691763264849270,0.13637950,0.09601333,-0.01040263,9.87304497
1691763264854067,0.08420312,0.01416625,-0.00817698,10.22184849
1691763264857847,0.00645401,0.04029664,-0.00837543,10.52274704
1691763264861190,-0.02940867,0.00953925,-0.00779531,10.59882927
1691763264863788,0.02096080,-0.03367518,-0.00690624,10.49710655
1691763264867550,-0.18137448,-0.02342074,-0.00676717,11.21628952
1691763264871773,-0.07708336,0.10996431,-0.00882205,10.74528980
1691763264875504,0.05026666,-0.10922965,-0.00503347,10.10109329
1691763264878334,0.06336056,-0.05320595,-0.00631507,10.27103996
1691763264881919,0.05283417,0.01261396,-0.00806263,10.36514759
1691763264885668,0.02474457,0.03264689,-0.00875879,10.27799702
1691763264889641,-0.04947529,-0.02289451,-0.00795550,10.65307331
1691763264893665,-0.01295622,-0.06830370,-0.00738770,10.58458233
1691763264897429,-0.00988101,-0.01196101,-0.00842213,10.60208130
1691763264900172,-0.00808952,-0.02599544,-0.00801724,10.32700253
1691763264903847,-0.14572246,0.13719065,-0.00895444,11.59191513
1691763264907750,-0.22348070,-0.07756654,-0.00763280,10.73104095
1691763264911670,0.11517671,-0.11426444,-0.00449114,9.60079861
1691763264915596,0.03574878,-0.03607665,-0.00653594,10.08433533
1691763264918299,0.04240958,0.00727227,-0.00719424,10.46372509
1691763264922061,0.10481023,0.06122611,-0.00792588,10.24759388
1691763264925613,-0.13852221,0.02219216,-0.00547884,11.27039337
1691763264929577,-0.17803729,0.00641802,-0.00435177,11.09217358
1691763264933713,-0.12884353,0.10968743,-0.00365579,11.55656624
1691763264937474,-0.16588463,-0.21335448,-0.00178843,10.51408768
1691763264940159,0.38306588,-0.10465820,0.00317094,9.10043526
1691763264943835,0.22464041,-0.01423424,-0.00059881,9.90968323
1691763264947789,-0.07853013,0.03556192,-0.00064476,11.05884361
1691763264951644,-0.09983356,-0.00249890,0.00009969,11.05652905
1691763264954632,-0.09367081,0.00358548,0.00064546,10.78624249
1691763264959762,-0.07333607,-0.03341092,0.00128479,10.64806175
1691763264962800,-0.05488015,0.10989467,0.00034583,11.38127899
1691763264966422,-0.05290590,-0.17367280,0.00308391,10.36521053
1691763264969274,0.45619541,-0.04975558,0.00421465,8.94807148
1691763264972953,0.27582955,0.01666817,0.00122623,9.88788319
1691763264976738,0.19421294,0.08996463,-0.00118595,10.31542492
1691763264980805,0.10175939,0.06141010,0.00046627,10.64299202
1691763264984680,0.05381294,0.01556016,0.00114694,10.64018154
1691763264987456,0.09184720,-0.03723235,0.00217865,10.60303783
1691763264990998,-0.06333501,0.17006662,0.00147224,11.66742802
1691763264995609,-0.03895063,0.13185854,0.00105423,10.69501305
1691763264998718,0.08790758,-0.18757550,0.00536689,10.02041912
1691763265002814,0.07947657,-0.10077222,0.00349263,10.34306717
1691763265009739,-0.00229542,-0.02165572,0.00186038,10.52999687
1691763265009871,0.05588647,-0.00655884,0.00195722,10.45393848
1691763265012946,0.08148772,-0.01070548,0.00209200,10.48135471
1691763265016792,-0.13920309,0.02010527,0.00242739,11.35095978
1691763265020772,-0.12565254,0.15408817,0.00211759,11.60993481
1691763265024778,-0.13014147,0.14202893,0.00197785,11.34518719
1691763265027331,-0.05845816,0.14236447,0.00032482,10.92385578
1691763265030965,-0.00546706,0.13456073,-0.00077822,10.76284790
1691763265034827,-0.08500475,-0.04990711,0.00171686,10.83399773
1691763265039247,-0.03239872,-0.44757330,0.00634004,9.88872433
1691763265042754,0.11140949,0.12349091,-0.00106801,10.62415028
1691763265046553,0.08225816,0.18747771,-0.00299669,10.66380215
1691763265049270,0.00461245,0.08333164,-0.00087186,10.83801079
1691763265053940,-0.03952254,-0.08629592,0.00126452,10.98564243
1691763265057231,0.02130287,-0.08850399,0.00177878,10.58744812
1691763265061867,0.02844212,-0.02299187,0.00052844,10.48723412
1691763265065575,-0.02473351,-0.07015795,0.00117334,10.69407368
1691763265067287,0.01953471,-0.12272653,0.00264300,10.58398819
1691763265071045,0.07455716,-0.09626022,0.00305492,10.46568680
1691763265074748,0.08977501,-0.03315990,0.00223500,10.42319775
1691763265082619,0.08680990,0.06418858,0.00190739,10.21234322
1691763265082840,0.07381652,0.04520329,0.00201551,10.43912697
1691763265085453,0.11221115,0.01158082,0.00195095,10.57699776
1691763265090362,0.02010446,-0.13790531,0.00371288,10.70681190
1691763265093872,0.04726592,-0.16294740,0.00459675,10.61967564
1691763265098293,0.05815050,-0.10934230,0.00405207,10.46339703
1691763265101139,0.05523125,-0.05394539,0.00327703,10.47975254
1691763265106256,0.00453003,-0.08950777,0.00346187,10.76956749
1691763265107946,0.03827947,-0.11595089,0.00402672,10.44756031
1691763265111079,0.07838304,-0.12062068,0.00447940,10.45869541
1691763265115802,0.09083051,-0.08612420,0.00412057,10.37655449
1691763265118880,0.07955534,-0.04594384,0.00350005,10.33247471
1691763265123459,0.06532145,-0.03041173,0.00316249,10.34762001
1691763265125612,0.02168092,-0.05901255,0.00327836,10.71814346
1691763265129223,0.02273699,-0.05949174,0.00326073,10.60960007
1691763265132929,0.08943693,-0.43887800,0.01075273,9.52882195
1691763265136919,0.61375737,-0.17840546,0.01442461,8.55966377
1691763265140863,0.04467418,0.13092737,0.00190718,11.18992615
1691763265144600,-0.02763868,0.09263021,0.00287390,11.36217117
1691763265148370,-0.06999766,0.02222135,0.00357731,11.24272156
1691763265151309,-0.09341729,-0.33901864,0.00579058,9.90948772
1691763265155397,0.42512861,-0.27489772,0.01788431,8.95779037
1691763265158935,0.21391429,-0.04231633,0.00604648,9.97515011
1691763265162455,0.11400364,0.03241415,0.00280789,10.18715763
1691763265165980,0.08427245,0.12671041,0.00030876,10.23746586
1691763265169858,0.03008186,0.02997374,0.00192672,10.55507278
1691763265172893,0.05070842,0.10656729,0.00049247,10.32204247
1691763265176968,-0.03180027,0.03354047,0.00120442,10.72554588
1691763265180979,-0.04996412,-0.01776768,0.00141682,10.68730164
1691763265184657,-0.11007392,-0.01430949,0.00112352,10.78046227
1691763265187534,-0.08344916,0.00773212,0.00048596,10.65411472
1691763265191200,-0.04106074,0.05985289,0.00001611,10.70625687
1691763265194771,-0.22785681,0.04370057,0.00148171,11.41641140
1691763265198915,-0.12263799,0.14793155,-0.00125056,11.05555248
1691763265202988,-0.02873953,-0.02600631,0.00150136,10.19350243
1691763265207251,-0.02342931,0.01935783,-0.00039844,10.41498470
1691763265209290,-0.12024625,-0.02072610,0.00068412,10.77732468
1691763265214005,-0.08405406,0.00298978,0.00010698,10.72951412
1691763265220162,-0.08923536,0.01454297,-0.00042643,10.93124771
1691763265220818,-0.05769346,0.04641514,-0.00133666,10.70891285
1691763265223692,-0.08367727,0.12551506,-0.00328007,10.57367611
1691763265227955,-0.13491930,0.06252161,-0.00169299,10.83791065
1691763265232397,-0.11090990,0.01744048,-0.00096933,10.64787579
1691763265234922,-0.06059283,0.01876023,-0.00097718,10.70446396
1691763265239018,-0.10869947,0.12279528,-0.00328684,10.60106468
1691763265242389,-0.10324179,0.14076282,-0.00400173,10.41896629
1691763265246296,-0.11199593,0.01696065,-0.00124218,10.77841282
1691763265250967,-0.10188515,0.05981030,-0.00229479,10.67447472
1691763265257290,-0.10657825,0.20672593,-0.00648757,10.98543549
1691763265258345,-0.12305741,0.12445120,-0.00491312,10.20118237
1691763265260862,-0.13626671,-0.00805964,-0.00251457,10.69882011
1691763265264385,-0.12479296,-0.03817598,-0.00197984,10.66761398
1691763265268022,-0.10038818,0.03653018,-0.00362930,10.65211296
1691763265272111,-0.18191899,0.27767459,-0.00905766,11.47202587
1691763265274787,-0.18018265,0.26627734,-0.01078009,11.22527218
1691763265278443,-0.14831233,0.21926071,-0.00930791,11.14930058
1691763265281957,-0.21691895,0.09470769,-0.00461827,10.97283554
1691763265286032,-0.14287595,-0.03350377,-0.00488982,10.85263252
1691763265290061,-0.07089649,-0.06581889,-0.00388098,10.45737839
1691763265294224,-0.05666806,0.02066217,-0.00482738,10.43146896
1691763265296605,-0.07319883,0.00021698,-0.00503743,10.71907043
1691763265300226,0.01799419,-0.03730471,-0.00447773,10.46131992
1691763265304035,0.06692462,0.05593388,-0.00349660,10.17260456
1691763265308411,0.03276160,0.01077952,-0.00305516,10.50168228
1691763265310970,0.04511264,0.09587538,-0.00328886,10.40576839
1691763265314984,0.11607932,0.08416378,-0.00337218,10.34125137
1691763265318963,0.13287280,0.05036551,-0.00246443,10.19922161
1691763265321884,0.04571877,-0.02609224,-0.00033766,10.59797955
1691763265325570,0.07902057,-0.00473465,-0.00000962,10.36460781
1691763265329184,0.02767824,-0.12596387,0.00030611,10.71539879
1691763265332858,0.06620841,-0.13755102,0.00048196,10.40277767
1691763265336949,0.09586085,-0.09397724,0.00032494,10.38126469
1691763265340942,0.12006956,-0.03909494,-0.00047271,10.24776173
1691763265343970,0.10098822,-0.00580073,-0.00123474,10.34969902
1691763265347603,0.08511776,-0.03487460,-0.00134124,10.50584316
1691763265357982,0.03316977,-0.02525731,-0.00175035,10.67275620
1691763265358138,0.14857867,0.03537285,-0.00289938,10.24400902
1691763265358951,0.17553774,-0.01803512,-0.00247878,10.30154514
1691763265362821,0.16295850,0.00328801,-0.00298541,10.28297043
1691763265365876,0.16164824,0.02386619,-0.00401405,10.22046471
1691763265369461,0.15727636,0.03463130,-0.00547989,10.33422375
1691763265373092,0.08468503,-0.02413824,-0.00533120,10.57477665
1691763265377075,0.01226546,-0.10856473,-0.00547052,10.75387287
1691763265382210,0.05827792,-0.15446994,-0.00489989,10.48446941
1691763265385161,0.10628361,-0.10284285,-0.00484770,10.40118313
1691763265387389,0.10338365,-0.05207502,-0.00555691,10.26602936
1691763265391135,0.03908308,-0.06011235,-0.00595213,10.54605484
1691763265395014,0.11054848,-0.03584021,-0.00570404,10.48253155
1691763265399133,0.15521322,-0.05189647,-0.00456040,10.33917046
1691763265402910,0.10112880,-0.06723504,-0.00435570,10.43354702
1691763265405523,0.11119007,-0.05744293,-0.00448030,10.34484100
1691763265409306,0.13784988,-0.04654335,-0.00485370,10.36351967
1691763265413080,0.09702806,-0.01679837,-0.00570481,10.38685608
1691763265417109,0.03281592,-0.03152597,-0.00569594,10.66380596
1691763265421211,0.05841211,-0.08400421,-0.00500624,10.49271107
1691763265423987,0.15286773,-0.09060498,-0.00419585,10.15587044
1691763265427479,0.13586050,-0.01730096,-0.00578510,10.16894054
1691763265431185,0.13924208,0.06649198,-0.00806717,10.13294601
1691763265435189,0.11584543,0.05890599,-0.00879249,10.36288166
1691763265438271,0.13353771,0.01259748,-0.00891314,10.28252506
1691763265442135,0.18858431,0.03839715,-0.00900781,10.17274952
1691763265446001,0.14782326,0.08032593,-0.00941027,10.14863110
1691763265449287,0.10634022,-0.01156108,-0.00913015,10.31119633
1691763265453200,0.03819583,-0.02523975,-0.00977543,10.65332699
1691763265457103,0.02614112,-0.05664034,-0.00964980,10.42629051
1691763265460176,0.04549014,-0.05087877,-0.00986735,10.36893749
1691763265464175,0.07588223,-0.01278908,-0.01083279,10.30375099
1691763265468485,0.06772432,0.01687348,-0.01208295,10.27240753
1691763265472250,0.01755952,0.03599622,-0.01343383,10.34080410
1691763265474726,-0.08514407,-0.12681270,-0.01174704,10.87377453
1691763265478473,-0.07667494,-0.16155177,-0.01082742,10.66750813
1691763265482269,-0.05705228,-0.14954571,-0.00996597,10.47489834
1691763265486123,-0.01228350,-0.10431571,-0.00923860,10.39212990
1691763265490150,0.02912847,-0.07431063,-0.00859423,10.26986790
1691763265492835,0.04245412,-0.01223979,-0.00940650,10.23017120
1691763265496421,-0.01571516,-0.00089479,-0.00905208,10.32550144
1691763265500060,0.00238220,0.07023396,-0.00945912,10.36928082
1691763265505094,-0.02761882,-0.05380634,-0.00702715,10.74046516
1691763265510423,-0.05226310,-0.04096626,-0.00675885,10.50452709
1691763265510963,-0.03926121,-0.05171951,-0.00574988,10.37831879
1691763265514995,0.00711397,-0.07087413,-0.00442818,10.41675949
1691763265518314,0.02949555,0.01002424,-0.00562447,10.20046806
1691763265522204,-0.00514009,0.04731689,-0.00596548,10.26673031
1691763265526198,-0.04377160,-0.00463564,-0.00461221,10.64507103
1691763265530229,-0.03015256,-0.03469348,-0.00366794,10.40016842
1691763265532987,0.00716184,-0.05912896,-0.00230908,10.30280399
1691763265537409,-0.00997818,0.00572513,-0.00313283,10.40268326
1691763265540874,-0.00769734,0.05214914,-0.00377389,10.18704987
1691763265544236,-0.02420452,0.05393165,-0.00296484,10.44064617
1691763265548193,-0.04733124,0.06361876,-0.00218109,10.51333046
1691763265551009,-0.04266192,-0.04810839,-0.00007856,10.40786743
1691763265555147,-0.02599134,-0.04292916,0.00068295,10.33194542
1691763265559405,-0.02994535,0.02164113,-0.00013476,10.33516979
1691763265562069,-0.03653296,0.05416581,-0.00055496,10.33660793
1691763265565741,-0.04964526,0.04821375,-0.00021539,10.39842224
1691763265569565,-0.06699594,-0.01241812,0.00088908,10.66169167
1691763265572797,-0.06780456,0.00690016,0.00075184,10.51645374
1691763265576965,0.05407353,0.10366707,-0.00164565,9.97332668
1691763265580258,0.04680585,0.09357968,-0.00132282,10.07894516
1691763265583771,0.03578351,0.11696036,-0.00227311,10.11237526
1691763265587467,-0.00033964,0.12504490,-0.00256603,10.26442623
1691763265591317,-0.06061437,0.04935933,-0.00093786,10.61802387
1691763265595272,-0.03976087,0.06654226,-0.00128875,10.41026974
1691763265599367,-0.00381034,0.06389070,-0.00112757,10.35483837
1691763265601963,-0.04856213,0.02147742,-0.00022663,10.30146313
1691763265606169,-0.14155483,-0.05791678,0.00069184,10.66811848
1691763265610016,-0.16032755,-0.10179099,0.00103195,10.79176807
1691763265612737,-0.04974657,0.03572335,-0.00044276,10.40029049
1691763265616559,-0.05143663,0.05520837,-0.00090156,10.33834267
1691763265620214,-0.03371195,0.00531966,-0.00011611,10.29278088
1691763265623808,-0.01573905,0.04053801,-0.00084638,10.37018681
1691763265627482,-0.12271172,-0.03092429,0.00036033,10.65714836
1691763265630959,-0.11367085,-0.03017306,0.00046746,10.44639874
1691763265634745,-0.09949453,0.00985984,-0.00000022,10.30340481
1691763265639237,-0.05719959,0.08980266,-0.00144406,10.36486149
1691763265641957,-0.12438729,0.03663136,0.00095640,10.61939621
1691763265645557,-0.09365671,0.01299046,0.00245320,10.39875793
1691763265649348,-0.06412613,-0.04215587,0.00334016,10.46290779
1691763265653272,0.05109723,0.12269296,-0.00039583,9.97157955
1691763265657246,-0.08494508,0.02310277,0.00233553,10.48393631
1691763265660239,-0.10235620,0.01809436,0.00227158,10.57757473
1691763265664456,-0.11722983,0.00003689,0.00214208,10.72700882
1691763265668376,0.00001908,0.06903213,0.00073190,10.09544563
1691763265671062,0.02322625,0.06815332,0.00049512,10.21534634
1691763265675344,0.00696908,0.11282173,-0.00053351,10.14119053
1691763265678353,-0.04689790,0.11885923,-0.00054968,10.35237980
1691763265682299,-0.07977614,0.03476903,0.00045518,10.59975910
1691763265686524,-0.05799072,0.01019709,0.00040422,10.45809364
1691763265690041,0.00927746,0.06448490,-0.00037645,10.22394562
1691763265693683,-0.03115272,0.05929951,-0.00047587,10.17873096
1691763265697274,-0.08598213,0.01181330,0.00001319,10.55425739
1691763265701297,-0.11122470,0.00757591,-0.00025097,10.44249725
1691763265703881,-0.14035133,-0.08755333,0.00008719,10.57264423
1691763265707556,0.01830476,0.00222073,-0.00064571,10.12269783
1691763265711422,0.01177071,0.07220545,-0.00209824,10.10657978
1691763265715407,-0.03091260,0.08173193,-0.00249236,10.17638493
1691763265718806,-0.12543087,-0.03003231,-0.00135366,10.88773251
1691763265722357,-0.04812357,0.04763586,-0.00241119,10.30797005
1691763265729892,-0.04090434,0.01859114,-0.00239570,10.36421013
1691763265730580,-0.01819634,0.02924922,-0.00304911,10.25155163
1691763265734826,0.00934998,0.02954658,-0.00337264,10.22673130
1691763265737441,0.01033650,0.05170977,-0.00387013,10.16131687
1691763265740393,-0.07945736,0.04389103,-0.00249310,10.50756359
1691763265744481,-0.02247243,0.08827861,-0.00319833,10.31075478
1691763265748337,-0.03062155,0.01076052,-0.00261308,10.44839668
1691763265751144,-0.02498906,-0.03132679,-0.00244825,10.26219177
1691763265754820,0.01126977,-0.00663076,-0.00289967,10.26143551
1691763265758494,0.01588119,0.03242726,-0.00368553,10.23705101
1691763265762579,0.00491837,0.03579491,-0.00401622,10.34253788
1691763265765525,-0.04225991,-0.00700851,-0.00384749,10.59965801
1691763265769524,-0.03483590,0.01032831,-0.00443494,10.57100296
1691763265773818,-0.04127844,0.00896093,-0.00480794,10.48112297
1691763265777507,-0.01882134,-0.01545822,-0.00475463,10.40014458
1691763265780173,0.00046779,-0.01107496,-0.00480718,10.39544392
1691763265783893,0.02122987,0.03208509,-0.00558884,10.30683994
1691763265787483,0.03913292,0.05323172,-0.00629961,10.25767040
1691763265791434,-0.01864238,-0.00477915,-0.00563059,10.57851791
1691763265795520,-0.01822605,0.00799177,-0.00613393,10.57228565
1691763265799272,0.00041195,-0.00884950,-0.00619851,10.32540226
1691763265802099,0.01866791,-0.01773418,-0.00597265,10.33710384
1691763265805645,0.02737092,0.01906564,-0.00654570,10.18825340
1691763265809497,0.02102248,0.07181732,-0.00773669,10.22848225
1691763265813434,-0.01628995,-0.01147655,-0.00686826,10.59313774
1691763265817571,-0.02584199,0.05163231,-0.00701438,10.51329136
1691763265820069,-0.00261345,0.03363767,-0.00614971,10.36584663
1691763265823765,0.03842972,-0.04176312,-0.00525701,10.39982986
1691763265827683,0.03618927,-0.01157348,-0.00568819,10.27307320
1691763265831427,0.00893944,0.01904846,-0.00628749,10.34648991
1691763265835522,-0.03170246,-0.00725437,-0.00624621,10.68240356
1691763265841324,-0.00025432,-0.03539192,-0.00602976,10.48572826
1691763265841833,0.03268874,-0.05277204,-0.00566699,10.42292309
1691763265845556,0.05042503,-0.00523891,-0.00631698,10.23891735
1691763265850862,0.04524921,0.04382076,-0.00725294,10.20953655
1691763265854016,0.00885470,-0.04250662,-0.00629626,10.58076191
1691763265857862,-0.04435538,-0.03012943,-0.00654892,10.51371098
1691763265861751,-0.00536751,-0.03734171,-0.00640020,10.34529305
1691763265868373,0.07548232,-0.04428057,-0.00606465,10.31193352
1691763265868540,0.10282031,0.08554658,-0.00776703,10.08973694
1691763265871651,0.05650115,0.08272834,-0.00706104,10.20820045
1691763265876050,-0.02936808,-0.02795784,-0.00570433,10.62367535
1691763265878422,-0.00663653,-0.04130208,-0.00557036,10.55157185
1691763265882591,0.04681979,-0.09354955,-0.00462602,10.34595394
1691763265886575,0.04035288,-0.03714336,-0.00535697,10.27169704
1691763265889336,0.05632867,0.01246969,-0.00633785,10.26070499
1691763265892955,0.04305761,-0.00121773,-0.00625376,10.34660625
1691763265896951,-0.02120063,-0.03826709,-0.00594235,10.51284504
1691763265900802,0.00561990,-0.04731805,-0.00578659,10.40241718
1691763265904695,0.05957172,-0.06563751,-0.00530541,10.28276920
1691763265908393,0.08475242,-0.04706224,-0.00543242,10.25566578
1691763265911573,0.05885248,0.01680323,-0.00646963,10.13294315
1691763265915545,0.02384604,0.03602911,-0.00684750,10.25189686
1691763265918449,0.00921933,-0.05470089,-0.00586410,10.58086491
1691763265922568,0.00839940,-0.05163769,-0.00589734,10.44773579
1691763265926543,0.02114457,-0.05056691,-0.00586940,10.36047554
1691763265929226,0.07858737,-0.06179465,-0.00540044,10.27390671
1691763265932831,0.09606512,0.06835566,-0.00733188,10.07659531
1691763265936581,0.02151610,0.01542769,-0.00574089,10.57470131
1691763265940692,-0.03074884,-0.03821681,-0.00520079,10.54759312
1691763265945604,0.01543011,-0.07260265,-0.00460830,10.51021671
1691763265947480,0.07265703,-0.09371889,-0.00371857,10.37931824
1691763265951661,0.06724884,-0.04573676,-0.00422893,10.24945164
1691763265957001,0.05748082,-0.02555237,-0.00445165,10.24463940
1691763265958280,0.05365366,0.01000270,-0.00502310,10.31654167
1691763265962045,0.00612859,-0.03997550,-0.00425562,10.48997879
1691763265966525,-0.02560254,-0.01343285,-0.00459811,10.41784096
1691763265969929,0.05361111,-0.08171394,-0.00348355,10.38971329
1691763265973552,0.08499701,-0.04117865,-0.00367421,10.19702911
1691763265978056,0.05128647,0.01139047,-0.00424618,10.23381615
1691763265980665,0.02898060,0.01527717,-0.00442038,10.26618481
1691763265984772,0.02106445,-0.04916185,-0.00352099,10.60459328
1691763265987438,0.00279102,-0.01525605,-0.00402433,10.50683022
1691763265991077,0.02122038,-0.05491456,-0.00338782,10.45309639
1691763265994815,0.08772397,0.01652275,-0.00378322,10.15521049
1691763265998364,0.08896589,0.02973835,-0.00336064,10.20314026
1691763266001974,0.03520654,-0.01405004,-0.00257785,10.35549355
1691763266006011,-0.02936470,-0.04524187,-0.00231428,10.58891296
1691763266009553,-0.01396643,-0.06022806,-0.00200407,10.51534271
1691763266013951,0.05663785,-0.10020553,-0.00056207,10.32285976
1691763266017466,0.03345444,-0.02455491,-0.00160486,10.21358299
1691763266020097,0.02512192,0.03850522,-0.00253168,10.17872047
1691763266023834,0.00606975,-0.03742551,-0.00141593,10.52686119
1691763266027811,0.00833452,-0.15266806,0.00023876,8.04137135
1691763266031581,0.00286415,-0.11689767,-0.00023611,7.94852543
1691763266035740,0.03474275,-0.14200807,0.00048534,7.92881536
1691763266038362,0.09058074,-0.16184787,0.00177617,7.84215975
1691763266041883,0.09890775,-0.09474193,0.00051433,7.73755693
1691763266047626,0.06485684,-0.03389319,-0.00115527,7.79486084
1691763266049917,0.06206007,-0.06648215,-0.00084046,7.87831831
1691763266053641,0.07435767,-0.09343391,-0.00029549,7.84031725
1691763266057402,0.02967747,-0.10567066,-0.00026395,8.07547855
1691763266060487,0.03917911,-0.09843213,0.00018650,7.91017342
1691763266063794,-0.01937468,-0.12541971,0.00025074,8.25903034
1691763266067403,-0.03937079,-0.13238473,0.00030696,8.24920654
1691763266071635,0.00334195,-0.12691620,0.00059028,8.24292469
1691763266075581,0.03960769,-0.02926983,-0.00116760,8.04060555
1691763266078335,0.02743691,-0.08929002,0.00015604,8.36431408
1691763266082326,-0.01944668,-0.06074614,-0.00043914,8.55606461
1691763266085897,-0.01236340,-0.00674796,-0.00056140,8.64036655
1691763266089686,0.01725238,-0.02199277,-0.00050200,8.52311230
1691763266093690,0.01876465,-0.04148585,-0.00007279,8.78898239
1691763266096535,0.00654397,0.01623148,-0.00042781,8.81208515
1691763266100161,-0.02671774,-0.02210162,0.00006010,9.01959896
1691763266103873,-0.03134234,-0.02847265,-0.00000330,9.08400822
1691763266107335,-0.02797410,-0.03251924,0.00019359,9.07705879
1691763266110966,0.00697016,0.02020649,-0.00111160,9.00613976
1691763266114788,0.01259789,0.02599744,-0.00166216,9.08036423
1691763266118696,-0.00186297,0.01674697,-0.00160044,9.18307972
1691763266122790,-0.01451905,0.01573416,-0.00146441,9.30858898
1691763266126908,-0.02913048,0.00202894,-0.00093209,9.40340710
1691763266129238,-0.03436696,0.01099278,-0.00084793,9.48068810
1691763266132610,-0.03722826,0.05432413,-0.00099871,9.53758240
1691763266136834,-0.05596248,0.04831872,-0.00069897,9.61669827
1691763266141079,-0.05861629,0.06086157,-0.00076531,9.67232800
1691763266143707,-0.06092529,0.06563158,-0.00071559,9.72290516
1691763266147826,-0.05657287,0.06182062,-0.00068188,9.73705292
1691763266151866,-0.05431647,0.07483549,-0.00082170,9.78536510
1691763266154866,-0.05506899,0.07830323,-0.00077602,9.82243919
1691763266158830,-0.05768004,0.08760350,-0.00088312,9.84960651
1691763266162986,-0.05302207,0.08544853,-0.00084536,9.87743568
1691763266166570,-0.05004701,0.07968570,-0.00075968,9.89214611
1691763266169253,-0.04936505,0.07922281,-0.00077604,9.91200542
1691763266172952,-0.04442157,0.10543492,-0.00055906,9.93253517
1691763266176775,-0.04288053,0.10722529,-0.00011837,9.93500900
1691763266180797,-0.02985651,0.09082829,0.00071979,9.94117737
1691763266184060,-0.02614396,0.09155192,0.00111308,9.95941162
1691763266188322,-0.02917965,0.10170508,0.00141674,9.97788143
1691763266191726,-0.03298184,0.11410234,0.00149906,9.98816490
1691763266195846,-0.02982477,0.11340438,0.00165445,10.00862598
1691763266198312,-0.03375123,0.11622271,0.00197131,10.02787781
1691763266201989,-0.03924448,0.09747713,0.00275883,10.07820415
1691763266205802,-0.03913224,0.07872458,0.00350292,10.14569092
1691763266209801,-0.03463053,0.06978989,0.00415587,10.19260406
1691763266212999,-0.02982195,0.06640625,0.00459552,10.19544411
1691763266216859,-0.02021211,0.06998413,0.00497728,10.18867111
1691763266220964,-0.01344269,0.07056741,0.00560511,10.20092392
1691763266224639,-0.01999726,0.08914697,0.00582277,10.18240166
1691763266227385,-0.02731517,0.06459416,0.00563152,10.23611069
1691763266231034,-0.04027934,0.02099951,0.00604368,10.36993790
1691763266234791,-0.05455773,0.04019810,0.00544876,10.38620472
1691763266238891,-0.05705516,0.04978840,0.00452871,10.36855316
1691763266242832,-0.04067863,0.04853568,0.00414470,10.34026051
1691763266245655,-0.02586814,0.05674682,0.00361434,10.33569813
1691763266249808,-0.02560746,0.07444475,0.00292996,10.30696011
1691763266253784,-0.02774637,0.08495317,0.00227780,10.27989101
1691763266256769,-0.02408922,0.07863297,0.00144853,10.31131458
1691763266260255,-0.03942976,0.05408124,0.00134316,10.44254398
1691763266264640,-0.04712606,0.05146908,0.00104196,10.46640778
1691763266267503,-0.03248983,0.04196504,0.00061715,10.43960953
1691763266271230,-0.02055295,0.05526833,0.00008794,10.38148212
1691763266274846,-0.02845687,0.07923905,-0.00056068,10.31095791
1691763266278811,-0.03068254,0.07766452,-0.00123679,10.30809593
1691763266282960,-0.03368977,0.04461730,-0.00135646,10.43506527
1691763266285879,-0.03544211,0.05288222,-0.00186553,10.41006470
1691763266289209,-0.02493254,0.06810874,-0.00149261,10.34454060
1691763266293014,-0.01529700,0.06951999,-0.00072352,10.30831718
1691763266296940,-0.00576070,0.08144028,-0.00044595,10.27314091
1691763266301336,-0.01850128,0.06194973,-0.00065724,10.31484509
1691763266305112,-0.03064583,0.02341381,-0.00045363,10.43598557
1691763266308227,-0.02244003,0.01842570,-0.00069375,10.43658447
1691763266311928,-0.01939363,0.01950358,-0.00097727,10.39796543
1691763266314842,-0.01209816,0.03210234,-0.00139764,10.34730625
1691763266320006,-0.00688161,0.04838984,-0.00205518,10.29164505
1691763266322397,-0.00668917,0.04712479,-0.00276940,10.28844357
1691763266328251,-0.01473452,0.01114084,-0.00293368,10.40786648
1691763266330475,-0.02968905,0.03107558,-0.00354734,10.34016609
1691763266333721,-0.00612225,0.00170995,-0.00326344,10.34301567
1691763266336891,-0.00129840,0.02575543,-0.00396758,10.27567482
1691763266340910,-0.00464091,0.04011043,-0.00471944,10.24466705
1691763266343590,-0.01613287,0.00808403,-0.00446052,10.31464100
1691763266347432,-0.00671172,0.01710333,-0.00393496,10.30408859
1691763266351135,-0.00148066,0.02873870,-0.00351521,10.26421642
1691763266354886,0.00386239,0.00325001,-0.00317838,10.29146767
1691763266359416,0.01339116,0.00259408,-0.00321668,10.26876259
1691763266361891,0.01199768,0.01405341,-0.00380849,10.24862289
1691763266366014,0.00346163,-0.01408411,-0.00355565,10.32595921
1691763266369893,-0.00076900,-0.02356587,-0.00357730,10.35250664
1691763266374161,-0.00508764,-0.02297423,-0.00377130,10.33341980
1691763266377033,0.01177561,-0.02543444,-0.00379380,10.30396843
1691763266381066,0.01731475,-0.01137989,-0.00412320,10.28039646
1691763266383660,0.01068255,0.00511720,-0.00451794,10.24326515
1691763266387710,0.02871860,0.02081138,-0.00497487,10.20767784
1691763266391283,0.00986174,-0.03077729,-0.00446799,10.32500362
1691763266395910,-0.00146667,-0.02528694,-0.00477217,10.31598759
1691763266399399,0.00871878,-0.03460772,-0.00466305,10.30257225
1691763266402699,0.01472216,-0.01666422,-0.00491171,10.25471687
1691763266405679,0.01417267,0.00090665,-0.00538229,10.22616482
1691763266409260,0.01459298,-0.00322367,-0.00547792,10.21660137
1691763266412905,0.00760787,-0.04010594,-0.00507535,10.29845142
1691763266416961,0.00838122,-0.04106601,-0.00522109,10.30728722
1691763266420895,0.01830243,-0.01791939,-0.00519841,10.26528358
1691763266423752,0.02569679,-0.02360954,-0.00436609,10.25915813
1691763266427372,0.02274808,-0.00300481,-0.00424602,10.22281265
1691763266431533,0.02333930,-0.01673423,-0.00436967,10.23422909
1691763266435117,0.02024893,-0.07047819,-0.00367151,10.34118462
1691763266439028,0.00964063,-0.06885214,-0.00377822,10.33928204
1691763266442900,0.00994097,-0.06074095,-0.00392969,10.30980778
1691763266445574,0.02075259,-0.05366871,-0.00396166,10.28525162
1691763266449353,0.02751491,-0.04032334,-0.00414336,10.26613617
1691763266453015,0.02041311,-0.02079726,-0.00463011,10.22645092
1691763266457081,0.01957747,-0.01921757,-0.00499946,10.23589325
1691763266461080,0.02103391,-0.06470331,-0.00461672,10.32307816
1691763266464246,0.00876779,-0.05689620,-0.00482486,10.31051540
1691763266468630,0.01289078,-0.05483324,-0.00487111,10.30094814
1691763266470961,0.03138180,-0.06369895,-0.00479192,10.30089664
1691763266475764,0.03114432,-0.04287602,-0.00522906,10.25900269
1691763266479054,0.02055778,-0.02186458,-0.00575839,10.23672199
1691763266483750,0.01790694,-0.06046538,-0.00558567,10.33066368
1691763266486029,0.01538653,-0.06124989,-0.00582700,10.33847523
1691763266490970,0.01195461,-0.06034721,-0.00586624,10.32710743
1691763266492869,0.01143479,-0.04925111,-0.00619738,10.30347443
1691763266496967,0.02544579,-0.04337223,-0.00646294,10.28196621
1691763266500140,0.03044012,-0.02873322,-0.00682274,10.25748634
1691763266504119,0.01996974,0.00353207,-0.00724944,10.21893311
1691763266508112,0.01342841,-0.00962097,-0.00687698,10.26828194
1691763266512292,0.01662782,-0.05274268,-0.00647087,10.33669376
1691763266514876,0.02050566,-0.06298718,-0.00640371,10.33501148
1691763266518278,0.02455735,-0.05295760,-0.00653807,10.31795883
1691763266522904,0.02410369,-0.03019705,-0.00709433,10.29175472
1691763266525646,0.02644432,-0.02230066,-0.00762355,10.28716469
1691763266529236,0.00965089,-0.05339465,-0.00723046,10.37667274
1691763266533068,-0.00126496,-0.04513388,-0.00740586,10.38313198
1691763266537160,0.01217726,-0.05034507,-0.00744938,10.37478733
1691763266540639,0.02871027,-0.05528663,-0.00715640,10.36784935
1691763266544115,0.01930067,-0.02220557,-0.00758749,10.31131935
1691763266548230,0.00594842,0.00304132,-0.00818289,10.27198887
1691763266552023,0.00916330,-0.04225609,-0.00757399,10.37627888
1691763266554558,-0.00464125,-0.02544212,-0.00788107,10.35792828
1691763266558407,-0.00187833,-0.02554818,-0.00777740,10.34461212
1691763266562176,0.01574598,-0.03038813,-0.00760047,10.34284401
1691763266565675,0.01513656,-0.00753877,-0.00777428,10.29116440
1691763266569357,0.00304002,0.00844077,-0.00797525,10.27644444
1691763266573152,0.00159351,0.00599337,-0.00752823,10.31524181
1691763266577152,-0.00132556,0.00442858,-0.00720339,10.32700062
1691763266580924,0.01205854,-0.05301992,-0.00604207,10.38869381
1691763266583638,0.00707150,-0.02253207,-0.00612825,10.33544731
1691763266587270,0.00229530,-0.00047699,-0.00635431,10.30496788
1691763266591570,0.00663632,-0.00178428,-0.00635269,10.30439186
1691763266595298,-0.00170398,-0.03362437,-0.00570944,10.38044834
1691763266599303,-0.00384205,-0.02089385,-0.00575720,10.36046505
1691763266601878,0.00224197,-0.02710516,-0.00525201,10.34210300
1691763266605449,0.01284914,-0.01379555,-0.00514257,10.30956173
1691763266609187,0.00274284,0.01815029,-0.00549264,10.26588631
1691763266613151,-0.00912169,-0.00251155,-0.00495451,10.30295849
1691763266617230,-0.00539072,-0.01662238,-0.00470844,10.32190704
1691763266621284,-0.00509415,-0.00872126,-0.00453343,10.29937935
1691763266623563,-0.00222730,-0.00857752,-0.00406539,10.28676605
1691763266627447,-0.00297242,0.03133854,-0.00435148,10.24100971
1691763266631308,-0.00221481,0.04563510,-0.00429549,10.22293186
1691763266635248,-0.00067071,-0.01688972,-0.00314916,10.30611801
1691763266639216,-0.02509259,0.01113581,-0.00357948,10.28941345
1691763266642270,-0.01659989,-0.00594806,-0.00316403,10.30172348
1691763266645518,0.00387790,-0.01711799,-0.00274063,10.29186344
1691763266649331,-0.00143983,0.01003683,-0.00312422,10.25659561
1691763266652952,-0.01293313,0.03273740,-0.00352756,10.23075104
1691763266657352,-0.01228559,-0.00968052,-0.00279696,10.29633045
1691763266660115,-0.01815224,-0.00184488,-0.00287318,10.29548073
1691763266664030,-0.01681341,-0.00127688,-0.00278597,10.27723122
1691763266667590,-0.00965469,0.00666275,-0.00277736,10.25538635
1691763266671268,-0.00263963,0.01121042,-0.00284588,10.23575401
1691763266675225,-0.00629292,0.02822978,-0.00324777,10.22181511
1691763266679199,-0.02110122,0.01071451,-0.00289857,10.26755333
1691763266682380,-0.02829831,0.00585468,-0.00283530,10.29006577
1691763266685516,-0.01976241,-0.00254241,-0.00273355,10.29079247
1691763266689336,-0.00753247,0.02413129,-0.00263760,10.25055599
1691763266693607,-0.01259021,0.04052449,-0.00254598,10.23224449
1691763266697324,-0.01222594,0.04968854,-0.00245787,10.21985722
1691763266700357,-0.01647630,-0.01517005,-0.00135828,10.29078770
1691763266704290,-0.02650904,-0.00557528,-0.00148558,10.30186176
1691763266708336,-0.03325205,0.00514711,-0.00169790,10.28400326
1691763266710969,-0.00781946,-0.01538725,-0.00129336,10.27313805
1691763266714864,-0.00727318,0.00225055,-0.00155944,10.25613594
1691763266718403,-0.01534752,0.02843644,-0.00200890,10.23258972
1691763266722394,-0.01791610,0.03344910,-0.00212704,10.22606754
1691763266726340,-0.02040605,-0.00872738,-0.00151913,10.29285240
1691763266730173,-0.02639849,0.00346624,-0.00175172,10.29734993
1691763266732917,-0.02551937,0.00177883,-0.00171433,10.27599621
1691763266736941,-0.00921608,-0.01302111,-0.00147861,10.29528522
1691763266740278,-0.01315786,0.01666453,-0.00195352,10.25788593
1691763266744378,-0.02085914,0.03867346,-0.00229480,10.24145699
1691763266748313,-0.02649725,-0.00003918,-0.00172730,10.30495358
1691763266751272,-0.02388748,-0.00889893,-0.00166301,10.31848145
1691763266755392,-0.03137333,0.01542473,-0.00207287,10.29653931
1691763266758379,-0.02542922,0.00469607,-0.00192686,10.30249596
1691763266762389,-0.01725260,0.00818972,-0.00197390,10.28442669
1691763266766328,-0.01577044,0.02684028,-0.00228657,10.26295567
1691763266770070,-0.01936918,0.04078029,-0.00260609,10.24945450
1691763266772751,-0.02107289,0.03407262,-0.00198099,10.27574444
1691763266777309,-0.01557463,0.01983074,-0.00142245,10.30406666
1691763266780346,-0.02286665,0.03880509,-0.00141670,10.28413296
1691763266784306,-0.02051400,0.03419171,-0.00052649,10.28793049
1691763266788392,-0.00957835,0.00072768,0.00004958,10.30867195
1691763266791084,-0.00771279,0.02038976,-0.00035156,10.28170109
1691763266795028,-0.01793247,-0.01142242,0.00010229,10.36244392
1691763266798347,-0.02329074,-0.01327660,0.00012141,10.38242340
1691763266802755,-0.02170505,-0.01279151,0.00012702,10.35997295
1691763266806265,-0.02136943,-0.00678360,0.00000672,10.36439705
1691763266810220,-0.01105296,0.00845787,-0.00020244,10.32706547
1691763266812824,-0.01251910,0.02722735,-0.00054639,10.29340935
1691763266816907,-0.01282251,0.02873375,-0.00083742,10.29448891
1691763266820369,-0.02171284,-0.00341582,-0.00044093,10.36680031
1691763266824351,-0.02742817,-0.00127998,-0.00045498,10.37091637
1691763266827327,-0.01263884,-0.01092334,-0.00028459,10.36410999
1691763266831435,-0.00600926,0.01088236,-0.00063914,10.32459831
1691763266835368,-0.01239280,0.03645422,-0.00117715,10.28951073
1691763266839596,-0.01868276,0.00360203,-0.00077226,10.35878372
1691763266841929,-0.02546487,0.00713535,-0.00089705,10.36408043
1691763266845623,-0.01629231,0.03238413,-0.00084549,10.32172012
1691763266849511,-0.00456317,0.02978120,-0.00039968,10.31840801
1691763266853578,-0.00661342,0.04205945,0.00009535,10.28496552
1691763266857363,-0.00488503,0.02791624,0.00008777,10.29981804
1691763266860210,-0.01541255,-0.00536170,0.00043160,10.36714458
1691763266863806,-0.02267214,-0.00712238,0.00041959,10.38426208
1691763266867636,-0.01822173,-0.00903567,0.00038494,10.35601902
1691763266870955,-0.00668151,0.00058034,0.00016137,10.33108330
1691763266874764,-0.00742575,0.02609173,-0.00036683,10.29631519
1691763266878656,-0.01209929,0.03300951,-0.00061091,10.27993393
1691763266882367,-0.02265925,-0.00282106,-0.00028525,10.34580517
1691763266886379,-0.01585323,0.00223481,-0.00061801,10.34373093
1691763266889148,-0.01125077,0.00164014,-0.00071102,10.33458424
1691763266893487,-0.00269661,0.00080433,-0.00075303,10.31669044
1691763266897654,-0.00686430,0.02650675,-0.00129030,10.28487396
1691763266899997,-0.01053331,0.03414078,-0.00166130,10.28153706
1691763266903780,-0.01469682,-0.00828379,-0.00124893,10.35644627
1691763266912716,-0.02247495,0.00226527,-0.00169674,10.34232903
1691763266912835,-0.01226956,-0.00574556,-0.00182698,10.33933640
1691763266915412,0.00158547,-0.00759595,-0.00193783,10.33675575
1691763266919213,-0.00182257,0.03376531,-0.00203396,10.27877903
1691763266921974,-0.00331281,0.04096311,-0.00200728,10.26653671
1691763266925445,-0.00134960,0.02503360,-0.00164862,10.30216694
1691763266929483,-0.00315096,0.02950478,-0.00146712,10.30563354
1691763266933367,0.00519187,-0.02356432,-0.00079525,10.35626507
1691763266936516,0.00709820,-0.01122394,-0.00101764,10.33045101
1691763266940091,0.00931390,0.00753002,-0.00142384,10.30411530
1691763266944518,0.00883409,0.00943620,-0.00158462,10.29551029
1691763266947491,-0.00097338,-0.02158462,-0.00133586,10.34345913
1691763266951042,-0.00539693,-0.00797798,-0.00202455,10.34228039
1691763266954797,0.02181664,-0.02717524,-0.00182506,10.33341789
1691763266958541,0.01202985,-0.01863772,-0.00200237,10.32399559
1691763266962500,0.01034972,0.00266267,-0.00255644,10.29297256
1691763266966460,0.00907565,0.01284582,-0.00309179,10.29178143
1691763266969277,0.00642493,-0.02281631,-0.00280123,10.35093975
1691763266972887,0.00172990,-0.01763444,-0.00301819,10.35339832
1691763266976590,0.00529483,-0.01240239,-0.00315829,10.32966423
1691763266980244,0.01801480,-0.00848824,-0.00328923,10.31859207
1691763266983692,0.02024449,0.00601102,-0.00367567,10.29091072
1691763266987516,0.01364757,0.01280095,-0.00393531,10.28371239
1691763266991498,0.00813916,-0.01558473,-0.00377257,10.34081364
1691763266995610,0.00930747,-0.02042668,-0.00384370,10.34574127
1691763266999633,0.02030959,-0.03857378,-0.00357435,10.33554268
1691763267001896,0.01687710,-0.01435831,-0.00397382,10.30461311
1691763267005395,0.01635869,0.02414619,-0.00443319,10.26820087
1691763267009201,0.02762535,-0.00994702,-0.00376826,10.32351494
1691763267012728,0.01285547,-0.00406268,-0.00344040,10.31658936
1691763267016838,0.01115628,-0.00039043,-0.00319550,10.31294918
1691763267021024,0.03556258,-0.01224402,-0.00260137,10.31682396
1691763267025399,0.03867205,-0.02903893,-0.00237326,10.31494236
1691763267028333,0.02851309,-0.00930128,-0.00299460,10.29195309
1691763267033010,0.01973483,-0.03217791,-0.00278647,10.34175968
1691763267034636,0.02057533,-0.03610053,-0.00282557,10.35159016
1691763267038608,0.02724422,-0.04365203,-0.00278660,10.34725189
1691763267043213,0.03225837,-0.03201853,-0.00297549,10.32497692
1691763267046675,0.02996975,-0.00928488,-0.00370959,10.29379082
1691763267049142,0.02934992,-0.00333284,-0.00432436,10.29119968
1691763267053361,0.01757929,-0.02890988,-0.00404734,10.33467007
1691763267056697,0.01048993,-0.01770920,-0.00442090,10.32927132
1691763267060902,0.01938208,-0.02544189,-0.00459732,10.32478142
1691763267064587,0.03372539,-0.03235446,-0.00451918,10.31925201
1691763267067558,0.02079577,0.00238258,-0.00531537,10.28072548
1691763267071719,0.01154092,0.01397367,-0.00608736,10.27131557
