timestamp,roll,pitch,thrust,yaw,aux1,aux2,aux3,aux4
1691757109050648,1500,1500,1000,1500,1000,0,0,0
1691757109065208,1498,1472,1254,1502,1000,0,0,0
1691757109066223,1499,1471,1278,1503,1000,0,0,0
1691757109070647,1499,1472,1281,1503,1000,0,0,0
1691757109074771,1498,1469,1283,1503,1000,0,0,0
1691757109078453,1499,1470,1283,1503,1000,0,0,0
1691757109081220,1499,1470,1284,1503,1000,0,0,0
1691757109085410,1498,1469,1284,1503,1000,0,0,0
1691757109089110,1499,1470,1284,1503,1000,0,0,0
1691757109091660,1499,1472,1284,1503,1000,0,0,0
1691757109095819,1498,1468,1286,1503,1000,0,0,0
1691757109104178,1499,1473,1285,1503,1000,0,0,0
1691757109104399,1499,1474,1285,1503,1000,0,0,0
1691757109107455,1499,1474,1285,1503,1000,0,0,0
1691757109109874,1499,1474,1285,1503,1000,0,0,0
1691757109114061,1498,1470,1288,1503,1000,0,0,0
1691757109117387,1499,1472,1287,1503,1000,0,0,0
1691757109121448,1499,1475,1287,1503,1000,0,0,0
1691757109125459,1499,1472,1288,1503,1000,0,0,0
1691757109130201,1499,1471,1289,1502,1000,0,0,0
1691757109131869,1499,1475,1288,1502,1000,0,0,0
1691757109135532,1500,1476,1287,1503,1000,0,0,0
1691757109140357,1499,1475,1289,1502,1000,0,0,0
1691757109142642,1499,1479,1288,1502,1000,0,0,0
1691757109146538,1499,1477,1289,1502,1000,0,0,0
1691757109150775,1501,1483,1284,1502,1000,0,0,0
1691757109153519,1500,1479,1287,1502,1000,0,0,0
1691757109157215,1498,1478,1283,1502,1000,0,0,0
1691757109163468,1500,1483,1278,1502,1000,0,0,0
1691757109164431,1501,1480,1279,1501,1000,0,0,0
1691757109168235,1499,1477,1275,1501,1000,0,0,0
1691757109173764,1501,1487,1267,1501,1000,0,0,0
1691757109175391,1503,1495,1261,1501,1000,0,0,0
1691757109179615,1500,1480,1267,1501,1000,0,0,0
1691757109183420,1499,1473,1268,1501,1000,0,0,0
1691757109190100,1503,1497,1254,1501,1000,0,0,0
1691757109193686,1499,1478,1259,1501,1000,0,0,0
1691757109198035,1498,1478,1262,1501,1000,0,0,0
1691757109203157,1505,1494,1250,1501,1000,0,0,0
1691757109207790,1504,1501,1246,1501,1000,0,0,0
1691757109208212,1501,1494,1242,1501,1000,0,0,0
1691757109213610,1500,1483,1257,1501,1000,0,0,0
1691757109216040,1502,1481,1256,1501,1000,0,0,0
1691757109220569,1502,1486,1251,1500,1000,0,0,0
1691757109225191,1503,1487,1248,1500,1000,0,0,0
1691757109232698,1504,1490,1247,1500,1000,0,0,0
1691757109232892,1503,1492,1248,1500,1000,0,0,0
1691757109237717,1502,1509,1238,1500,1000,0,0,0
1691757109238068,1504,1505,1232,1500,1000,0,0,0
1691757109241497,1507,1506,1236,1501,1000,0,0,0
1691757109246298,1506,1509,1240,1501,1000,0,0,0
1691757109250119,1507,1510,1240,1501,1000,0,0,0
1691757109252154,1508,1510,1242,1501,1000,0,0,0
1691757109255699,1506,1507,1244,1501,1000,0,0,0
1691757109261988,1504,1501,1246,1501,1000,0,0,0
1691757109263853,1499,1483,1255,1501,1000,0,0,0
1691757109267110,1494,1477,1254,1501,1000,0,0,0
1691757109272305,1497,1483,1258,1501,1000,0,0,0
1691757109276487,1498,1488,1253,1501,1000,0,0,0
1691757109277446,1499,1492,1248,1500,1000,0,0,0
1691757109281854,1502,1491,1238,1500,1000,0,0,0
1691757109285267,1512,1533,1221,1501,1000,0,0,0
1691757109288193,1504,1514,1245,1501,1000,0,0,0
1691757109291822,1500,1496,1257,1500,1000,0,0,0
1691757109298120,1498,1492,1255,1500,1000,0,0,0
1691757109300624,1500,1491,1243,1500,1000,0,0,0
1691757109305128,1499,1493,1245,1500,1000,0,0,0
1691757109306259,1499,1499,1254,1500,1000,0,0,0
1691757109310399,1507,1521,1240,1500,1000,0,0,0
1691757109314584,1505,1520,1241,1500,1000,0,0,0
1691757109317143,1504,1517,1244,1500,1000,0,0,0
1691757109324146,1504,1513,1249,1500,1000,0,0,0
1691757109324738,1500,1505,1245,1500,1000,0,0,0
1691757109328707,1503,1507,1241,1500,1000,0,0,0
1691757109336000,1503,1506,1245,1500,1000,0,0,0
1691757109336278,1500,1506,1254,1500,1000,0,0,0
1691757109339104,1502,1507,1250,1500,1000,0,0,0
1691757109343669,1503,1507,1249,1500,1000,0,0,0
1691757109349092,1503,1506,1248,1500,1000,0,0,0
1691757109350137,1501,1505,1248,1500,1000,0,0,0
1691757109353826,1501,1505,1248,1500,1000,0,0,0
1691757109359455,1501,1504,1247,1500,1000,0,0,0
1691757109361967,1498,1504,1251,1500,1000,0,0,0
1691757109368942,1501,1506,1249,1501,1000,0,0,0
1691757109369139,1500,1503,1243,1500,1000,0,0,0
1691757109373936,1501,1511,1244,1501,1000,0,0,0
1691757109377700,1502,1512,1247,1501,1000,0,0,0
1691757109379070,1502,1515,1246,1501,1000,0,0,0
1691757109385262,1497,1498,1259,1500,1000,0,0,0
1691757109387142,1498,1500,1257,1501,1000,0,0,0
1691757109390584,1500,1504,1252,1501,1000,0,0,0
1691757109395981,1500,1502,1250,1501,1000,0,0,0
1691757109397250,1500,1503,1251,1501,1000,0,0,0
1691757109401384,1499,1502,1253,1501,1000,0,0,0
1691757109406737,1499,1501,1251,1501,1000,0,0,0
1691757109408479,1499,1500,1250,1501,1000,0,0,0
1691757109413151,1500,1501,1250,1501,1000,0,0,0
1691757109416058,1496,1500,1253,1500,1000,0,0,0
1691757109425976,1499,1504,1245,1501,1000,0,0,0
1691757109426366,1500,1509,1245,1501,1000,0,0,0
1691757109426663,1502,1515,1247,1501,1000,0,0,0
1691757109430324,1496,1497,1257,1500,1000,0,0,0
1691757109433509,1497,1497,1254,1500,1000,0,0,0
1691757109437591,1498,1499,1251,1500,1000,0,0,0
1691757109441593,1497,1501,1251,1500,1000,0,0,0
1691757109445490,1498,1501,1250,1500,1000,0,0,0
1691757109448171,1498,1502,1250,1500,1000,0,0,0
1691757109451969,1496,1501,1251,1500,1000,0,0,0
1691757109457422,1495,1496,1253,1500,1000,0,0,0
1691757109460352,1498,1500,1246,1500,1000,0,0,0
1691757109463725,1501,1508,1242,1500,1000,0,0,0
1691757109466360,1496,1492,1257,1500,1000,0,0,0
1691757109469972,1498,1495,1254,1500,1000,0,0,0
1691757109474801,1498,1500,1253,1500,1000,0,0,0
1691757109477590,1498,1502,1251,1500,1000,0,0,0
1691757109482233,1498,1501,1253,1500,1000,0,0,0
1691757109485456,1498,1500,1254,1500,1000,0,0,0
1691757109489535,1494,1496,1255,1500,1000,0,0,0
1691757109492744,1498,1500,1245,1500,1000,0,0,0
1691757109495506,1500,1506,1247,1500,1000,0,0,0
1691757109499459,1503,1512,1247,1500,1000,0,0,0
1691757109502711,1495,1494,1258,1500,1000,0,0,0
1691757109509635,1496,1493,1257,1500,1000,0,0,0
1691757109509815,1496,1495,1255,1500,1000,0,0,0
1691757109514639,1496,1495,1255,1500,1000,0,0,0
1691757109517527,1495,1484,1258,1500,1000,0,0,0
1691757109521240,1493,1482,1260,1500,1000,0,0,0
1691757109524385,1495,1486,1250,1499,1000,0,0,0
1691757109528762,1500,1500,1246,1500,1000,0,0,0
1691757109534118,1497,1490,1257,1499,1000,0,0,0
1691757109538469,1496,1493,1255,1499,1000,0,0,0
1691757109540875,1496,1494,1254,1499,1000,0,0,0
1691757109543782,1497,1491,1247,1499,1000,0,0,0
1691757109546935,1500,1500,1247,1499,1000,0,0,0
1691757109549969,1500,1508,1246,1499,1000,0,0,0
1691757109553743,1497,1499,1256,1499,1000,0,0,0
1691757109563275,1499,1504,1254,1499,1000,0,0,0
1691757109563556,1498,1495,1256,1499,1000,0,0,0
1691757109564641,1497,1493,1255,1499,1000,0,0,0
1691757109570502,1498,1493,1253,1499,1000,0,0,0
1691757109572772,1501,1509,1246,1499,1000,0,0,0
1691757109575378,1498,1506,1250,1499,1000,0,0,0
1691757109579559,1502,1504,1239,1499,1000,0,0,0
1691757109586352,1504,1510,1243,1499,1000,0,0,0
1691757109586896,1498,1494,1259,1499,1000,0,0,0
1691757109591137,1497,1487,1261,1499,1000,0,0,0
1691757109594522,1499,1489,1258,1499,1000,0,0,0
1691757109599158,1500,1490,1255,1499,1000,0,0,0
1691757109600950,1500,1492,1252,1499,1000,0,0,0
1691757109608493,1500,1495,1251,1499,1000,0,0,0
1691757109608753,1501,1496,1251,1499,1000,0,0,0
1691757109612778,1498,1496,1253,1499,1000,0,0,0
1691757109615429,1503,1504,1241,1499,1000,0,0,0
1691757109618942,1500,1492,1256,1499,1000,0,0,0
1691757109622849,1501,1499,1254,1499,1000,0,0,0
1691757109626703,1501,1503,1251,1499,1000,0,0,0
1691757109631566,1502,1502,1252,1499,1000,0,0,0
1691757109634742,1502,1503,1252,1499,1000,0,0,0
1691757109637301,1502,1503,1252,1499,1000,0,0,0
1691757109641415,1503,1500,1252,1499,1000,0,0,0
1691757109645774,1504,1500,1254,1499,1000,0,0,0
1691757109648801,1505,1513,1246,1499,1000,0,0,0
1691757109651721,1504,1511,1250,1499,1000,0,0,0
1691757109656012,1505,1509,1245,1499,1000,0,0,0
1691757109662111,1504,1499,1256,1499,1000,0,0,0
1691757109662662,1506,1502,1254,1499,1000,0,0,0
1691757109668422,1500,1487,1264,1499,1000,0,0,0
1691757109671700,1500,1489,1263,1499,1000,0,0,0
1691757109676001,1501,1494,1258,1499,1000,0,0,0
1691757109683705,1503,1500,1255,1499,1000,0,0,0
1691757109683878,1503,1506,1253,1499,1000,0,0,0
1691757109684419,1503,1504,1254,1499,1000,0,0,0
1691757109688623,1504,1502,1247,1499,1000,0,0,0
1691757109695024,1503,1512,1252,1499,1000,0,0,0
1691757109695816,1503,1502,1258,1499,1000,0,0,0
1691757109706115,1504,1502,1259,1499,1000,0,0,0
1691757109706321,1505,1502,1259,1499,1000,0,0,0
1691757109707491,1504,1501,1257,1499,1000,0,0,0
1691757109711836,1502,1501,1256,1499,1000,0,0,0
1691757109713923,1509,1516,1239,1500,1000,0,0,0
1691757109717796,1506,1506,1255,1500,1000,0,0,0
1691757109721936,1508,1508,1254,1500,1000,0,0,0
1691757109725684,1502,1496,1264,1500,1000,0,0,0
1691757109729580,1504,1498,1261,1500,1000,0,0,0
1691757109732008,1503,1502,1261,1500,1000,0,0,0
1691757109735458,1503,1504,1257,1500,1000,0,0,0
1691757109743261,1507,1516,1250,1500,1000,0,0,0
1691757109743568,1506,1515,1253,1500,1000,0,0,0
1691757109747835,1502,1510,1257,1500,1000,0,0,0
1691757109750849,1507,1517,1249,1501,1000,0,0,0
1691757109753690,1504,1503,1261,1501,1000,0,0,0
1691757109758231,1504,1507,1259,1501,1000,0,0,0
1691757109761454,1502,1497,1265,1501,1000,0,0,0
1691757109766190,1500,1494,1266,1501,1000,0,0,0
1691757109769006,1503,1494,1252,1501,1000,0,0,0
1691757109772037,1505,1506,1252,1501,1000,0,0,0
1691757109778439,1501,1495,1265,1501,1000,0,0,0
1691757109780067,1504,1501,1260,1501,1000,0,0,0
1691757109782692,1507,1518,1252,1501,1000,0,0,0
1691757109791432,1505,1514,1256,1501,1000,0,0,0
1691757109791598,1510,1521,1248,1502,1000,0,0,0
1691757109798183,1502,1502,1265,1501,1000,0,0,0
1691757109798380,1500,1492,1268,1501,1000,0,0,0
1691757109800658,1503,1503,1258,1501,1000,0,0,0
1691757109806569,1503,1494,1264,1501,1000,0,0,0
1691757109809120,1506,1508,1256,1502,1000,0,0,0
1691757109812354,1505,1509,1256,1502,1000,0,0,0
1691757109816158,1506,1509,1258,1502,1000,0,0,0
1691757109819966,1505,1508,1260,1502,1000,0,0,0
1691757109823555,1500,1504,1264,1502,1000,0,0,0
1691757109827921,1499,1502,1261,1502,1000,0,0,0
1691757109830944,1501,1491,1268,1502,1000,0,0,0
1691757109833635,1501,1494,1267,1502,1000,0,0,0
1691757109838367,1503,1506,1258,1502,1000,0,0,0
1691757109841561,1500,1504,1262,1502,1000,0,0,0
1691757109844707,1503,1510,1256,1502,1000,0,0,0
1691757109849416,1499,1496,1262,1502,1000,0,0,0
1691757109853090,1499,1501,1266,1502,1000,0,0,0
1691757109855792,1498,1498,1267,1502,1000,0,0,0
1691757109868735,1496,1499,1265,1502,1000,0,0,0
1691757109868937,1499,1493,1266,1502,1000,0,0,0
1691757109871112,1500,1493,1264,1502,1000,0,0,0
1691757109877461,1498,1493,1261,1502,1000,0,0,0
1691757109877668,1495,1499,1263,1502,1000,0,0,0
1691757109883988,1501,1508,1257,1502,1000,0,0,0
1691757109890953,1502,1506,1260,1502,1000,0,0,0
1691757109891133,1501,1506,1257,1502,1000,0,0,0
1691757109896337,1498,1498,1264,1502,1000,0,0,0
1691757109896529,1498,1499,1263,1502,1000,0,0,0
1691757109899501,1497,1493,1266,1502,1000,0,0,0
1691757109903511,1499,1497,1256,1502,1000,0,0,0
1691757109907021,1503,1517,1253,1502,1000,0,0,0
1691757109910216,1496,1484,1269,1501,1000,0,0,0
1691757109913738,1495,1482,1269,1501,1000,0,0,0
1691757109917259,1495,1484,1267,1501,1000,0,0,0
1691757109921711,1493,1485,1264,1501,1000,0,0,0
1691757109924979,1507,1521,1248,1502,1000,0,0,0
1691757109929033,1498,1497,1263,1502,1000,0,0,0
1691757109932208,1495,1487,1270,1501,1000,0,0,0
1691757109936563,1493,1483,1269,1501,1000,0,0,0
1691757109946313,1496,1481,1263,1501,1000,0,0,0
1691757109946586,1501,1500,1257,1501,1000,0,0,0
1691757109946749,1495,1493,1263,1501,1000,0,0,0
1691757109950071,1499,1508,1249,1501,1000,0,0,0
1691757109954120,1498,1495,1263,1501,1000,0,0,0
1691757109958301,1500,1500,1261,1501,1000,0,0,0
1691757109962395,1497,1486,1268,1500,1000,0,0,0
1691757109966662,1501,1497,1255,1501,1000,0,0,0
1691757109970671,1499,1489,1263,1500,1000,0,0,0
1691757109971708,1499,1496,1263,1501,1000,0,0,0
1691757109977696,1499,1498,1262,1501,1000,0,0,0
1691757109979593,1494,1487,1268,1500,1000,0,0,0
1691757109983025,1500,1503,1252,1500,1000,0,0,0
1691757109990150,1496,1484,1266,1500,1000,0,0,0
1691757109990348,1499,1499,1257,1500,1000,0,0,0
1691757109994984,1499,1503,1257,1500,1000,0,0,0
1691757109998495,1498,1500,1260,1500,1000,0,0,0
1691757110001705,1500,1504,1253,1500,1000,0,0,0
1691757110004879,1498,1494,1262,1500,1000,0,0,0
1691757110008135,1497,1498,1261,1500,1000,0,0,0
1691757110012173,1499,1497,1261,1500,1000,0,0,0
1691757110015451,1499,1496,1261,1500,1000,0,0,0
1691757110019536,1495,1483,1267,1499,1000,0,0,0
1691757110022740,1498,1486,1260,1499,1000,0,0,0
1691757110026338,1503,1506,1252,1500,1000,0,0,0
1691757110033018,1498,1497,1264,1500,1000,0,0,0
1691757110033592,1499,1500,1264,1500,1000,0,0,0
1691757110038921,1499,1501,1264,1500,1000,0,0,0
1691757110040833,1500,1502,1256,1500,1000,0,0,0
1691757110047470,1496,1501,1261,1500,1000,0,0,0
1691757110050886,1498,1496,1265,1500,1000,0,0,0
1691757110052277,1499,1498,1264,1500,1000,0,0,0
1691757110056261,1499,1501,1262,1500,1000,0,0,0
1691757110063061,1498,1502,1262,1500,1000,0,0,0
1691757110063361,1500,1502,1259,1500,1000,0,0,0
1691757110066411,1501,1507,1256,1500,1000,0,0,0
1691757110072940,1497,1488,1271,1499,1000,0,0,0
1691757110076238,1499,1499,1265,1500,1000,0,0,0
1691757110079472,1497,1500,1267,1500,1000,0,0,0
1691757110088025,1497,1492,1263,1499,1000,0,0,0
1691757110088210,1505,1523,1252,1500,1000,0,0,0
1691757110088986,1498,1502,1267,1500,1000,0,0,0
1691757110092133,1497,1489,1272,1499,1000,0,0,0
1691757110099916,1496,1487,1267,1499,1000,0,0,0
1691757110100440,1502,1507,1251,1500,1000,0,0,0
1691757110102827,1499,1503,1263,1500,1000,0,0,0
1691757110106878,1501,1500,1263,1500,1000,0,0,0
1691757110111073,1501,1500,1259,1500,1000,0,0,0
1691757110114354,1497,1503,1262,1500,1000,0,0,0
1691757110119546,1500,1500,1263,1500,1000,0,0,0
1691757110122375,1500,1501,1264,1500,1000,0,0,0
1691757110124548,1501,1502,1261,1500,1000,0,0,0
1691757110128236,1498,1502,1262,1500,1000,0,0,0
1691757110134822,1499,1492,1262,1499,1000,0,0,0
1691757110136147,1500,1494,1265,1499,1000,0,0,0
1691757110139142,1500,1504,1261,1500,1000,0,0,0
1691757110147487,1500,1505,1262,1500,1000,0,0,0
1691757110147667,1502,1504,1260,1500,1000,0,0,0
1691757110149918,1507,1525,1250,1500,1000,0,0,0
1691757110154610,1499,1503,1266,1500,1000,0,0,0
1691757110158993,1499,1497,1266,1500,1000,0,0,0
1691757110161552,1500,1494,1264,1500,1000,0,0,0
1691757110165470,1501,1498,1255,1500,1000,0,0,0
1691757110171533,1497,1491,1264,1500,1000,0,0,0
1691757110172306,1500,1498,1265,1500,1000,0,0,0
1691757110175643,1502,1502,1264,1500,1000,0,0,0
1691757110179500,1502,1505,1258,1500,1000,0,0,0
1691757110183274,1497,1505,1263,1500,1000,0,0,0
1691757110188034,1501,1502,1262,1500,1000,0,0,0
1691757110191420,1503,1502,1263,1500,1000,0,0,0
1691757110196159,1501,1502,1261,1500,1000,0,0,0
1691757110197201,1502,1508,1255,1500,1000,0,0,0
1691757110201173,1498,1487,1269,1499,1000,0,0,0
1691757110205458,1502,1502,1263,1500,1000,0,0,0
1691757110209693,1502,1507,1261,1500,1000,0,0,0
1691757110212378,1500,1504,1263,1500,1000,0,0,0
1691757110216356,1506,1510,1250,1500,1000,0,0,0
1691757110219092,1501,1504,1263,1500,1000,0,0,0
1691757110223172,1500,1502,1264,1500,1000,0,0,0
1691757110226476,1502,1501,1257,1500,1000,0,0,0
1691757110231837,1501,1499,1262,1500,1000,0,0,0
1691757110234704,1501,1499,1264,1500,1000,0,0,0
1691757110238616,1501,1501,1262,1500,1000,0,0,0
1691757110242742,1499,1501,1265,1500,1000,0,0,0
1691757110244640,1503,1504,1254,1500,1000,0,0,0
1691757110248462,1507,1525,1250,1501,1000,0,0,0
1691757110254954,1498,1491,1269,1500,1000,0,0,0
1691757110256367,1501,1499,1265,1500,1000,0,0,0
1691757110259567,1501,1500,1261,1500,1000,0,0,0
1691757110263978,1503,1503,1251,1500,1000,0,0,0
1691757110266333,1503,1510,1254,1500,1000,0,0,0
1691757110270470,1496,1484,1268,1500,1000,0,0,0
1691757110275314,1501,1501,1264,1500,1000,0,0,0
1691757110278528,1501,1507,1262,1500,1000,0,0,0
1691757110280898,1501,1505,1260,1500,1000,0,0,0
1691757110284945,1506,1507,1251,1500,1000,0,0,0
1691757110290695,1501,1499,1266,1500,1000,0,0,0
1691757110294350,1501,1504,1264,1500,1000,0,0,0
1691757110299449,1499,1494,1270,1500,1000,0,0,0
1691757110299629,1503,1502,1261,1500,1000,0,0,0
1691757110302777,1504,1511,1254,1500,1000,0,0,0
1691757110306802,1499,1506,1265,1500,1000,0,0,0
1691757110310626,1502,1501,1262,1500,1000,0,0,0
1691757110317837,1503,1502,1262,1500,1000,0,0,0
1691757110318112,1501,1502,1262,1500,1000,0,0,0
1691757110324449,1501,1502,1256,1500,1000,0,0,0
1691757110326713,1507,1522,1252,1501,1000,0,0,0
1691757110329117,1499,1501,1266,1500,1000,0,0,0
1691757110331890,1499,1498,1267,1500,1000,0,0,0
1691757110337530,1498,1495,1264,1500,1000,0,0,0
1691757110339508,1499,1499,1259,1500,1000,0,0,0
1691757110343630,1500,1499,1262,1500,1000,0,0,0
1691757110347432,1500,1500,1262,1500,1000,0,0,0
1691757110352577,1500,1500,1258,1500,1000,0,0,0
1691757110353640,1499,1502,1262,1500,1000,0,0,0
1691757110357796,1500,1499,1260,1500,1000,0,0,0
1691757110364877,1501,1498,1261,1500,1000,0,0,0
1691757110365899,1500,1499,1259,1500,1000,0,0,0
1691757110369662,1505,1505,1254,1500,1000,0,0,0
1691757110376694,1500,1495,1263,1500,1000,0,0,0
1691757110377035,1500,1497,1263,1500,1000,0,0,0
1691757110380381,1499,1500,1259,1500,1000,0,0,0
1691757110384500,1501,1503,1255,1500,1000,0,0,0
1691757110388238,1509,1521,1254,1501,1000,0,0,0
1691757110389898,1498,1497,1260,1500,1000,0,0,0
1691757110393978,1498,1494,1261,1500,1000,0,0,0
1691757110400467,1499,1494,1261,1500,1000,0,0,0
1691757110401452,1499,1494,1260,1500,1000,0,0,0
1691757110406018,1500,1497,1255,1500,1000,0,0,0
1691757110408106,1501,1503,1257,1500,1000,0,0,0
1691757110412267,1507,1514,1260,1500,1000,0,0,0
1691757110415503,1499,1494,1266,1500,1000,0,0,0
1691757110420324,1497,1492,1261,1500,1000,0,0,0
1691757110436007,1499,1492,1259,1500,1000,0,0,0
1691757110436224,1506,1513,1254,1500,1000,0,0,0
1691757110436419,1498,1495,1261,1500,1000,0,0,0
1691757110437842,1500,1493,1260,1500,1000,0,0,0
1691757110441931,1499,1495,1258,1500,1000,0,0,0
1691757110449998,1497,1498,1264,1500,1000,0,0,0
1691757110450181,1499,1493,1258,1500,1000,0,0,0
1691757110451746,1500,1495,1260,1500,1000,0,0,0
1691757110455716,1497,1495,1257,1500,1000,0,0,0
1691757110459956,1499,1501,1257,1500,1000,0,0,0
1691757110463695,1507,1518,1253,1501,1000,0,0,0
1691757110466397,1499,1492,1265,1500,1000,0,0,0
1691757110471099,1496,1493,1264,1500,1000,0,0,0
1691757110473664,1498,1494,1262,1500,1000,0,0,0
1691757110477070,1499,1493,1262,1500,1000,0,0,0
1691757110482780,1500,1494,1257,1500,1000,0,0,0
1691757110485498,1502,1502,1252,1500,1000,0,0,0
1691757110488633,1498,1491,1263,1499,1000,0,0,0
1691757110494994,1500,1491,1263,1499,1000,0,0,0
1691757110496405,1499,1496,1259,1499,1000,0,0,0
1691757110498961,1499,1499,1255,1500,1000,0,0,0
1691757110503682,1502,1503,1254,1500,1000,0,0,0
1691757110507549,1499,1494,1263,1499,1000,0,0,0
1691757110510609,1498,1499,1261,1499,1000,0,0,0
1691757110514117,1497,1498,1264,1499,1000,0,0,0
1691757110517555,1502,1497,1256,1499,1000,0,0,0
1691757110521998,1507,1518,1253,1500,1000,0,0,0
1691757110525427,1498,1492,1261,1499,1000,0,0,0
1691757110530847,1499,1490,1260,1499,1000,0,0,0
1691757110532775,1500,1493,1263,1499,1000,0,0,0
1691757110535593,1499,1496,1256,1499,1000,0,0,0
1691757110539686,1498,1500,1255,1499,1000,0,0,0
1691757110543617,1500,1503,1255,1499,1000,0,0,0
1691757110546380,1508,1522,1249,1500,1000,0,0,0
1691757110550201,1497,1497,1262,1499,1000,0,0,0
1691757110554207,1497,1495,1263,1499,1000,0,0,0
1691757110557627,1500,1495,1262,1499,1000,0,0,0
1691757110561706,1500,1496,1258,1499,1000,0,0,0
1691757110566139,1499,1500,1257,1499,1000,0,0,0
1691757110567975,1500,1497,1257,1499,1000,0,0,0
1691757110571845,1501,1500,1259,1499,1000,0,0,0
1691757110584443,1505,1519,1257,1500,1000,0,0,0
1691757110584806,1499,1495,1260,1499,1000,0,0,0
1691757110586352,1498,1499,1262,1499,1000,0,0,0
1691757110590133,1497,1499,1262,1499,1000,0,0,0
1691757110593718,1501,1501,1259,1499,1000,0,0,0
1691757110597832,1507,1515,1256,1500,1000,0,0,0
1691757110601677,1498,1492,1269,1499,1000,0,0,0
1691757110605691,1499,1491,1262,1499,1000,0,0,0
1691757110608062,1501,1495,1261,1499,1000,0,0,0
1691757110616428,1500,1500,1262,1499,1000,0,0,0
1691757110616624,1500,1503,1262,1499,1000,0,0,0
1691757110619808,1507,1520,1256,1500,1000,0,0,0
1691757110623781,1499,1498,1268,1499,1000,0,0,0
1691757110626448,1498,1499,1265,1499,1000,0,0,0
1691757110630147,1500,1499,1263,1499,1000,0,0,0
1691757110634340,1500,1501,1261,1499,1000,0,0,0
1691757110637821,1502,1504,1257,1499,1000,0,0,0
1691757110641714,1505,1516,1258,1500,1000,0,0,0
1691757110646777,1508,1515,1258,1500,1000,0,0,0
1691757110650739,1498,1493,1269,1499,1000,0,0,0
1691757110651531,1496,1493,1261,1499,1000,0,0,0
1691757110658088,1498,1496,1261,1499,1000,0,0,0
1691757110659597,1499,1498,1261,1499,1000,0,0,0
1691757110663781,1500,1502,1259,1499,1000,0,0,0
1691757110668660,1501,1501,1258,1499,1000,0,0,0
1691757110671825,1506,1516,1257,1500,1000,0,0,0
1691757110674159,1500,1494,1268,1499,1000,0,0,0
1691757110684501,1497,1499,1266,1499,1000,0,0,0
1691757110684707,1497,1497,1264,1499,1000,0,0,0
1691757110685055,1503,1502,1256,1499,1000,0,0,0
1691757110691912,1499,1496,1269,1499,1000,0,0,0
1691757110692550,1499,1497,1261,1499,1000,0,0,0
1691757110695818,1500,1503,1262,1499,1000,0,0,0
1691757110699543,1500,1504,1262,1499,1000,0,0,0
1691757110709064,1502,1506,1257,1499,1000,0,0,0
1691757110709515,1501,1523,1262,1500,1000,0,0,0
1691757110711276,1500,1498,1264,1499,1000,0,0,0
1691757110715664,1499,1498,1259,1499,1000,0,0,0
1691757110716985,1501,1498,1257,1499,1000,0,0,0
1691757110721029,1499,1500,1261,1499,1000,0,0,0
1691757110726281,1500,1501,1260,1499,1000,0,0,0
1691757110728937,1507,1515,1257,1500,1000,0,0,0
1691757110732745,1498,1493,1268,1499,1000,0,0,0
1691757110735476,1498,1496,1262,1499,1000,0,0,0
1691757110741221,1499,1498,1263,1499,1000,0,0,0
1691757110742773,1499,1498,1259,1499,1000,0,0,0
1691757110746429,1499,1502,1258,1499,1000,0,0,0
1691757110753371,1501,1505,1258,1499,1000,0,0,0
1691757110758039,1507,1522,1256,1500,1000,0,0,0
1691757110758274,1498,1497,1265,1499,1000,0,0,0
1691757110763782,1496,1496,1260,1499,1000,0,0,0
1691757110765021,1499,1498,1264,1499,1000,0,0,0
1691757110769046,1498,1499,1257,1499,1000,0,0,0
1691757110771694,1500,1501,1258,1499,1000,0,0,0
1691757110776785,1506,1518,1256,1500,1000,0,0,0
1691757110779626,1498,1494,1269,1499,1000,0,0,0
1691757110786646,1497,1495,1268,1499,1000,0,0,0
1691757110787460,1498,1498,1265,1499,1000,0,0,0
1691757110790899,1498,1498,1264,1499,1000,0,0,0
1691757110795771,1501,1502,1260,1499,1000,0,0,0
1691757110799564,1506,1523,1251,1500,1000,0,0,0
1691757110800776,1497,1497,1263,1499,1000,0,0,0
1691757110805044,1497,1498,1267,1499,1000,0,0,0
1691757110810515,1497,1499,1261,1499,1000,0,0,0
1691757110811751,1499,1500,1257,1499,1000,0,0,0
1691757110816399,1505,1518,1253,1500,1000,0,0,0
1691757110821177,1497,1492,1265,1499,1000,0,0,0
1691757110822837,1496,1492,1263,1499,1000,0,0,0
1691757110828848,1496,1497,1261,1499,1000,0,0,0
1691757110832786,1500,1500,1257,1499,1000,0,0,0
1691757110833672,1505,1519,1252,1500,1000,0,0,0
1691757110838482,1497,1496,1262,1499,1000,0,0,0
1691757110852403,1495,1496,1260,1499,1000,0,0,0
1691757110852723,1498,1498,1257,1499,1000,0,0,0
1691757110852898,1499,1502,1255,1499,1000,0,0,0
1691757110857504,1501,1501,1258,1499,1000,0,0,0
1691757110859507,1506,1517,1253,1500,1000,0,0,0
1691757110862869,1496,1493,1263,1499,1000,0,0,0
1691757110868439,1495,1495,1259,1499,1000,0,0,0
1691757110869893,1498,1498,1258,1499,1000,0,0,0
1691757110874049,1499,1499,1256,1499,1000,0,0,0
1691757110882843,1499,1503,1254,1499,1000,0,0,0
1691757110883222,1500,1500,1253,1499,1000,0,0,0
1691757110884951,1505,1518,1254,1500,1000,0,0,0
1691757110888885,1498,1518,1263,1500,1000,0,0,0
1691757110892669,1496,1491,1263,1499,1000,0,0,0
1691757110895520,1497,1492,1263,1499,1000,0,0,0
1691757110899124,1499,1495,1258,1499,1000,0,0,0
1691757110903086,1498,1493,1257,1499,1000,0,0,0
1691757110906375,1500,1495,1257,1499,1000,0,0,0
1691757110909983,1504,1499,1251,1499,1000,0,0,0
1691757110914081,1496,1489,1261,1499,1000,0,0,0
1691757110917212,1498,1497,1258,1499,1000,0,0,0
1691757110921296,1500,1499,1258,1499,1000,0,0,0
1691757110924991,1500,1501,1257,1499,1000,0,0,0
1691757110929125,1500,1504,1257,1499,1000,0,0,0
1691757110933472,1508,1521,1252,1500,1000,0,0,0
1691757110937527,1498,1497,1264,1499,1000,0,0,0
1691757110939439,1496,1497,1263,1499,1000,0,0,0
1691757110942836,1497,1497,1261,1499,1000,0,0,0
1691757110948699,1499,1499,1261,1499,1000,0,0,0
1691757110949804,1499,1501,1260,1499,1000,0,0,0
1691757110954074,1497,1498,1262,1499,1000,0,0,0
1691757110959980,1500,1496,1257,1499,1000,0,0,0
1691757110961832,1501,1498,1256,1499,1000,0,0,0
1691757110964834,1505,1518,1250,1500,1000,0,0,0
1691757110969022,1497,1494,1260,1499,1000,0,0,0
1691757110971857,1497,1496,1261,1499,1000,0,0,0
1691757110975343,1497,1494,1257,1499,1000,0,0,0
1691757110979566,1499,1501,1254,1499,1000,0,0,0
1691757110983705,1507,1517,1250,1500,1000,0,0,0
1691757110986328,1497,1494,1264,1499,1000,0,0,0
1691757110990031,1495,1494,1263,1499,1000,0,0,0
1691757110993889,1497,1495,1261,1499,1000,0,0,0
1691757110997301,1500,1495,1257,1499,1000,0,0,0
1691757111001988,1504,1515,1254,1500,1000,0,0,0
1691757111006099,1495,1489,1264,1499,1000,0,0,0
1691757111011658,1499,1489,1260,1499,1000,0,0,0
1691757111023294,1500,1496,1261,1499,1000,0,0,0
1691757111023726,1498,1497,1262,1499,1000,0,0,0
1691757111023917,1499,1496,1254,1499,1000,0,0,0
1691757111024084,1500,1499,1252,1499,1000,0,0,0
1691757111026259,1506,1520,1250,1500,1000,0,0,0
1691757111032280,1497,1492,1259,1499,1000,0,0,0
1691757111033556,1496,1492,1258,1499,1000,0,0,0
1691757111037517,1498,1496,1259,1499,1000,0,0,0
1691757111043319,1501,1501,1252,1500,1000,0,0,0
1691757111045159,1506,1516,1251,1500,1000,0,0,0
1691757111049041,1498,1513,1265,1500,1000,0,0,0
1691757111052561,1494,1482,1263,1499,1000,0,0,0
1691757111056140,1497,1482,1259,1499,1000,0,0,0
1691757111059764,1498,1491,1258,1499,1000,0,0,0
1691757111062907,1499,1496,1260,1499,1000,0,0,0
1691757111066599,1499,1497,1256,1499,1000,0,0,0
1691757111071049,1504,1516,1254,1500,1000,0,0,0
1691757111076729,1496,1491,1263,1499,1000,0,0,0
1691757111078533,1498,1494,1259,1499,1000,0,0,0
1691757111080919,1498,1497,1258,1499,1000,0,0,0
1691757111086952,1498,1499,1255,1500,1000,0,0,0
1691757111088231,1505,1516,1252,1500,1000,0,0,0
1691757111097818,1501,1499,1255,1500,1000,0,0,0
1691757111098037,1499,1501,1256,1500,1000,0,0,0
1691757111101733,1503,1514,1257,1500,1000,0,0,0
1691757111102822,1505,1511,1259,1500,1000,0,0,0
1691757111106896,1494,1486,1267,1499,1000,0,0,0
1691757111110170,1494,1486,1261,1499,1000,0,0,0
1691757111114219,1496,1493,1262,1500,1000,0,0,0
1691757111119870,1497,1496,1261,1500,1000,0,0,0
1691757111121806,1498,1498,1263,1500,1000,0,0,0
1691757111125651,1499,1499,1259,1500,1000,0,0,0
1691757111128513,1498,1499,1261,1500,1000,0,0,0
1691757111131761,1499,1498,1258,1500,1000,0,0,0
1691757111135434,1499,1499,1259,1500,1000,0,0,0
1691757111139852,1506,1516,1253,1500,1000,0,0,0
1691757111143776,1497,1490,1263,1500,1000,0,0,0
1691757111146591,1496,1494,1261,1500,1000,0,0,0
1691757111150174,1497,1497,1256,1500,1000,0,0,0
1691757111154941,1499,1501,1261,1500,1000,0,0,0
1691757111162803,1498,1501,1261,1500,1000,0,0,0
1691757111163019,1498,1502,1258,1500,1000,0,0,0
1691757111165191,1505,1517,1255,1500,1000,0,0,0
1691757111168016,1498,1488,1262,1499,1000,0,0,0
1691757111172331,1496,1496,1260,1500,1000,0,0,0
1691757111176354,1497,1498,1259,1500,1000,0,0,0
1691757111180057,1500,1499,1258,1500,1000,0,0,0
1691757111182687,1497,1498,1262,1500,1000,0,0,0
1691757111186346,1497,1495,1257,1500,1000,0,0,0
1691757111192120,1498,1499,1257,1500,1000,0,0,0
1691757111194170,1499,1500,1255,1500,1000,0,0,0
1691757111198284,1506,1521,1247,1501,1000,0,0,0
1691757111201642,1495,1492,1260,1500,1000,0,0,0
1691757111204681,1496,1495,1261,1500,1000,0,0,0
1691757111208269,1499,1495,1259,1500,1000,0,0,0
1691757111212682,1497,1499,1258,1500,1000,0,0,0
1691757111216309,1502,1517,1253,1501,1000,0,0,0
1691757111218985,1500,1516,1260,1500,1000,0,0,0
1691757111224543,1500,1486,1254,1500,1000,0,0,0
1691757111227488,1497,1490,1257,1500,1000,0,0,0
1691757111230034,1497,1492,1258,1500,1000,0,0,0
1691757111233652,1504,1510,1253,1500,1000,0,0,0
1691757111237196,1505,1516,1249,1501,1000,0,0,0
1691757111241655,1493,1483,1258,1500,1000,0,0,0
1691757111247516,1495,1487,1257,1500,1000,0,0,0
1691757111248140,1497,1493,1254,1500,1000,0,0,0
1691757111251810,1496,1500,1259,1500,1000,0,0,0
1691757111257867,1497,1501,1257,1500,1000,0,0,0
1691757111259499,1506,1517,1249,1501,1000,0,0,0
1691757111263347,1497,1492,1261,1500,1000,0,0,0
1691757111269208,1495,1498,1259,1500,1000,0,0,0
1691757111269835,1498,1499,1258,1500,1000,0,0,0
1691757111273782,1500,1497,1255,1500,1000,0,0,0
1691757111278669,1501,1498,1253,1500,1000,0,0,0
1691757111281553,1499,1500,1257,1500,1000,0,0,0
1691757111285485,1504,1514,1256,1500,1000,0,0,0
1691757111292128,1505,1516,1255,1501,1000,0,0,0
1691757111292292,1494,1489,1263,1500,1000,0,0,0
1691757111296338,1496,1489,1256,1500,1000,0,0,0
1691757111299640,1498,1495,1258,1500,1000,0,0,0
1691757111304915,1497,1501,1260,1500,1000,0,0,0
1691757111313267,1498,1501,1257,1500,1000,0,0,0
1691757111313667,1506,1516,1255,1501,1000,0,0,0
1691757111317309,1496,1502,1266,1500,1000,0,0,0
1691757111324389,1497,1494,1264,1500,1000,0,0,0
1691757111328113,1499,1496,1262,1500,1000,0,0,0
1691757111328389,1499,1499,1262,1500,1000,0,0,0
1691757111331928,1498,1500,1260,1500,1000,0,0,0
1691757111336292,1499,1500,1261,1500,1000,0,0,0
1691757111339808,1499,1499,1259,1500,1000,0,0,0
1691757111343436,1499,1501,1258,1500,1000,0,0,0
1691757111346596,1508,1515,1252,1500,1000,0,0,0
1691757111349984,1498,1492,1265,1500,1000,0,0,0
1691757111353997,1497,1495,1265,1500,1000,0,0,0
1691757111357271,1497,1498,1264,1500,1000,0,0,0
1691757111362327,1498,1501,1263,1500,1000,0,0,0
1691757111367153,1499,1503,1261,1500,1000,0,0,0
1691757111368169,1500,1503,1259,1500,1000,0,0,0
1691757111371852,1505,1518,1257,1500,1000,0,0,0
1691757111375321,1507,1518,1257,1501,1000,0,0,0
1691757111379620,1497,1497,1270,1500,1000,0,0,0
1691757111382604,1497,1494,1268,1500,1000,0,0,0
1691757111386443,1498,1496,1268,1500,1000,0,0,0
1691757111390409,1499,1499,1262,1500,1000,0,0,0
1691757111395135,1503,1515,1258,1500,1000,0,0,0
1691757111398372,1506,1510,1255,1500,1000,0,0,0
1691757111402119,1499,1486,1214,1499,1000,0,0,0
1691757111407471,1500,1488,1203,1499,1000,0,0,0
1691757111408709,1501,1492,1202,1499,1000,0,0,0
1691757111412733,1502,1499,1202,1500,1000,0,0,0
1691757111419105,1510,1522,1198,1501,1000,0,0,0
1691757111419507,1510,1520,1196,1501,1000,0,0,0
1691757111422800,1503,1515,1206,1500,1000,0,0,0
1691757111426313,1502,1514,1206,1500,1000,0,0,0
1691757111430686,1511,1508,1193,1500,1000,0,0,0
1691757111435286,1506,1501,1202,1500,1000,0,0,0
1691757111437268,1499,1486,1211,1500,1000,0,0,0
1691757111441638,1498,1481,1209,1499,1000,0,0,0
1691757111454630,1507,1503,1205,1500,1000,0,0,0
1691757111454978,1499,1492,1214,1500,1000,0,0,0
1691757111455285,1498,1491,1217,1500,1000,0,0,0
1691757111458816,1498,1488,1216,1499,1000,0,0,0
1691757111459692,1499,1488,1216,1499,1000,0,0,0
1691757111463549,1499,1494,1220,1499,1000,0,0,0
1691757111469676,1501,1495,1220,1499,1000,0,0,0
1691757111470248,1501,1498,1222,1500,1000,0,0,0
1691757111473702,1500,1498,1226,1499,1000,0,0,0
1691757111479683,1502,1499,1226,1499,1000,0,0,0
1691757111481496,1507,1518,1223,1500,1000,0,0,0
1691757111484792,1501,1504,1232,1500,1000,0,0,0
1691757111490409,1499,1500,1234,1499,1000,0,0,0
1691757111495007,1499,1499,1236,1499,1000,0,0,0
1691757111496636,1499,1500,1237,1499,1000,0,0,0
1691757111501632,1503,1508,1236,1500,1000,0,0,0
1691757111502754,1500,1500,1239,1499,1000,0,0,0
1691757111508381,1499,1499,1240,1499,1000,0,0,0
1691757111510392,1499,1498,1241,1499,1000,0,0,0
1691757111514559,1498,1498,1243,1499,1000,0,0,0
1691757111518202,1499,1498,1242,1499,1000,0,0,0
1691757111521170,1498,1498,1244,1499,1000,0,0,0
1691757111524414,1498,1499,1245,1499,1000,0,0,0
1691757111528295,1498,1500,1246,1499,1000,0,0,0
1691757111534407,1498,1500,1247,1499,1000,0,0,0
1691757111535437,1497,1501,1248,1499,1000,0,0,0
1691757111540398,1498,1501,1248,1499,1000,0,0,0
1691757111547525,1498,1501,1250,1499,1000,0,0,0
1691757111549810,1498,1501,1250,1499,1000,0,0,0
1691757111553764,1498,1501,1250,1499,1000,0,0,0
1691757111557561,1499,1502,1251,1499,1000,0,0,0
1691757111561549,1499,1502,1251,1499,1000,0,0,0
1691757111564512,1499,1503,1252,1499,1000,0,0,0
1691757111567891,1504,1510,1252,1499,1000,0,0,0
1691757111574401,1504,1512,1252,1499,1000,0,0,0
1691757111577942,1499,1502,1254,1499,1000,0,0,0
1691757111579602,1498,1501,1255,1499,1000,0,0,0
1691757111585124,1498,1502,1255,1499,1000,0,0,0
1691757111586525,1498,1503,1256,1499,1000,0,0,0
1691757111589955,1498,1503,1257,1499,1000,0,0,0
1691757111593591,1499,1503,1257,1499,1000,0,0,0
1691757111597584,1498,1504,1257,1499,1000,0,0,0
1691757111603916,1498,1503,1258,1499,1000,0,0,0
1691757111604552,1499,1503,1257,1499,1000,0,0,0
1691757111608600,1501,1513,1260,1499,1000,0,0,0
1691757111615305,1498,1503,1259,1499,1000,0,0,0
1691757111615784,1498,1501,1259,1499,1000,0,0,0
1691757111619007,1498,1501,1260,1499,1000,0,0,0
1691757111623271,1498,1501,1259,1499,1000,0,0,0
1691757111626141,1498,1501,1259,1499,1000,0,0,0
1691757111629925,1498,1501,1259,1499,1000,0,0,0
1691757111633589,1500,1507,1259,1499,1000,0,0,0
1691757111636999,1501,1508,1258,1499,1000,0,0,0
1691757111641053,1498,1498,1260,1499,1000,0,0,0
1691757111644458,1497,1500,1259,1499,1000,0,0,0
1691757111648297,1497,1500,1260,1499,1000,0,0,0
1691757111652495,1498,1499,1261,1499,1000,0,0,0
1691757111655967,1500,1506,1261,1499,1000,0,0,0
1691757111659779,1500,1508,1259,1500,1000,0,0,0
1691757111663553,1497,1496,1262,1499,1000,0,0,0
1691757111666819,1497,1496,1259,1499,1000,0,0,0
1691757111670047,1497,1497,1259,1499,1000,0,0,0
1691757111675703,1497,1498,1259,1499,1000,0,0,0
1691757111677511,1497,1498,1258,1499,1000,0,0,0
1691757111685352,1499,1505,1259,1499,1000,0,0,0
1691757111685625,1498,1510,1261,1500,1000,0,0,0
1691757111688222,1497,1499,1259,1499,1000,0,0,0
1691757111693064,1497,1498,1258,1499,1000,0,0,0
1691757111697307,1497,1498,1259,1499,1000,0,0,0
1691757111699627,1497,1497,1257,1499,1000,0,0,0
1691757111705030,1500,1501,1257,1499,1000,0,0,0
1691757111706959,1497,1492,1261,1499,1000,0,0,0
1691757111709867,1497,1494,1260,1499,1000,0,0,0
1691757111715581,1497,1495,1259,1499,1000,0,0,0
1691757111718795,1497,1496,1259,1499,1000,0,0,0
1691757111721595,1497,1497,1258,1499,1000,0,0,0
1691757111724380,1499,1502,1258,1499,1000,0,0,0
1691757111728214,1499,1506,1259,1500,1000,0,0,0
1691757111731893,1498,1496,1259,1499,1000,0,0,0
1691757111737148,1497,1496,1258,1499,1000,0,0,0
1691757111740006,1497,1496,1258,1499,1000,0,0,0
1691757111742385,1498,1495,1259,1499,1000,0,0,0
1691757111746273,1498,1495,1259,1499,1000,0,0,0
1691757111751873,1499,1499,1258,1499,1000,0,0,0
1691757111753640,1500,1500,1257,1499,1000,0,0,0
1691757111760205,1498,1490,1260,1499,1000,0,0,0
1691757111762024,1498,1493,1259,1499,1000,0,0,0
1691757111764522,1498,1494,1258,1499,1000,0,0,0
1691757111769626,1498,1495,1258,1499,1000,0,0,0
1691757111771796,1498,1495,1258,1499,1000,0,0,0
1691757111776567,1500,1501,1259,1499,1000,0,0,0
1691757111781642,1501,1502,1257,1499,1000,0,0,0
1691757111783057,1499,1492,1260,1499,1000,0,0,0
1691757111786705,1498,1493,1258,1499,1000,0,0,0
1691757111791844,1498,1495,1258,1499,1000,0,0,0
1691757111794442,1499,1496,1258,1499,1000,0,0,0
1691757111797289,1499,1496,1258,1499,1000,0,0,0
1691757111805517,1498,1496,1256,1499,1000,0,0,0
1691757111805672,1502,1502,1258,1499,1000,0,0,0
1691757111809047,1500,1493,1260,1499,1000,0,0,0
1691757111813513,1499,1495,1259,1499,1000,0,0,0
1691757111815514,1499,1495,1258,1499,1000,0,0,0
1691757111819621,1500,1495,1259,1499,1000,0,0,0
1691757111824859,1499,1495,1258,1499,1000,0,0,0
1691757111826764,1499,1496,1256,1499,1000,0,0,0
1691757111832651,1503,1503,1257,1499,1000,0,0,0
1691757111836935,1501,1496,1258,1499,1000,0,0,0
1691757111837690,1500,1496,1257,1499,1000,0,0,0
1691757111842016,1500,1497,1257,1499,1000,0,0,0
1691757111845063,1500,1498,1257,1499,1000,0,0,0
1691757111848911,1501,1497,1257,1499,1000,0,0,0
1691757111851602,1503,1501,1256,1499,1000,0,0,0
1691757111857503,1504,1502,1256,1499,1000,0,0,0
1691757111860300,1501,1498,1257,1499,1000,0,0,0
1691757111863632,1501,1494,1258,1499,1000,0,0,0
1691757111867784,1501,1496,1257,1499,1000,0,0,0
1691757111870865,1501,1497,1257,1499,1000,0,0,0
1691757111874090,1501,1496,1257,1499,1000,0,0,0
1691757111878201,1500,1497,1256,1499,1000,0,0,0
1691757111882819,1503,1501,1255,1499,1000,0,0,0
1691757111884389,1502,1492,1257,1499,1000,0,0,0
1691757111890334,1501,1495,1257,1499,1000,0,0,0
1691757111893816,1501,1497,1256,1499,1000,0,0,0
1691757111895935,1501,1498,1256,1499,1000,0,0,0
1691757111902347,1501,1499,1256,1499,1000,0,0,0
1691757111903762,1503,1503,1255,1500,1000,0,0,0
1691757111906300,1504,1505,1255,1500,1000,0,0,0
1691757111911609,1503,1505,1255,1500,1000,0,0,0
1691757111913760,1501,1499,1256,1499,1000,0,0,0
1691757111917527,1501,1498,1255,1499,1000,0,0,0
1691757111923027,1502,1497,1256,1499,1000,0,0,0
1691757111924483,1503,1497,1256,1499,1000,0,0,0
1691757111928449,1502,1498,1255,1499,1000,0,0,0
1691757111933262,1502,1499,1255,1499,1000,0,0,0
1691757111935698,1506,1503,1254,1500,1000,0,0,0
1691757111940082,1503,1496,1255,1499,1000,0,0,0
1691757111942884,1501,1498,1255,1499,1000,0,0,0
1691757111947344,1501,1499,1255,1499,1000,0,0,0
1691757111950816,1501,1500,1255,1500,1000,0,0,0
1691757111955328,1501,1501,1255,1500,1000,0,0,0
1691757111958221,1505,1506,1255,1500,1000,0,0,0
1691757111963855,1506,1506,1255,1500,1000,0,0,0
1691757111964937,1506,1506,1254,1500,1000,0,0,0
1691757111968838,1503,1495,1255,1499,1000,0,0,0
1691757111972845,1502,1496,1255,1499,1000,0,0,0
1691757111977700,1501,1498,1255,1500,1000,0,0,0
1691757111981601,1500,1499,1255,1500,1000,0,0,0
1691757111983284,1501,1500,1255,1500,1000,0,0,0
1691757111993019,1501,1500,1255,1500,1000,0,0,0
1691757111993284,1500,1501,1255,1500,1000,0,0,0
1691757111993571,1505,1506,1255,1500,1000,0,0,0
1691757111997221,1507,1508,1254,1500,1000,0,0,0
1691757112005257,1502,1501,1255,1500,1000,0,0,0
1691757112005708,1500,1501,1255,1500,1000,0,0,0
1691757112013374,1501,1500,1255,1500,1000,0,0,0
1691757112013695,1501,1500,1255,1500,1000,0,0,0
1691757112015247,1500,1501,1255,1500,1000,0,0,0
1691757112019013,1501,1501,1256,1500,1000,0,0,0
1691757112022947,1501,1501,1256,1500,1000,0,0,0
1691757112026924,1501,1501,1256,1500,1000,0,0,0
1691757112031107,1504,1506,1256,1500,1000,0,0,0
1691757112034010,1506,1508,1255,1500,1000,0,0,0
1691757112037596,1502,1500,1256,1500,1000,0,0,0
1691757112040982,1500,1500,1256,1500,1000,0,0,0
1691757112045336,1500,1500,1256,1500,1000,0,0,0
1691757112049746,1500,1501,1256,1500,1000,0,0,0
1691757112051476,1500,1501,1256,1500,1000,0,0,0
1691757112056687,1500,1501,1256,1500,1000,0,0,0
1691757112060839,1500,1501,1256,1500,1000,0,0,0
1691757112062633,1500,1503,1256,1500,1000,0,0,0
1691757112066149,1502,1510,1257,1500,1000,0,0,0
1691757112070086,1500,1502,1257,1500,1000,0,0,0
1691757112074431,1499,1501,1257,1500,1000,0,0,0
1691757112078054,1499,1501,1257,1500,1000,0,0,0
1691757112081786,1500,1501,1257,1500,1000,0,0,0
1691757112085025,1499,1501,1257,1500,1000,0,0,0
1691757112089822,1502,1506,1257,1500,1000,0,0,0
1691757112093630,1503,1506,1257,1500,1000,0,0,0
1691757112096087,1503,1506,1256,1500,1000,0,0,0
1691757112101925,1499,1499,1257,1500,1000,0,0,0
1691757112102603,1498,1499,1257,1500,1000,0,0,0
1691757112108320,1498,1500,1257,1500,1000,0,0,0
1691757112111036,1498,1501,1257,1500,1000,0,0,0
1691757112113969,1497,1501,1257,1500,1000,0,0,0
1691757112118187,1500,1505,1257,1500,1000,0,0,0
1691757112121749,1501,1507,1257,1500,1000,0,0,0
1691757112124658,1497,1499,1258,1500,1000,0,0,0
1691757112128378,1497,1499,1257,1500,1000,0,0,0
1691757112135914,1497,1499,1257,1500,1000,0,0,0
1691757112136223,1497,1499,1257,1500,1000,0,0,0
1691757112138998,1497,1498,1257,1500,1000,0,0,0
1691757112143040,1497,1498,1257,1500,1000,0,0,0
1691757112147202,1497,1500,1257,1500,1000,0,0,0
1691757112151156,1499,1506,1257,1500,1000,0,0,0
1691757112155512,1497,1498,1258,1500,1000,0,0,0
1691757112157588,1496,1499,1258,1500,1000,0,0,0
1691757112161808,1496,1499,1257,1500,1000,0,0,0
1691757112165647,1496,1499,1257,1500,1000,0,0,0
1691757112172510,1498,1503,1258,1500,1000,0,0,0
1691757112172890,1498,1504,1257,1500,1000,0,0,0
1691757112176662,1499,1504,1257,1500,1000,0,0,0
1691757112179191,1497,1495,1258,1500,1000,0,0,0
1691757112183019,1496,1496,1258,1500,1000,0,0,0
1691757112187570,1495,1497,1258,1500,1000,0,0,0
1691757112189842,1496,1497,1258,1500,1000,0,0,0
1691757112195026,1496,1498,1258,1500,1000,0,0,0
1691757112198475,1496,1498,1257,1500,1000,0,0,0
1691757112201190,1498,1502,1257,1500,1000,0,0,0
1691757112204611,1496,1495,1259,1500,1000,0,0,0
1691757112209568,1496,1496,1258,1500,1000,0,0,0
1691757112212155,1495,1498,1257,1500,1000,0,0,0
1691757112216407,1496,1498,1257,1500,1000,0,0,0
1691757112220665,1496,1498,1257,1500,1000,0,0,0
1691757112222549,1496,1498,1257,1500,1000,0,0,0
1691757112226380,1497,1502,1257,1500,1000,0,0,0
1691757112230615,1499,1504,1256,1500,1000,0,0,0
1691757112234566,1496,1496,1258,1500,1000,0,0,0
1691757112239053,1496,1497,1257,1500,1000,0,0,0
1691757112240989,1496,1497,1257,1500,1000,0,0,0
1691757112244396,1496,1498,1257,1500,1000,0,0,0
1691757112248387,1496,1498,1257,1500,1000,0,0,0
1691757112252977,1496,1498,1257,1500,1000,0,0,0
1691757112256298,1498,1501,1257,1500,1000,0,0,0
1691757112260201,1499,1502,1257,1500,1000,0,0,0
1691757112264139,1497,1494,1258,1499,1000,0,0,0
1691757112266324,1497,1496,1257,1499,1000,0,0,0
1691757112271120,1496,1497,1257,1500,1000,0,0,0
1691757112274303,1496,1498,1257,1500,1000,0,0,0
1691757112279826,1496,1498,1256,1499,1000,0,0,0
1691757112281820,1496,1498,1256,1500,1000,0,0,0
1691757112286829,1497,1498,1256,1499,1000,0,0,0
1691757112288301,1500,1502,1256,1500,1000,0,0,0
1691757112292288,1498,1494,1258,1499,1000,0,0,0
1691757112297901,1498,1496,1257,1499,1000,0,0,0
1691757112299047,1498,1497,1257,1499,1000,0,0,0
1691757112310695,1498,1497,1257,1499,1000,0,0,0
1691757112310986,1498,1498,1256,1499,1000,0,0,0
1691757112311181,1498,1498,1256,1499,1000,0,0,0
1691757112315540,1498,1498,1256,1499,1000,0,0,0
1691757112317105,1502,1503,1255,1500,1000,0,0,0
1691757112321089,1499,1497,1257,1499,1000,0,0,0
1691757112326913,1498,1498,1256,1499,1000,0,0,0
1691757112328247,1498,1498,1256,1499,1000,0,0,0
1691757112332141,1498,1499,1256,1499,1000,0,0,0
1691757112337784,1499,1498,1256,1499,1000,0,0,0
1691757112344006,1500,1501,1255,1500,1000,0,0,0
1691757112344338,1502,1502,1255,1500,1000,0,0,0
1691757112347547,1501,1503,1256,1500,1000,0,0,0
1691757112350097,1500,1497,1256,1500,1000,0,0,0
1691757112353882,1499,1498,1256,1500,1000,0,0,0
1691757112358715,1500,1498,1256,1500,1000,0,0,0
1691757112362260,1500,1498,1256,1500,1000,0,0,0
1691757112365368,1499,1499,1256,1500,1000,0,0,0
1691757112369123,1500,1498,1255,1500,1000,0,0,0
1691757112372484,1503,1502,1255,1500,1000,0,0,0
1691757112375492,1500,1496,1256,1500,1000,0,0,0
1691757112379634,1500,1497,1256,1500,1000,0,0,0
1691757112383505,1501,1498,1256,1500,1000,0,0,0
1691757112387601,1500,1498,1256,1500,1000,0,0,0
1691757112389986,1500,1499,1256,1500,1000,0,0,0
1691757112396471,1501,1499,1256,1500,1000,0,0,0
1691757112398057,1504,1503,1255,1500,1000,0,0,0
1691757112401258,1505,1504,1254,1500,1000,0,0,0
1691757112405536,1502,1497,1255,1500,1000,0,0,0
1691757112408113,1502,1496,1256,1500,1000,0,0,0
1691757112412442,1501,1498,1255,1500,1000,0,0,0
1691757112416221,1501,1499,1256,1500,1000,0,0,0
1691757112419063,1502,1499,1256,1500,1000,0,0,0
1691757112422680,1502,1499,1256,1500,1000,0,0,0
1691757112427004,1501,1500,1256,1500,1000,0,0,0
1691757112435518,1505,1505,1255,1500,1000,0,0,0
1691757112435937,1507,1506,1254,1500,1000,0,0,0
1691757112438171,1503,1497,1255,1500,1000,0,0,0
1691757112440907,1501,1498,1255,1500,1000,0,0,0
1691757112444594,1501,1499,1255,1500,1000,0,0,0
1691757112448476,1501,1499,1256,1500,1000,0,0,0
1691757112453928,1501,1500,1256,1500,1000,0,0,0
1691757112456492,1501,1500,1256,1500,1000,0,0,0
1691757112459464,1504,1504,1256,1500,1000,0,0,0
1691757112462887,1505,1505,1255,1500,1000,0,0,0
1691757112466555,1502,1498,1256,1500,1000,0,0,0
1691757112470453,1502,1498,1256,1500,1000,0,0,0
1691757112478212,1501,1499,1256,1500,1000,0,0,0
1691757112478409,1501,1500,1256,1500,1000,0,0,0
1691757112481178,1502,1501,1256,1500,1000,0,0,0
1691757112489024,1505,1506,1255,1500,1000,0,0,0
1691757112491557,1502,1498,1256,1500,1000,0,0,0
1691757112495557,1501,1498,1256,1500,1000,0,0,0
1691757112500247,1500,1500,1256,1500,1000,0,0,0
1691757112505528,1500,1500,1256,1500,1000,0,0,0
1691757112507253,1501,1501,1255,1500,1000,0,0,0
1691757112509726,1501,1501,1256,1500,1000,0,0,0
1691757112513713,1504,1507,1255,1500,1000,0,0,0
1691757112520619,1506,1508,1255,1501,1000,0,0,0
1691757112521544,1502,1500,1256,1500,1000,0,0,0
1691757112525456,1500,1501,1256,1500,1000,0,0,0
1691757112530928,1500,1501,1256,1500,1000,0,0,0
1691757112531722,1501,1501,1256,1500,1000,0,0,0
1691757112535538,1500,1501,1256,1500,1000,0,0,0
1691757112541105,1500,1501,1255,1500,1000,0,0,0
1691757112543500,1504,1506,1255,1501,1000,0,0,0
1691757112547578,1501,1499,1257,1500,1000,0,0,0
1691757112554734,1499,1500,1256,1500,1000,0,0,0
1691757112554938,1499,1501,1256,1500,1000,0,0,0
1691757112558171,1500,1501,1256,1500,1000,0,0,0
1691757112561191,1499,1501,1256,1500,1000,0,0,0
1691757112564907,1499,1502,1256,1500,1000,0,0,0
1691757112568154,1505,1508,1255,1501,1000,0,0,0
1691757112573378,1501,1501,1256,1500,1000,0,0,0
1691757112575550,1499,1501,1256,1500,1000,0,0,0
1691757112579188,1499,1501,1257,1500,1000,0,0,0
1691757112584443,1500,1502,1257,1500,1000,0,0,0
1691757112588219,1499,1502,1256,1500,1000,0,0,0
1691757112590600,1499,1502,1256,1500,1000,0,0,0
1691757112596051,1504,1510,1256,1501,1000,0,0,0
1691757112597213,1500,1502,1256,1500,1000,0,0,0
1691757112601516,1498,1501,1256,1500,1000,0,0,0
1691757112606171,1498,1502,1257,1500,1000,0,0,0
1691757112609161,1498,1502,1257,1500,1000,0,0,0
1691757112612527,1502,1508,1257,1501,1000,0,0,0
1691757112617739,1503,1509,1256,1501,1000,0,0,0
1691757112619118,1499,1500,1257,1500,1000,0,0,0
1691757112622923,1498,1501,1257,1500,1000,0,0,0
1691757112626407,1497,1501,1256,1500,1000,0,0,0
1691757112630565,1498,1501,1257,1500,1000,0,0,0
1691757112634526,1498,1501,1257,1500,1000,0,0,0
1691757112638736,1501,1507,1257,1501,1000,0,0,0
1691757112644230,1501,1509,1256,1501,1000,0,0,0
1691757112644852,1498,1501,1257,1500,1000,0,0,0
1691757112650499,1497,1501,1256,1500,1000,0,0,0
1691757112652527,1497,1501,1256,1500,1000,0,0,0
1691757112656452,1497,1501,1256,1500,1000,0,0,0
1691757112659580,1500,1505,1257,1501,1000,0,0,0
1691757112662717,1501,1507,1256,1501,1000,0,0,0
1691757112667243,1497,1500,1257,1500,1000,0,0,0
1691757112671542,1497,1500,1256,1500,1000,0,0,0
1691757112674556,1497,1500,1256,1500,1000,0,0,0
1691757112677498,1497,1500,1256,1500,1000,0,0,0
1691757112682648,1497,1500,1256,1500,1000,0,0,0
1691757112684374,1500,1504,1256,1500,1000,0,0,0
1691757112688673,1501,1506,1256,1500,1000,0,0,0
1691757112693144,1498,1500,1257,1500,1000,0,0,0
1691757112695621,1497,1499,1256,1500,1000,0,0,0
1691757112700119,1497,1499,1256,1500,1000,0,0,0
1691757112705299,1497,1499,1256,1500,1000,0,0,0
1691757112706327,1496,1499,1256,1500,1000,0,0,0
1691757112710001,1500,1504,1256,1500,1000,0,0,0
1691757112719227,1497,1501,1256,1500,1000,0,0,0
1691757112719622,1496,1499,1256,1500,1000,0,0,0
1691757112721646,1496,1499,1256,1500,1000,0,0,0
1691757112727362,1497,1499,1256,1500,1000,0,0,0
1691757112728295,1496,1499,1256,1500,1000,0,0,0
1691757112733513,1499,1503,1256,1500,1000,0,0,0
1691757112735766,1501,1505,1256,1500,1000,0,0,0
1691757112739572,1498,1498,1257,1500,1000,0,0,0
1691757112745803,1497,1498,1257,1500,1000,0,0,0
1691757112747591,1497,1498,1257,1500,1000,0,0,0
1691757112749939,1497,1498,1257,1500,1000,0,0,0
1691757112753868,1497,1499,1257,1500,1000,0,0,0
1691757112757776,1499,1503,1257,1500,1000,0,0,0
1691757112763159,1501,1504,1256,1500,1000,0,0,0
1691757112765543,1498,1498,1257,1499,1000,0,0,0
1691757112768079,1497,1498,1257,1499,1000,0,0,0
1691757112775096,1497,1497,1257,1499,1000,0,0,0
1691757112775637,1497,1497,1257,1499,1000,0,0,0
1691757112783241,1499,1501,1257,1499,1000,0,0,0
1691757112785997,1500,1501,1256,1500,1000,0,0,0
1691757112786742,1498,1494,1258,1499,1000,0,0,0
1691757112790434,1497,1496,1257,1499,1000,0,0,0
1691757112793723,1497,1496,1257,1499,1000,0,0,0
1691757112797832,1497,1497,1257,1499,1000,0,0,0
1691757112801813,1499,1500,1257,1499,1000,0,0,0
1691757112805585,1499,1503,1258,1500,1000,0,0,0
1691757112808039,1498,1497,1258,1499,1000,0,0,0
1691757112812331,1498,1496,1257,1499,1000,0,0,0
1691757112815573,1498,1497,1257,1499,1000,0,0,0
1691757112825063,1498,1497,1257,1499,1000,0,0,0
1691757112825491,1499,1500,1257,1499,1000,0,0,0
1691757112828941,1501,1501,1256,1499,1000,0,0,0
1691757112832160,1499,1494,1257,1499,1000,0,0,0
1691757112835737,1498,1494,1257,1499,1000,0,0,0
1691757112837791,1499,1495,1257,1499,1000,0,0,0
1691757112841595,1499,1495,1257,1499,1000,0,0,0
1691757112844920,1499,1495,1257,1499,1000,0,0,0
1691757112850776,1500,1499,1257,1499,1000,0,0,0
1691757112852927,1500,1501,1257,1499,1000,0,0,0
1691757112863267,1499,1495,1257,1499,1000,0,0,0
1691757112863758,1499,1496,1257,1499,1000,0,0,0
1691757112866849,1499,1496,1256,1499,1000,0,0,0
1691757112870138,1500,1499,1256,1499,1000,0,0,0
1691757112875335,1501,1501,1256,1499,1000,0,0,0
1691757112877283,1499,1498,1256,1499,1000,0,0,0
1691757112885344,1499,1495,1256,1499,1000,0,0,0
1691757112885620,1500,1495,1256,1499,1000,0,0,0
1691757112888297,1499,1496,1256,1499,1000,0,0,0
1691757112894046,1500,1496,1256,1499,1000,0,0,0
1691757112897806,1500,1497,1256,1499,1000,0,0,0
1691757112899081,1502,1500,1256,1499,1000,0,0,0
1691757112905981,1501,1492,1257,1499,1000,0,0,0
1691757112907352,1501,1494,1257,1499,1000,0,0,0
1691757112909999,1501,1495,1257,1499,1000,0,0,0
1691757112913769,1501,1496,1256,1499,1000,0,0,0
1691757112917379,1501,1496,1256,1499,1000,0,0,0
1691757112921365,1503,1500,1256,1499,1000,0,0,0
1691757112924801,1504,1501,1256,1499,1000,0,0,0
1691757112928296,1501,1495,1257,1499,1000,0,0,0
1691757112931877,1501,1496,1256,1499,1000,0,0,0
1691757112935511,1500,1497,1256,1499,1000,0,0,0
1691757112940778,1501,1497,1256,1499,1000,0,0,0
1691757112942802,1501,1498,1256,1499,1000,0,0,0
1691757112947869,1501,1498,1256,1499,1000,0,0,0
1691757112952744,1504,1502,1256,1499,1000,0,0,0
1691757112954094,1502,1495,1257,1499,1000,0,0,0
1691757112958365,1502,1496,1257,1499,1000,0,0,0
1691757112962746,1501,1497,1257,1499,1000,0,0,0
1691757112964506,1501,1497,1257,1499,1000,0,0,0
1691757112968384,1501,1498,1256,1499,1000,0,0,0
1691757112971832,1502,1498,1256,1499,1000,0,0,0
1691757112976740,1505,1503,1256,1499,1000,0,0,0
1691757112982138,1502,1497,1257,1499,1000,0,0,0
1691757112982962,1501,1498,1257,1499,1000,0,0,0
1691757112987430,1501,1498,1257,1499,1000,0,0,0
1691757112994049,1502,1498,1256,1499,1000,0,0,0
1691757112996906,1502,1498,1256,1499,1000,0,0,0
1691757112998419,1505,1502,1257,1499,1000,0,0,0
1691757113005549,1502,1497,1257,1499,1000,0,0,0
1691757113008363,1501,1498,1257,1499,1000,0,0,0
1691757113013916,1501,1498,1257,1499,1000,0,0,0
1691757113016256,1501,1499,1257,1499,1000,0,0,0
1691757113023953,1501,1499,1257,1499,1000,0,0,0
1691757113024212,1504,1504,1257,1500,1000,0,0,0
1691757113027021,1505,1505,1256,1500,1000,0,0,0
1691757113031634,1502,1498,1256,1499,1000,0,0,0
1691757113037968,1501,1499,1256,1499,1000,0,0,0
1691757113041337,1501,1499,1256,1499,1000,0,0,0
1691757113048018,1503,1503,1257,1500,1000,0,0,0
1691757113049851,1504,1505,1256,1500,1000,0,0,0
1691757113053362,1504,1505,1255,1500,1000,0,0,0
1691757113055619,1502,1497,1257,1499,1000,0,0,0
1691757113059629,1501,1499,1257,1500,1000,0,0,0
1691757113063199,1501,1499,1257,1500,1000,0,0,0
1691757113067097,1501,1499,1258,1500,1000,0,0,0
1691757113071366,1501,1499,1257,1500,1000,0,0,0
1691757113073630,1503,1504,1257,1500,1000,0,0,0
1691757113077375,1503,1505,1256,1500,1000,0,0,0
1691757113081124,1501,1498,1257,1500,1000,0,0,0
1691757113085059,1500,1499,1257,1500,1000,0,0,0
1691757113094567,1500,1500,1257,1500,1000,0,0,0
1691757113094783,1500,1500,1257,1500,1000,0,0,0
1691757113096348,1502,1504,1257,1500,1000,0,0,0
1691757113099656,1503,1505,1256,1500,1000,0,0,0
1691757113103614,1501,1506,1257,1500,1000,0,0,0
1691757113107109,1500,1501,1257,1500,1000,0,0,0
1691757113113085,1499,1500,1257,1500,1000,0,0,0
1691757113113537,1499,1501,1257,1500,1000,0,0,0
1691757113117826,1500,1501,1257,1500,1000,0,0,0
1691757113121134,1499,1501,1257,1500,1000,0,0,0
1691757113125074,1500,1501,1257,1500,1000,0,0,0
1691757113129636,1501,1506,1257,1500,1000,0,0,0
1691757113134373,1500,1500,1258,1500,1000,0,0,0
1691757113135515,1499,1501,1257,1500,1000,0,0,0
1691757113139179,1499,1501,1257,1500,1000,0,0,0
1691757113145599,1499,1501,1257,1500,1000,0,0,0
1691757113146955,1500,1501,1256,1500,1000,0,0,0
1691757113150827,1504,1507,1255,1500,1000,0,0,0
1691757113158732,1500,1500,1257,1500,1000,0,0,0
1691757113158940,1499,1500,1257,1500,1000,0,0,0
1691757113162217,1499,1500,1257,1500,1000,0,0,0
1691757113165143,1499,1501,1257,1500,1000,0,0,0
1691757113169047,1499,1501,1257,1500,1000,0,0,0
1691757113172141,1502,1506,1257,1500,1000,0,0,0
1691757113176308,1500,1499,1258,1500,1000,0,0,0
1691757113179601,1498,1500,1257,1500,1000,0,0,0
1691757113183212,1498,1501,1257,1500,1000,0,0,0
1691757113187233,1498,1501,1257,1500,1000,0,0,0
1691757113191609,1498,1501,1257,1500,1000,0,0,0
1691757113194520,1502,1507,1256,1500,1000,0,0,0
1691757113197681,1499,1501,1257,1500,1000,0,0,0
1691757113202105,1498,1501,1257,1500,1000,0,0,0
1691757113207213,1498,1502,1257,1500,1000,0,0,0
1691757113208154,1498,1501,1257,1500,1000,0,0,0
1691757113214787,1498,1501,1256,1500,1000,0,0,0
1691757113215989,1502,1508,1256,1501,1000,0,0,0
1691757113219161,1502,1509,1256,1501,1000,0,0,0
1691757113223986,1499,1502,1257,1500,1000,0,0,0
1691757113226312,1498,1501,1257,1500,1000,0,0,0
1691757113230692,1497,1501,1257,1500,1000,0,0,0
1691757113234188,1497,1501,1257,1500,1000,0,0,0
1691757113237371,1498,1501,1257,1500,1000,0,0,0
1691757113241218,1500,1506,1256,1500,1000,0,0,0
1691757113245620,1501,1507,1256,1501,1000,0,0,0
1691757113248253,1498,1500,1257,1500,1000,0,0,0
1691757113252100,1498,1500,1257,1500,1000,0,0,0
1691757113258359,1497,1500,1256,1500,1000,0,0,0
1691757113259068,1497,1500,1257,1500,1000,0,0,0
1691757113263303,1499,1504,1257,1500,1000,0,0,0
1691757113267256,1501,1506,1256,1500,1000,0,0,0
1691757113269974,1498,1499,1257,1500,1000,0,0,0
1691757113274538,1497,1499,1257,1500,1000,0,0,0
1691757113278262,1497,1499,1257,1500,1000,0,0,0
1691757113281157,1497,1499,1257,1500,1000,0,0,0
1691757113285319,1497,1500,1257,1500,1000,0,0,0
1691757113288281,1500,1503,1257,1500,1000,0,0,0
1691757113292246,1498,1497,1259,1500,1000,0,0,0
1691757113296378,1497,1498,1258,1500,1000,0,0,0
1691757113300062,1497,1498,1257,1500,1000,0,0,0
1691757113303608,1497,1499,1257,1500,1000,0,0,0
1691757113306824,1497,1499,1257,1500,1000,0,0,0
1691757113310715,1499,1504,1257,1500,1000,0,0,0
1691757113314516,1498,1497,1258,1500,1000,0,0,0
1691757113318118,1497,1498,1257,1500,1000,0,0,0
1691757113322045,1497,1499,1258,1500,1000,0,0,0
1691757113324514,1497,1498,1257,1500,1000,0,0,0
1691757113331167,1497,1498,1257,1500,1000,0,0,0
1691757113332317,1500,1503,1257,1500,1000,0,0,0
1691757113336174,1498,1497,1258,1500,1000,0,0,0
1691757113340130,1498,1497,1258,1500,1000,0,0,0
1691757113342227,1498,1497,1258,1500,1000,0,0,0
1691757113346524,1497,1498,1258,1500,1000,0,0,0
1691757113350164,1497,1498,1258,1500,1000,0,0,0
1691757113354268,1499,1501,1258,1500,1000,0,0,0
1691757113359574,1497,1495,1259,1500,1000,0,0,0
1691757113360841,1497,1497,1257,1500,1000,0,0,0
1691757113364669,1497,1498,1257,1500,1000,0,0,0
1691757113368034,1497,1498,1257,1500,1000,0,0,0
1691757113372202,1497,1498,1257,1500,1000,0,0,0
1691757113376601,1499,1502,1257,1500,1000,0,0,0
1691757113379658,1497,1499,1257,1500,1000,0,0,0
1691757113382782,1497,1498,1257,1500,1000,0,0,0
1691757113386204,1497,1498,1257,1499,1000,0,0,0
1691757113390047,1497,1498,1257,1499,1000,0,0,0
1691757113393604,1497,1498,1257,1499,1000,0,0,0
1691757113397312,1499,1502,1257,1500,1000,0,0,0
1691757113401104,1497,1495,1258,1499,1000,0,0,0
1691757113405288,1497,1496,1257,1499,1000,0,0,0
1691757113408951,1497,1497,1257,1499,1000,0,0,0
1691757113412165,1497,1498,1257,1499,1000,0,0,0
1691757113415608,1497,1498,1257,1499,1000,0,0,0
1691757113419174,1499,1501,1256,1499,1000,0,0,0
1691757113423707,1498,1496,1257,1499,1000,0,0,0
1691757113427273,1497,1497,1256,1499,1000,0,0,0
1691757113429969,1497,1498,1257,1499,1000,0,0,0
1691757113433710,1498,1497,1257,1499,1000,0,0,0
1691757113437254,1498,1498,1257,1499,1000,0,0,0
1691757113441223,1499,1501,1256,1499,1000,0,0,0
1691757113445295,1498,1495,1257,1499,1000,0,0,0
1691757113449131,1498,1496,1257,1499,1000,0,0,0
1691757113451667,1498,1497,1256,1499,1000,0,0,0
1691757113455564,1498,1497,1257,1499,1000,0,0,0
1691757113459579,1498,1497,1256,1499,1000,0,0,0
1691757113463453,1499,1497,1256,1499,1000,0,0,0
1691757113469014,1498,1494,1256,1499,1000,0,0,0
1691757113469769,1498,1496,1256,1499,1000,0,0,0
1691757113473664,1499,1497,1256,1499,1000,0,0,0
1691757113479564,1498,1498,1256,1499,1000,0,0,0
1691757113481268,1498,1498,1256,1499,1000,0,0,0
1691757113485302,1501,1502,1255,1499,1000,0,0,0
1691757113495367,1499,1496,1256,1499,1000,0,0,0
1691757113495819,1499,1497,1256,1499,1000,0,0,0
1691757113496072,1499,1498,1256,1499,1000,0,0,0
1691757113499789,1499,1498,1256,1499,1000,0,0,0
1691757113502693,1499,1498,1256,1499,1000,0,0,0
1691757113506335,1499,1499,1256,1499,1000,0,0,0
1691757113510598,1502,1502,1255,1499,1000,0,0,0
1691757113514326,1500,1496,1256,1499,1000,0,0,0
1691757113516989,1499,1498,1256,1499,1000,0,0,0
1691757113521971,1499,1498,1256,1499,1000,0,0,0
1691757113524397,1499,1499,1256,1499,1000,0,0,0
1691757113528122,1499,1499,1256,1499,1000,0,0,0
1691757113531825,1502,1505,1254,1499,1000,0,0,0
1691757113537343,1500,1498,1255,1499,1000,0,0,0
1691757113540177,1500,1499,1256,1499,1000,0,0,0
1691757113543169,1500,1499,1256,1499,1000,0,0,0
1691757113548186,1500,1499,1256,1499,1000,0,0,0
1691757113549898,1500,1499,1256,1499,1000,0,0,0
1691757113553658,1501,1499,1255,1499,1000,0,0,0
1691757113559221,1503,1504,1254,1499,1000,0,0,0
1691757113561575,1501,1497,1256,1499,1000,0,0,0
1691757113566817,1500,1498,1256,1499,1000,0,0,0
1691757113567967,1500,1499,1256,1499,1000,0,0,0
1691757113571911,1500,1499,1256,1499,1000,0,0,0
1691757113578743,1500,1499,1255,1499,1000,0,0,0
1691757113579605,1503,1503,1254,1499,1000,0,0,0
1691757113583523,1500,1498,1256,1499,1000,0,0,0
1691757113586435,1500,1499,1256,1499,1000,0,0,0
1691757113590590,1500,1499,1256,1499,1000,0,0,0
1691757113593603,1500,1499,1256,1499,1000,0,0,0
1691757113597582,1500,1499,1256,1499,1000,0,0,0
1691757113601577,1501,1499,1256,1499,1000,0,0,0
1691757113607155,1504,1504,1255,1499,1000,0,0,0
1691757113607921,1501,1498,1256,1499,1000,0,0,0
1691757113611874,1500,1499,1257,1499,1000,0,0,0
1691757113615571,1500,1499,1257,1499,1000,0,0,0
1691757113619660,1500,1499,1256,1499,1000,0,0,0
1691757113622794,1500,1499,1256,1499,1000,0,0,0
1691757113629858,1503,1503,1256,1499,1000,0,0,0
1691757113630362,1501,1497,1257,1499,1000,0,0,0
1691757113634392,1500,1499,1257,1499,1000,0,0,0
