timestamp,roll,pitch,yaw,norm_thrust
1691757109050462,0.00000000,0.00000000,0.00000000,0.00000000
1691757109065004,-0.01667028,-0.38885477,-0.04152713,11.31651115
1691757109066113,-0.00408267,-0.36294648,-0.04087550,11.26284790
1691757109070503,-0.00744072,-0.34594187,-0.04168591,11.26061630
1691757109074619,-0.01502313,-0.38994053,-0.04097307,11.36671829
1691757109078301,-0.01184586,-0.36783302,-0.04108074,11.33162022
1691757109081070,-0.01241551,-0.36755785,-0.04055821,11.36522198
1691757109085285,-0.01859603,-0.38733521,-0.03997246,11.37949944
1691757109088968,-0.01147593,-0.37080535,-0.03941863,11.37235928
1691757109091561,-0.00474239,-0.33687767,-0.04004966,11.39181995
1691757109095684,-0.02252364,-0.39678437,-0.03954991,11.46448803
1691757109104005,-0.00257397,-0.33245295,-0.03982187,11.43235683
1691757109104138,-0.00407431,-0.32473645,-0.04037039,11.42990875
1691757109107162,-0.00512227,-0.32565507,-0.04081208,11.42981339
1691757109109757,-0.00586937,-0.32419652,-0.04125931,11.42502213
1691757109113897,-0.02003119,-0.38253254,-0.03999779,11.54122543
1691757109117179,-0.00627661,-0.33810499,-0.04030984,11.48158932
1691757109121170,-0.00347105,-0.30946064,-0.04147204,11.49750328
1691757109125337,-0.00793135,-0.34292763,-0.04000497,11.53732872
1691757109130070,-0.01304913,-0.36049870,-0.03692648,11.56622505
1691757109131739,-0.01237199,-0.30295196,-0.03749541,11.53826427
1691757109135433,0.00137925,-0.28970638,-0.03817945,11.51580048
1691757109140205,-0.00135398,-0.30473948,-0.03491510,11.56639576
1691757109142523,-0.00979052,-0.25281730,-0.03599258,11.53097153
1691757109146403,-0.01019944,-0.28307694,-0.03210879,11.59209442
1691757109150688,0.01976208,-0.20315282,-0.03329748,11.36231995
1691757109153400,0.00520053,-0.26607221,-0.03014118,11.50066662
1691757109157083,-0.01516607,-0.26549122,-0.02811166,11.33570480
1691757109163280,0.01180631,-0.20320541,-0.02814173,11.09490967
1691757109164284,0.01872651,-0.25135624,-0.02442204,11.17280674
1691757109168039,-0.00990006,-0.28565246,-0.02188800,10.98266792
1691757109173616,0.02210121,-0.14967234,-0.02234819,10.64838314
1691757109175172,0.05091358,-0.04281886,-0.02449656,10.43334389
1691757109179424,-0.00281071,-0.26041183,-0.02039937,10.74453068
1691757109183233,-0.00523682,-0.34066322,-0.01710250,10.76067734
1691757109189952,0.05356572,-0.00417617,-0.02176735,10.10017395
1691757109193524,-0.01676670,-0.29840171,-0.01827484,10.39595795
1691757109197880,-0.01570052,-0.27101818,-0.01595411,10.49669266
1691757109202979,0.07331243,-0.04523903,-0.01719582,9.96788883
1691757109207569,0.06036627,0.03136896,-0.01899393,9.84271812
1691757109208052,0.01544666,-0.07265361,-0.01935666,9.69924164
1691757109213474,0.00552829,-0.22302505,-0.01583608,10.35926151
1691757109215888,0.03996221,-0.24196035,-0.01217358,10.24165154
1691757109220420,0.03406575,-0.15746571,-0.01110264,10.04644585
1691757109225023,0.05050915,-0.16064279,-0.00906680,9.92976570
1691757109232538,0.05310639,-0.11011713,-0.00829971,9.90781879
1691757109232743,0.04247039,-0.09052303,-0.00714927,9.95303822
1691757109237525,0.03668297,0.13695154,-0.00946760,9.48769093
1691757109237974,0.06194903,0.05800613,-0.01036184,9.26429749
1691757109241370,0.09736831,0.08476888,-0.01329202,9.45698071
1691757109246099,0.08201183,0.12352686,-0.01539264,9.66046143
1691757109249972,0.09563686,0.12900674,-0.01769992,9.62238789
1691757109252041,0.10190867,0.13091400,-0.02046125,9.70517540
1691757109255530,0.07968319,0.08494692,-0.02155413,9.78785133
1691757109261812,0.04742922,0.01753736,-0.02204040,9.86212254
1691757109263727,-0.00822941,-0.23528729,-0.01784597,10.27607727
1691757109267020,-0.07409802,-0.29456937,-0.01667143,10.17020702
1691757109272176,-0.03398502,-0.19316269,-0.01395152,10.34396267
1691757109276365,-0.01082155,-0.13346866,-0.01245643,10.11104393
1691757109277370,-0.00153883,-0.09590704,-0.01099584,9.91916656
1691757109281728,0.03637950,-0.10677346,-0.00908510,9.49268532
1691757109285101,0.16913779,0.48315814,-0.02291616,8.79735470
1691757109288072,0.04752911,0.15026377,-0.01372504,9.91151619
1691757109291711,0.00298312,-0.07265796,-0.00969535,10.34029007
1691757109297986,-0.02159339,-0.10277872,-0.00849672,10.23301506
1691757109300504,0.01400191,-0.11237433,-0.00675550,9.68899632
1691757109304967,-0.00332534,-0.07638592,-0.00590266,9.81705093
1691757109306124,-0.01104794,0.00697752,-0.00580158,10.22156429
1691757109310294,0.10719482,0.29602316,-0.01199385,9.54579449
1691757109314456,0.07062126,0.25389993,-0.01079551,9.67109680
1691757109317047,0.05624111,0.21076180,-0.01050078,9.79581833
1691757109323950,0.05171390,0.15931611,-0.01025350,10.01823902
1691757109324654,-0.00359535,0.06329763,-0.00874533,9.81453991
1691757109328558,0.04278428,0.09638773,-0.01050669,9.65269470
1691757109335858,0.04410631,0.08350381,-0.01122606,9.82352638
1691757109336155,-0.00371549,0.07717285,-0.01098987,10.23687267
1691757109338979,0.03906353,0.09498596,-0.01187680,9.98644066
1691757109343520,0.04152978,0.09125921,-0.01205199,9.96234512
1691757109348961,0.04213576,0.08084822,-0.01187340,9.92654800
1691757109350049,0.02000489,0.06974360,-0.01179815,9.92053032
1691757109353683,0.02099176,0.07088370,-0.01216955,9.94900513
1691757109359173,0.01200129,0.05605280,-0.01197254,9.88143730
1691757109361842,-0.01614633,0.05385565,-0.01200428,10.06297016
1691757109368810,0.01810154,0.08162704,-0.01285196,9.97375298
1691757109368963,0.00052815,0.04097269,-0.01234123,9.70239353
1691757109373804,0.02528981,0.15310425,-0.01459201,9.79137039
1691757109377561,0.03614298,0.15964691,-0.01539288,9.90408802
1691757109378949,0.03211172,0.19951740,-0.01643011,9.86473083
1691757109385110,-0.04372138,-0.04382523,-0.01195850,10.45096016
1691757109387008,-0.01442935,0.00762363,-0.01271390,10.28083229
1691757109390475,0.00359609,0.05663544,-0.01337747,10.06144905
1691757109395839,0.00834575,0.03176598,-0.01309231,9.99647617
1691757109397138,-0.00035601,0.04217403,-0.01357887,10.08295918
1691757109401303,-0.00221766,0.03197159,-0.01331898,10.12547970
1691757109406594,-0.00580493,0.02108011,-0.01305029,10.03420544
1691757109408389,-0.00168214,0.00926387,-0.01294256,10.01275158
1691757109412998,0.00643211,0.01643521,-0.01288730,10.04208088
1691757109415965,-0.04599259,-0.00157881,-0.01232103,10.16198063
1691757109425736,-0.00090891,0.06411058,-0.01347206,9.79662514
1691757109426272,0.01286365,0.12440323,-0.01482186,9.81609344
1691757109426585,0.03779133,0.20190965,-0.01708148,9.90722752
1691757109430152,-0.04919958,-0.06309531,-0.01137067,10.35227585
1691757109433432,-0.02489439,-0.02443948,-0.01135767,10.17903233
1691757109437434,-0.02289457,-0.00475664,-0.01131988,10.03430939
1691757109441486,-0.02998800,0.01712624,-0.01119043,10.05480003
1691757109445342,-0.01213289,0.01682064,-0.01097504,10.03686237
1691757109448059,-0.01960833,0.02889432,-0.01080388,10.02494335
1691757109451882,-0.04355232,0.02024792,-0.01014330,10.08023071
1691757109457252,-0.05421833,-0.04595808,-0.00898773,10.15429878
1691757109460209,-0.01615279,0.01547827,-0.00982691,9.82967472
1691757109463614,0.01826128,0.12026420,-0.01195554,9.68678856
1691757109466273,-0.04988013,-0.11456825,-0.00742123,10.37242031
1691757109469860,-0.01372015,-0.04947333,-0.00800814,10.17982674
1691757109474679,-0.02395043,0.01281560,-0.00891939,10.15098476
1691757109477462,-0.01955893,0.02808249,-0.00904935,10.04675579
1691757109482109,-0.02066851,0.02022056,-0.00885837,10.15128136
1691757109485376,-0.01915948,0.00552180,-0.00841436,10.16411495
1691757109489183,-0.07062279,-0.04295435,-0.00730869,10.21892262
1691757109492646,-0.01328165,0.01773765,-0.00809892,9.78629684
1691757109495370,0.00973491,0.08620016,-0.00947847,9.88784981
1691757109499190,0.04237437,0.16316336,-0.01144323,9.88750267
1691757109502583,-0.06129306,-0.10040312,-0.00610717,10.38477993
1691757109509521,-0.04552909,-0.07697094,-0.00610502,10.29921246
1691757109509659,-0.05013655,-0.05905535,-0.00594784,10.21586514
1691757109514505,-0.04190580,-0.05328786,-0.00581812,10.22593498
1691757109517416,-0.05838482,-0.20591024,-0.00259722,10.34427547
1691757109521098,-0.08569392,-0.22147782,-0.00047828,10.44141006
1691757109524299,-0.05399648,-0.15811522,0.00049391,9.96774292
1691757109528561,0.00780145,0.01934819,-0.00152039,9.83923817
1691757109534009,-0.03777643,-0.12872511,0.00242869,10.33411598
1691757109538343,-0.03841819,-0.07753531,0.00369713,10.20187378
1691757109540770,-0.04103011,-0.06656872,0.00494995,10.15445232
1691757109543676,-0.02494205,-0.11519222,0.00715869,9.86415005
1691757109546806,0.01581474,0.02548174,0.00613802,9.87938404
1691757109549860,0.00661029,0.11074848,0.00540149,9.83613205
1691757109553607,-0.03828720,-0.02021503,0.00786186,10.29145718
1691757109563115,-0.00984995,0.06224166,0.00676642,10.16785049
1691757109563375,-0.02224387,-0.07334701,0.00964809,10.27572536
1691757109564516,-0.03329626,-0.08487228,0.01013435,10.20462513
1691757109570328,-0.01365839,-0.08360850,0.01077036,10.12038231
1691757109572639,0.02096089,0.13668707,0.00700497,9.80874252
1691757109575287,-0.02505540,0.07419313,0.00811001,10.04029751
1691757109579233,0.03460908,0.05451042,0.00733187,9.53243160
1691757109586211,0.06597272,0.13522410,0.00495526,9.77979279
1691757109586756,-0.03078457,-0.08398682,0.00870446,10.44927692
1691757109590951,-0.02792505,-0.16331890,0.01021731,10.45219803
1691757109594399,-0.00701005,-0.13345896,0.01095020,10.31594753
1691757109599043,0.00345915,-0.11138320,0.01126804,10.21909142
1691757109600845,0.00331204,-0.08739597,0.01130653,10.10100174
1691757109608320,0.00991555,-0.04761158,0.01077295,10.07181263
1691757109608684,0.01369473,-0.04650100,0.01081108,10.05849552
1691757109612654,-0.02536746,-0.04976230,0.01083181,10.14677048
1691757109615339,0.05651373,0.07310898,0.00868207,9.58732319
1691757109618849,0.00310625,-0.11582585,0.01198266,10.31159401
1691757109622708,0.01386402,0.00340808,0.01044067,10.16540146
1691757109626586,0.01255192,0.04392943,0.00983466,10.03803539
1691757109631462,0.03296676,0.03241786,0.01001651,10.10803699
1691757109634582,0.02769058,0.04230396,0.00977805,10.10525894
1691757109637149,0.02864237,0.03729045,0.00982797,10.07838058
1691757109641242,0.04655271,0.00623607,0.01025722,10.11277771
1691757109645636,0.05153972,0.00438709,0.01025409,10.18222618
1691757109648667,0.07798097,0.18611771,0.00599062,9.83722591
1691757109651618,0.05016001,0.14378192,0.00604988,10.05230331
1691757109655865,0.07335503,0.11294919,0.00476357,9.78803921
1691757109661975,0.05747899,-0.01570127,0.00659312,10.33026218
1691757109662588,0.08680558,0.03793655,0.00486767,10.16504478
1691757109668283,-0.00085170,-0.18230984,0.00777857,10.62881565
1691757109671575,0.00038687,-0.13131520,0.00711704,10.53445816
1691757109675860,0.01859720,-0.05588535,0.00616993,10.29979610
1691757109683584,0.04628639,0.01750177,0.00502570,10.19813919
1691757109683786,0.03721179,0.08334901,0.00382728,10.13389683
1691757109684352,0.05066684,0.06129379,0.00393537,10.17824173
1691757109688474,0.06038582,0.02248534,0.00416970,9.88440609
1691757109694861,0.04242769,0.16831557,0.00058710,10.13886070
1691757109695694,0.04043936,0.02328973,0.00263530,10.36230278
1691757109705972,0.05199356,0.02920516,0.00227286,10.39924622
1691757109706096,0.07223064,0.03342783,0.00188545,10.36103249
1691757109707380,0.04978587,0.02351576,0.00196116,10.29051971
1691757109711718,0.03422762,0.02270141,0.00187653,10.27542305
1691757109713786,0.13367113,0.23205949,-0.00540095,9.50165653
1691757109717695,0.07953727,0.06376044,-0.00154153,10.29126740
1691757109721794,0.11273742,0.10920884,-0.00357987,10.16535378
1691757109725570,0.02545992,-0.06289195,-0.00042626,10.60996151
1691757109729178,0.06397836,-0.01201399,-0.00163541,10.45360470
1691757109731845,0.04736604,0.04061883,-0.00290453,10.45312881
1691757109735292,0.04222762,0.05658336,-0.00354454,10.29968548
1691757109743123,0.09634058,0.22174436,-0.00972793,9.96830177
1691757109743268,0.07478698,0.18897451,-0.01097406,10.15287399
1691757109747692,0.02400526,0.12779817,-0.01107675,10.32479000
1691757109750729,0.10481996,0.22525463,-0.01776578,9.93681145
1691757109753545,0.04804260,0.02623535,-0.01453712,10.51491165
1691757109758131,0.05660702,0.10098521,-0.01779971,10.38308334
1691757109761201,0.02433214,-0.05007993,-0.01527485,10.65118027
1691757109766069,0.00147130,-0.07068478,-0.01524287,10.68229866
1691757109768870,0.05043598,-0.07169797,-0.01517011,10.03940868
1691757109771880,0.07295357,0.09976388,-0.01923876,10.10739613
1691757109778292,0.01188481,-0.06510207,-0.01587361,10.68342113
1691757109779928,0.05473680,0.03066988,-0.01762571,10.41111565
1691757109782584,0.09345634,0.26190144,-0.02463307,10.07726097
1691757109791280,0.06123392,0.17913808,-0.02328918,10.28291225
1691757109791484,0.13751589,0.27550164,-0.02931044,9.89859962
1691757109797966,0.02237852,0.00845719,-0.02204275,10.68644524
1691757109798117,0.00132072,-0.11230789,-0.01966068,10.74822903
1691757109800569,0.04613211,0.05770940,-0.02350918,10.31096363
1691757109806398,0.04223911,-0.08340121,-0.02020909,10.58718014
1691757109809015,0.08328958,0.12378249,-0.02629939,10.22667122
1691757109812199,0.06665005,0.12762110,-0.02759456,10.27074909
1691757109815977,0.08158220,0.11408851,-0.02886963,10.34763527
1691757109819819,0.06536506,0.10600733,-0.02996533,10.42735577
1691757109823438,-0.00332078,0.04773159,-0.02903451,10.61654949
1691757109827778,-0.00361134,0.03353878,-0.02953363,10.45446587
1691757109830827,0.01825867,-0.12703694,-0.02491342,10.75505447
1691757109833532,0.02172450,-0.06390635,-0.02551049,10.68327999
1691757109838231,0.04201523,0.10068213,-0.03048389,10.29083061
1691757109841434,0.00534216,0.05154099,-0.02987417,10.53173351
1691757109844547,0.04564256,0.13567488,-0.03364807,10.22776985
1691757109849085,-0.00686476,-0.05667486,-0.02861661,10.54434013
1691757109852967,-0.00863017,0.02179631,-0.03151914,10.66319942
1691757109855679,-0.02493506,-0.02526181,-0.03089717,10.68517208
1691757109868594,-0.04259255,-0.00350561,-0.03152553,10.59527588
1691757109868765,-0.00625210,-0.01303995,-0.03143454,10.53213596
1691757109868864,-0.00627445,-0.08519292,-0.02902704,10.66799736
1691757109870976,0.00935110,-0.08586138,-0.02806500,10.55281353
1691757109877285,-0.01896833,-0.07607177,-0.02755740,10.45638752
1691757109877423,-0.05912107,-0.00428209,-0.02863424,10.55155087
1691757109883861,0.02924500,0.12614219,-0.03265871,10.29370308
1691757109890830,0.03703075,0.07500515,-0.03132534,10.41697216
1691757109890969,0.01266062,0.08095471,-0.03152017,10.27544498
1691757109896202,-0.02402353,-0.03314528,-0.02812716,10.62740612
1691757109896338,-0.01410034,-0.01106795,-0.02861962,10.55303001
1691757109899184,-0.03256084,-0.09343339,-0.02651423,10.66287327
1691757109903227,0.00113909,-0.03195928,-0.02803384,10.23582172
1691757109906892,0.05196953,0.24257335,-0.03819008,10.10779762
1691757109910076,-0.06018412,-0.24032384,-0.02376559,10.83691120
1691757109913624,-0.05277418,-0.22129963,-0.02312412,10.76662064
1691757109917148,-0.06156635,-0.18974571,-0.02290559,10.67117500
1691757109921557,-0.08092720,-0.18164845,-0.02236592,10.57849693
1691757109924865,0.10864190,0.31704095,-0.03886511,9.85436058
1691757109928872,-0.02757569,-0.06244613,-0.02492719,10.61600590
1691757109932094,-0.06433523,-0.17735641,-0.02076550,10.82942200
1691757109936437,-0.08198898,-0.20629899,-0.01882770,10.77895355
1691757109946142,-0.04647979,-0.23173341,-0.01571660,10.52455139
1691757109946275,0.02105733,0.03401173,-0.02205123,10.26177979
1691757109946651,-0.07010921,-0.08777789,-0.01724127,10.54997253
1691757109949969,-0.00203454,0.12413318,-0.02243524,9.90118408
1691757109953988,-0.01760347,-0.07671543,-0.01600604,10.59493923
1691757109958188,0.00439051,0.01660836,-0.01823058,10.44388866
1691757109962243,-0.03323054,-0.18380307,-0.01091567,10.77178860
1691757109966549,0.01869692,-0.01498182,-0.01474426,10.18060398
1691757109970447,-0.01245606,-0.13847280,-0.01061773,10.59163094
1691757109971619,-0.00332595,-0.03924759,-0.01305263,10.52165699
1691757109977567,-0.01094076,-0.01102140,-0.01347080,10.48334789
1691757109979368,-0.07412111,-0.17523779,-0.00722824,10.78427029
1691757109982894,0.00898684,0.06632448,-0.01294301,10.01236820
1691757109989945,-0.05140705,-0.21809262,-0.00308261,10.70327473
1691757109990089,0.00263631,0.01717389,-0.00798744,10.25699139
1691757109994832,-0.00033853,0.04679007,-0.00854803,10.28354168
1691757109998355,-0.01523363,0.00487886,-0.00713710,10.45137215
1691757110001600,0.01339563,0.06574977,-0.00864245,10.08949375
1691757110004754,-0.02723956,-0.08212372,-0.00419812,10.52239418
1691757110008003,-0.03543971,-0.00708961,-0.00611740,10.45352173
1691757110012052,0.00175851,-0.02793920,-0.00558070,10.46790409
1691757110015265,0.00001555,-0.04124398,-0.00508110,10.46267128
1691757110019305,-0.06354702,-0.22098088,0.00065322,10.73238468
1691757110022618,-0.01644628,-0.16177467,0.00124237,10.38503170
1691757110026234,0.04798599,0.10636686,-0.00614803,10.05520248
1691757110032887,-0.02754544,-0.04060125,-0.00180018,10.64241028
1691757110033505,-0.01039146,0.00673701,-0.00294941,10.57144165
1691757110038781,-0.00629865,0.02078839,-0.00343529,10.56672668
1691757110040744,0.00408679,0.03614386,-0.00404252,10.23726177
1691757110047213,-0.04492958,0.01485488,-0.00344196,10.49955273
1691757110050781,-0.02001873,-0.04864191,-0.00196562,10.64898300
1691757110052141,-0.00243804,-0.01091501,-0.00311891,10.57395077
1691757110056115,-0.00754954,0.01942770,-0.00396465,10.50236893
1691757110062928,-0.01495019,0.02849984,-0.00422712,10.50744629
1691757110063079,0.00530138,0.02535310,-0.00444629,10.37003613
1691757110066322,0.02670597,0.10646548,-0.00693732,10.22871780
1691757110072801,-0.04167978,-0.16731757,0.00172564,10.91631603
1691757110076130,-0.00796517,0.00259585,-0.00205656,10.59624100
1691757110079094,-0.02768478,0.00570165,-0.00213126,10.70416164
1691757110087853,-0.02942942,-0.10963055,0.00143165,10.50414562
1691757110088020,0.07944406,0.34139594,-0.01272461,10.03254318
1691757110088903,-0.02314504,-0.00281636,-0.00179277,10.75821590
1691757110092043,-0.03297512,-0.15025097,0.00259385,10.94172382
1691757110099780,-0.04575987,-0.15619348,0.00375920,10.67270660
1691757110100345,0.03901478,0.12838820,-0.00353398,10.01014042
1691757110102744,-0.00807742,0.03487163,-0.00088506,10.60479927
1691757110106750,0.01672274,-0.00191947,-0.00005596,10.53175545
1691757110110862,0.01264367,0.01304184,-0.00054789,10.38168335
1691757110114242,-0.04263096,0.04700658,-0.00127500,10.49405861
1691757110119452,0.00691093,0.00494759,-0.00044404,10.56507587
1691757110122289,0.01126441,0.01878159,-0.00088499,10.57468987
1691757110124479,0.01527512,0.03127114,-0.00126294,10.45043182
1691757110128127,-0.01738327,0.02646026,-0.00128310,10.49884319
1691757110134702,-0.00296338,-0.10585172,0.00247577,10.51800251
1691757110136043,0.00305194,-0.06961895,0.00176200,10.64776802
1691757110139015,0.01140041,0.07155602,-0.00186034,10.42471504
1691757110147342,0.00994725,0.07117461,-0.00199321,10.52428150
1691757110147515,0.03364603,0.05497958,-0.00187921,10.42784214
1691757110149843,0.10254790,0.35074195,-0.01268141,9.98177242
1691757110154471,-0.02243978,0.00690230,-0.00138753,10.73442554
1691757110158889,-0.00931654,-0.04065932,-0.00055585,10.68142796
1691757110161433,0.00830389,-0.07276762,0.00005899,10.58725166
1691757110165165,0.02287272,-0.01956400,-0.00160119,10.17294121
1691757110171398,-0.04297968,-0.10921837,0.00006964,10.63622475
1691757110172057,0.00856955,-0.01307181,-0.00210100,10.60777378
1691757110175552,0.03827598,0.03253370,-0.00347662,10.55657864
1691757110179201,0.02878460,0.07829093,-0.00497995,10.30130959
1691757110183143,-0.03250370,0.07274126,-0.00475905,10.55418491
1691757110187891,0.02289859,0.03176875,-0.00417741,10.51730442
1691757110191318,0.03998726,0.02825493,-0.00427108,10.55806160
1691757110196000,0.02361946,0.03218086,-0.00445009,10.46617413
1691757110197101,0.03225175,0.11831213,-0.00706076,10.19160461
1691757110201083,-0.01826170,-0.18717043,0.00119647,10.82722855
1691757110205204,0.02946957,0.05059838,-0.00451764,10.50860882
1691757110209573,0.02784530,0.09816530,-0.00592475,10.45340729
1691757110212246,0.00012427,0.05737996,-0.00480200,10.54384232
1691757110216230,0.09700555,0.13953972,-0.00817674,9.95035076
1691757110218972,0.00815958,0.04805790,-0.00513626,10.58814812
1691757110223016,0.01160891,0.02611212,-0.00483730,10.60741138
1691757110226349,0.03538456,0.01505665,-0.00498751,10.24516201
1691757110231700,0.01421741,-0.00357367,-0.00490919,10.52786922
1691757110234575,0.02081777,-0.01363107,-0.00485125,10.58818340
1691757110238462,0.01531364,0.02859612,-0.00610972,10.50195599
1691757110242635,-0.01226337,0.01945267,-0.00600353,10.63787556
1691757110244507,0.04908165,0.05959444,-0.00748151,10.12294674
1691757110248316,0.10339271,0.34827429,-0.01836434,9.99414825
1691757110254807,-0.03584338,-0.15354024,-0.00301472,10.85501957
1691757110256226,0.02037770,0.00395905,-0.00654527,10.60147953
1691757110259476,0.02601009,0.00809315,-0.00673333,10.42517376
1691757110263802,0.04161061,0.04937894,-0.00800241,10.03151798
1691757110266235,0.04600899,0.13929076,-0.01087626,10.18412876
1691757110270250,-0.04791711,-0.23062599,-0.00088199,10.81758976
1691757110275178,0.01881495,0.03746175,-0.00658623,10.55102730
1691757110278380,0.02281237,0.09884770,-0.00835334,10.48700714
1691757110280775,0.01745903,0.06981610,-0.00762914,10.41830254
1691757110284839,0.08962993,0.09550279,-0.00918572,10.04046631
1691757110290577,0.01048054,-0.01106630,-0.00582960,10.73071098
1691757110294222,0.02091236,0.06350496,-0.00779166,10.58200550
1691757110299124,-0.00745324,-0.08519297,-0.00338942,10.83320713
1691757110299259,0.04273016,0.04681265,-0.00706059,10.43607712
1691757110302664,0.05793255,0.15524523,-0.01080718,10.13764572
1691757110306609,-0.00763855,0.06972256,-0.00791908,10.69026566
1691757110310533,0.03076938,0.01355941,-0.00681572,10.47556305
1691757110317688,0.04978528,0.03660373,-0.00784464,10.52117157
1691757110317925,0.01558393,0.03205833,-0.00762078,10.50526524
1691757110324312,0.01855170,0.02916487,-0.00772038,10.21388626
1691757110326594,0.10952569,0.31774408,-0.01998154,10.06346989
1691757110328982,-0.01431332,-0.00975724,-0.00855601,10.74209309
1691757110331786,-0.00670941,-0.02283784,-0.00807719,10.68182182
1691757110337405,-0.01684822,-0.05645559,-0.00717229,10.56827641
1691757110339392,-0.00326729,0.00224302,-0.00848505,10.37305355
1691757110343520,0.00814270,-0.00892491,-0.00780906,10.52640724
1691757110347225,0.00904092,0.00158250,-0.00782440,10.49376583
1691757110352473,0.00140254,0.01191022,-0.00783111,10.30327797
1691757110353531,-0.01183650,0.02954519,-0.00800916,10.52825832
1691757110357675,0.00417558,-0.00692811,-0.00658395,10.42282391
1691757110364713,0.02552196,-0.02722474,-0.00562718,10.46250629
1691757110365789,0.00488572,-0.00924134,-0.00599810,10.36396503
1691757110369459,0.06975962,0.08124868,-0.00931253,10.13913345
1691757110376530,0.00530072,-0.06813729,-0.00441081,10.57399464
1691757110376707,0.00296487,-0.03535572,-0.00500431,10.52560806
1691757110380264,-0.00254191,0.01239364,-0.00610462,10.37064075
1691757110384380,0.02786413,0.05071445,-0.00729365,10.18223286
1691757110388082,0.12472857,0.29595339,-0.01773310,10.16121101
1691757110389811,-0.02700736,-0.06943467,-0.00403012,10.43451118
1691757110393868,-0.02068476,-0.06913607,-0.00379833,10.48192024
1691757110400363,-0.00234260,-0.06300126,-0.00359797,10.45684910
1691757110401366,-0.00463157,-0.07362755,-0.00281116,10.41222095
1691757110405874,0.00580470,-0.02587749,-0.00384299,10.20045280
1691757110408020,0.01511864,0.04626748,-0.00595948,10.29484653
1691757110412138,0.10872821,0.19620325,-0.01259918,10.41657639
1691757110415393,-0.01344506,-0.09803602,-0.00203562,10.70710754
1691757110420138,-0.03075810,-0.09583747,-0.00205242,10.43400860
1691757110435847,-0.00434425,-0.08929730,-0.00195807,10.37122631
1691757110436025,0.08603580,0.19830890,-0.01236749,10.14423275
1691757110436223,-0.04611488,-0.13192095,-0.00143589,10.56968307
1691757110436350,-0.03558214,-0.08795314,-0.00242125,10.48940182
1691757110437734,0.00428807,-0.08531982,-0.00207475,10.40975857
1691757110441839,-0.00185908,-0.05186768,-0.00301321,10.30999851
1691757110449874,-0.03879958,-0.02047362,-0.00390847,10.59853268
1691757110450017,-0.00282439,-0.08181766,-0.00185845,10.29264545
1691757110451626,0.00881954,-0.05606491,-0.00241470,10.40917683
1691757110455604,-0.03749976,-0.05478031,-0.00249244,10.29242706
1691757110459779,-0.00309171,0.02246247,-0.00456602,10.29240417
1691757110463580,0.11134167,0.25259826,-0.01402615,10.10701847
1691757110466312,-0.01849376,-0.12740271,0.00003612,10.67507458
1691757110470907,-0.04275781,-0.08531395,-0.00105181,10.57717896
1691757110473554,-0.02265700,-0.06534186,-0.00122367,10.50824833
1691757110476953,-0.00501989,-0.07926352,-0.00030418,10.48832607
1691757110482660,0.01149537,-0.06740104,-0.00029214,10.29992104
1691757110485407,0.03912112,0.04432705,-0.00373411,10.09227085
1691757110488502,-0.03132802,-0.12525631,0.00161412,10.58248234
1691757110494825,0.00668430,-0.10265205,0.00175434,10.54693699
1691757110496289,-0.01026515,-0.03410608,0.00008647,10.37704182
1691757110498872,-0.01128271,-0.00613677,-0.00038668,10.21925259
1691757110503554,0.04247603,0.04990504,-0.00223510,10.19015884
1691757110507437,-0.01437168,-0.07801895,0.00248659,10.57838535
1691757110510511,-0.01440359,-0.00453249,0.00086332,10.44183254
1691757110513943,-0.03035437,-0.02559191,0.00209150,10.60934067
1691757110517460,0.04121654,-0.02576156,0.00278670,10.23145866
1691757110521881,0.09879038,0.25571740,-0.00795030,10.12862778
1691757110525342,-0.03683767,-0.13303551,0.00638009,10.47681046
1691757110530728,-0.00731551,-0.11673407,0.00672972,10.43323135
1691757110532673,0.00763092,-0.07342751,0.00609782,10.53563309
1691757110535513,-0.00303283,-0.03562452,0.00532424,10.22295094
1691757110539569,-0.02061053,0.01600051,0.00400687,10.19765854
1691757110543511,0.01191920,0.04693367,0.00314742,10.21393299
1691757110546264,0.12031633,0.31118000,-0.00804958,9.93590927
1691757110550093,-0.04547914,-0.06746563,0.00656279,10.55873966
1691757110553997,-0.03521236,-0.06268651,0.00676595,10.54359436
1691757110557519,0.01763430,-0.05739770,0.00713567,10.51204586
1691757110561582,0.00653139,-0.04073960,0.00689986,10.29887199
1691757110565983,-0.00875941,0.01223458,0.00549339,10.30979633
1691757110567875,0.01322595,-0.03484396,0.00718944,10.30869961
1691757110571724,0.02220952,0.01661157,0.00573100,10.38395596
1691757110584311,0.06845504,0.27130675,-0.00357900,10.29861069
1691757110584708,-0.01582014,-0.08619932,0.00886187,10.43725777
1691757110586179,-0.02225236,-0.00444861,0.00657694,10.49161434
1691757110590026,-0.03957145,-0.00958959,0.00678035,10.49079227
1691757110593626,0.02612983,0.01901489,0.00598863,10.35116959
1691757110597686,0.09748978,0.21733347,-0.00209803,10.25375938
1691757110601569,-0.03031366,-0.12593247,0.00992172,10.85239887
1691757110605563,-0.00747436,-0.10494240,0.00975146,10.45276260
1691757110607975,0.01543347,-0.04786905,0.00822368,10.44653416
1691757110616303,-0.00117754,0.01531808,0.00630892,10.50300312
1691757110616427,0.00291534,0.04798177,0.00533243,10.50595951
1691757110619692,0.10073719,0.28413466,-0.00470561,10.21620560
1691757110623654,-0.02053256,-0.05568730,0.00791815,10.77888680
1691757110626344,-0.01701164,-0.00348171,0.00650324,10.59872150
1691757110630006,0.00615041,-0.00589528,0.00662007,10.51493835
1691757110634250,0.00576172,0.01519873,0.00585227,10.44226551
1691757110637699,0.02948537,0.05460688,0.00453645,10.30016327
1691757110641589,0.07666529,0.22420752,-0.00233375,10.34413147
1691757110646633,0.10919066,0.18746239,-0.00250387,10.33468437
1691757110650639,-0.03365900,-0.10730496,0.00780648,10.84681129
1691757110651449,-0.04648895,-0.07548336,0.00679682,10.40416145
1691757110657909,-0.02250088,-0.03355878,0.00572643,10.46918583
1691757110659529,-0.00169532,-0.02293620,0.00541112,10.44757938
1691757110663635,0.00945756,0.03584828,0.00361628,10.38789654
1691757110668532,0.02607065,0.02408473,0.00398669,10.31389904
1691757110671715,0.08827085,0.23297350,-0.00491472,10.31639004
1691757110674013,-0.00503195,-0.10372736,0.00724835,10.78565502
1691757110684377,-0.02862631,0.00611586,0.00404253,10.63852024
1691757110684528,-0.03241153,-0.03793491,0.00547632,10.55200577
1691757110684985,0.04759870,0.03760411,0.00300190,10.24090099
1691757110691793,-0.01576975,-0.04944001,0.00602169,10.83301258
1691757110692452,-0.00047503,-0.02639030,0.00543752,10.40933704
1691757110695637,0.00928066,0.04882134,0.00298309,10.51092243
1691757110699377,0.00593634,0.05761677,0.00256396,10.48529148
1691757110708925,0.03815938,0.08323523,0.00139231,10.28420544
1691757110709129,0.02210002,0.31231895,-0.00704928,10.51770115
1691757110711020,0.00190638,-0.04614608,0.00473308,10.58512402
1691757110715535,-0.00478959,-0.02223394,0.00394027,10.36728859
1691757110716898,0.01810524,-0.02010320,0.00405595,10.30347824
1691757110720901,-0.01008405,0.01446146,0.00295031,10.45589733
1691757110726171,0.01287485,0.01300070,0.00297222,10.40356445
1691757110728787,0.09663627,0.21564521,-0.00593066,10.28134537
1691757110732631,-0.02764805,-0.11551662,0.00617417,10.81062984
1691757110735385,-0.02299677,-0.03283054,0.00366893,10.47359180
1691757110741095,-0.00286037,-0.01971398,0.00326176,10.56467247
1691757110742691,-0.00391925,-0.02135290,0.00338966,10.34416294
1691757110746300,-0.00957025,0.04341937,0.00135898,10.34886551
1691757110753169,0.01744449,0.07314417,0.00032817,10.32978725
1691757110757927,0.10502711,0.30106097,-0.01034990,10.26082897
1691757110758060,-0.02909156,-0.06112918,0.00416234,10.66156387
1691757110763657,-0.04233359,-0.04179195,0.00373395,10.40490627
1691757110764931,-0.00636710,-0.01599159,0.00311817,10.60108185
1691757110768941,-0.02217135,-0.00972848,0.00302354,10.26928997
1691757110771588,0.00973888,0.02023630,0.00212301,10.35079861
1691757110776673,0.08775364,0.26260036,-0.00868119,10.22875214
1691757110779291,-0.03584379,-0.10276596,0.00508387,10.85535240
1691757110786489,-0.03458625,-0.05313459,0.00373045,10.72174740
1691757110787247,-0.02175117,-0.02081330,0.00288889,10.62805653
1691757110790788,-0.01284960,-0.01441579,0.00274722,10.57470131
1691757110795631,0.01718238,0.03675432,0.00096652,10.39100361
1691757110799458,0.08445853,0.33013728,-0.01164426,10.03204632
1691757110800703,-0.04796770,-0.06456812,0.00365291,10.57940388
1691757110804868,-0.03231320,-0.02105322,0.00242241,10.70555115
1691757110810388,-0.02707962,-0.00683369,0.00220511,10.43237782
1691757110811638,-0.00774633,0.01227871,0.00165572,10.29607201
1691757110816271,0.07815183,0.25963083,-0.00891764,10.12079334
1691757110821042,-0.03706515,-0.13358267,0.00568685,10.68595600
1691757110822728,-0.03989147,-0.08956973,0.00435580,10.54058647
1691757110828701,-0.04263129,-0.02172357,0.00227878,10.42785931
1691757110832677,0.00918648,0.01002902,0.00126987,10.30168438
1691757110833568,0.08229689,0.27304521,-0.00973487,10.06568623
1691757110838351,-0.04730697,-0.07515249,0.00388740,10.55058956
1691757110852269,-0.05673676,-0.04422705,0.00299723,10.42304039
1691757110852430,-0.02526012,-0.04028855,0.00314764,10.41119862
1691757110852613,-0.00911503,-0.01938651,0.00271499,10.30104637
1691757110852825,-0.00894535,0.03327553,0.00103384,10.21505928
1691757110857380,0.01857027,0.01725019,0.00153242,10.33949852
1691757110859240,0.08270751,0.23909724,-0.00774451,10.11451149
1691757110862712,-0.06336319,-0.11391875,0.00562369,10.57799244
1691757110868308,-0.05416490,-0.04845807,0.00389688,10.35501289
1691757110869772,-0.01570668,-0.01776534,0.00316967,10.34753609
1691757110873850,-0.01031549,-0.00323218,0.00291912,10.22803020
1691757110882694,-0.00127175,0.04600217,0.00135883,10.18988609
1691757110883127,0.01345461,0.00096548,0.00289012,10.14219475
1691757110884809,0.07410168,0.25481388,-0.00745293,10.18942070
1691757110888741,-0.02360090,0.22624370,-0.00484523,10.57540226
1691757110892535,-0.04576611,-0.14147203,0.00665827,10.53514576
1691757110895303,-0.02967364,-0.09629097,0.00563639,10.56267166
1691757110898983,-0.00341616,-0.05456658,0.00481501,10.32917213
1691757110902931,-0.01789103,-0.08145588,0.00567361,10.28889561
1691757110906259,0.01497391,-0.05073972,0.00484203,10.31695080
1691757110909891,0.06511855,-0.00499877,0.00331415,10.02074432
1691757110913926,-0.05257820,-0.14592102,0.00761220,10.51585960
1691757110917092,-0.01307001,-0.02447739,0.00425551,10.34319019
1691757110921144,0.01303877,-0.00839373,0.00386111,10.32163715
1691757110924874,0.00145834,0.02342623,0.00291048,10.28760147
1691757110928944,0.00204851,0.06120821,0.00166324,10.30004120
1691757110933270,0.12010583,0.29186380,-0.00932146,10.05572414
1691757110937353,-0.03056685,-0.05955366,0.00509585,10.63022518
1691757110939156,-0.04257282,-0.03265959,0.00425407,10.55664158
1691757110942706,-0.03323824,-0.02539669,0.00408102,10.45727730
1691757110948540,-0.00863263,-0.00887542,0.00361720,10.44490433
1691757110949716,-0.01187358,0.01535740,0.00283887,10.40259361
1691757110953924,-0.03473399,-0.02906394,0.00420299,10.50503063
1691757110959825,0.01667896,-0.04299448,0.00480149,10.26095295
1691757110961687,0.01404274,-0.01037703,0.00364711,10.23963356
1691757110964689,0.07703308,0.26591748,-0.00814718,9.98706245
1691757110968898,-0.03896451,-0.09995459,0.00510465,10.46581364
1691757110971737,-0.02654523,-0.04701240,0.00342117,10.48245621
1691757110975196,-0.02810231,-0.07240691,0.00413795,10.27413368
1691757110979218,0.00045270,0.03184298,0.00075130,10.15699959
1691757110983575,0.10511937,0.24381740,-0.00916397,10.00639153
1691757110986143,-0.04438497,-0.10388350,0.00386577,10.62840748
1691757110989893,-0.05358611,-0.07197078,0.00279837,10.53198147
1691757110993796,-0.03070454,-0.06033204,0.00255470,10.44174385
1691757110997168,0.00973408,-0.04956552,0.00234140,10.29355335
1691757111001853,0.06595688,0.22052021,-0.00832504,10.14917374
1691757111005970,-0.06835512,-0.17314506,0.00512378,10.62070084
1691757111011529,-0.00659189,-0.13147578,0.00463157,10.38176918
1691757111023146,0.00226634,-0.04102895,0.00163037,10.47146320
1691757111023639,-0.01731648,-0.02555681,0.00101593,10.52157784
1691757111023852,-0.00855733,-0.04198184,0.00156373,10.16477299
1691757111024013,0.01297224,-0.00040177,0.00011057,10.08649063
1691757111026162,0.08838143,0.28473037,-0.01177223,9.99590683
1691757111032150,-0.04783364,-0.12881491,0.00343997,10.42026711
1691757111033465,-0.03912006,-0.09702016,0.00256993,10.35365486
1691757111037282,-0.01458213,-0.03743527,0.00078730,10.36583424
1691757111043183,0.02632384,0.02208005,-0.00122168,10.06660461
1691757111045023,0.08873428,0.22475849,-0.00971005,10.06898880
1691757111048925,-0.02886396,0.17063382,-0.00653904,10.66072178
1691757111052450,-0.07101176,-0.26486534,0.00614907,10.51567650
1691757111056010,-0.02915515,-0.21718033,0.00618200,10.35899639
1691757111059611,-0.01454098,-0.09811517,0.00271228,10.33514690
1691757111062717,-0.00199589,-0.03774670,0.00078882,10.41070557
1691757111066491,-0.00309476,-0.03467823,0.00065614,10.24403477
1691757111070910,0.05989869,0.23990504,-0.00995553,10.15580177
1691757111076556,-0.05170393,-0.14400621,0.00311321,10.59455585
1691757111078399,-0.02038705,-0.06823068,0.00110922,10.34642029
1691757111080810,-0.01289258,-0.02750661,-0.00007332,10.35836887
1691757111086797,-0.01535258,-0.00380036,-0.00096464,10.19828606
1691757111088132,0.07420283,0.22893524,-0.01061851,10.09099865
1691757111097661,0.01254011,-0.02448685,-0.00112382,10.23363400
1691757111097854,-0.01553045,0.01762917,-0.00263717,10.27628994
1691757111101630,0.04971270,0.19902828,-0.00982815,10.31459141
1691757111102711,0.06755859,0.14484207,-0.00854327,10.36637974
1691757111106762,-0.07860354,-0.20499033,0.00255151,10.74071789
1691757111110073,-0.06480957,-0.17536548,0.00215331,10.44820404
1691757111114086,-0.03889840,-0.07313280,-0.00038903,10.51889133
1691757111119722,-0.03124775,-0.04375750,-0.00116215,10.44801044
1691757111121655,-0.01342529,-0.01765769,-0.00190623,10.53691864
1691757111125547,-0.00334467,-0.00045854,-0.00244304,10.37731552
1691757111128377,-0.02381697,-0.00400242,-0.00235262,10.46102428
1691757111131642,-0.00986558,-0.02461474,-0.00170604,10.31923199
1691757111135302,-0.00392365,0.00201818,-0.00254407,10.37945843
1691757111139729,0.08784124,0.23498823,-0.01246223,10.12099934
1691757111143667,-0.04710864,-0.15782490,0.00122842,10.57814789
1691757111146460,-0.04439751,-0.06111768,-0.00152110,10.43009281
1691757111150028,-0.02767501,-0.03135780,-0.00237463,10.23302650
1691757111154801,-0.00805313,0.02196136,-0.00404931,10.47384739
1691757111162647,-0.01970156,0.01940629,-0.00391908,10.47126770
1691757111162939,-0.01292584,0.03773053,-0.00452039,10.33345318
1691757111165088,0.07484495,0.24610291,-0.01343457,10.19533634
1691757111167933,-0.03362114,-0.18119106,0.00151084,10.53944111
1691757111172165,-0.04172608,-0.02808556,-0.00293711,10.40732288
1691757111176229,-0.03242441,-0.01986772,-0.00320422,10.37054729
1691757111179923,0.01619039,-0.00289126,-0.00382634,10.32546997
1691757111182601,-0.03707200,-0.01743217,-0.00343102,10.51708508
1691757111186200,-0.03297232,-0.06364871,-0.00207745,10.28060150
1691757111192017,-0.01389975,-0.00469024,-0.00388536,10.29852867
1691757111194084,0.00076379,0.00325868,-0.00415721,10.23271942
1691757111198144,0.08911515,0.29911005,-0.01633160,9.87933064
1691757111201542,-0.07313057,-0.13598573,-0.00091420,10.48868942
1691757111204549,-0.03930803,-0.05227749,-0.00299785,10.45660973
1691757111208179,-0.00895397,-0.05181172,-0.00283572,10.37432766
1691757111212531,-0.03225283,-0.00488666,-0.00429701,10.33957958
1691757111216212,0.04300989,0.24034017,-0.01359636,10.11486912
1691757111218892,-0.00309722,0.21068646,-0.01236642,10.46009350
1691757111224436,0.00020983,-0.21166754,0.00121894,10.13642502
1691757111227386,-0.02951259,-0.11708660,-0.00213779,10.31610680
1691757111229928,-0.02931065,-0.08725882,-0.00308037,10.34222221
1691757111233555,0.06929485,0.15102784,-0.01174211,10.11945343
1691757111237066,0.06743154,0.21298248,-0.01463335,9.97268295
1691757111241539,-0.09276990,-0.24893314,-0.00014584,10.39688015
1691757111247228,-0.05456216,-0.15757830,-0.00172463,10.27670097
1691757111248042,-0.02250189,-0.06897791,-0.00388447,10.15838814
1691757111251718,-0.03965882,0.01357781,-0.00623294,10.42488003
1691757111257729,-0.03492296,0.02015715,-0.00626303,10.30362511
1691757111259232,0.09304082,0.24075501,-0.01549554,9.94668579
1691757111263200,-0.04118975,-0.12407622,-0.00225295,10.49566936
1691757111269058,-0.05830592,-0.01785700,-0.00517427,10.38566399
1691757111269719,-0.02015170,-0.00548528,-0.00541191,10.31917667
1691757111273671,0.01502923,-0.03652297,-0.00424861,10.19538975
1691757111278525,0.02132637,-0.02371208,-0.00450137,10.14570808
1691757111281455,-0.00363010,0.00303219,-0.00531512,10.32652378
1691757111285392,0.06056231,0.20173676,-0.01299471,10.24454880
1691757111292014,0.07260267,0.20964123,-0.01377607,10.20608139
1691757111292211,-0.08603578,-0.16491775,-0.00147813,10.56841850
1691757111296203,-0.04164239,-0.13064846,-0.00172850,10.24244499
1691757111299528,-0.01069107,-0.05469166,-0.00362705,10.34143543
1691757111304769,-0.02816322,0.02244517,-0.00577951,10.45150471
1691757111313096,-0.01884523,0.02351214,-0.00574321,10.27141380
1691757111313269,0.00819176,0.00995347,-0.00528145,10.18093586
1691757111313534,0.09122869,0.23196451,-0.01401168,10.21974850
1691757111317183,-0.05693495,0.00531768,-0.00503827,10.69444847
1691757111324260,-0.02597257,-0.07616502,-0.00242358,10.55234146
1691757111327939,-0.00558794,-0.04378450,-0.00300449,10.50370789
1691757111328096,-0.00815729,0.00189939,-0.00414584,10.51298523
1691757111331841,-0.01591252,0.00061511,-0.00388747,10.40143108
1691757111336190,-0.00001731,0.00448067,-0.00377756,10.45336151
1691757111339674,-0.00221451,-0.00256599,-0.00341452,10.37559891
1691757111343256,-0.01020763,0.01679280,-0.00382227,10.33170509
1691757111346450,0.11904182,0.21605945,-0.01227352,10.09517097
1691757111349868,-0.03764072,-0.13022831,0.00036033,10.66342735
1691757111353862,-0.03674741,-0.05885644,-0.00145778,10.61696720
1691757111357112,-0.02639636,-0.00846480,-0.00272508,10.58947754
1691757111362163,-0.01103728,0.01968811,-0.00348179,10.51912689
1691757111367012,-0.01010886,0.04101440,-0.00408396,10.47417259
1691757111368089,0.00123014,0.03867722,-0.00396617,10.37053108
1691757111371737,0.08129048,0.25822335,-0.01272683,10.27498627
1691757111375203,0.09122288,0.23670983,-0.01268466,10.32230091
1691757111379269,-0.04607225,-0.05895886,-0.00176606,10.89687157
1691757111382489,-0.03462442,-0.07980990,-0.00088420,10.72589684
1691757111386295,-0.01828140,-0.04723424,-0.00152220,10.72786617
1691757111390276,-0.00339924,-0.00286069,-0.00265380,10.45951843
1691757111394985,0.05306707,0.21215914,-0.01040643,10.30355167
1691757111398194,0.08811304,0.12895669,-0.00830606,10.22558594
1691757111401992,-0.02009950,-0.20633526,0.00278788,8.41098118
1691757111407277,0.00290340,-0.14356515,0.00141501,8.10691071
1691757111408632,0.02251566,-0.08496451,-0.00012066,8.09390259
1691757111412572,0.03829288,0.00617877,-0.00306192,8.09172440
1691757111418963,0.14204106,0.31655350,-0.01655889,7.92414665
1691757111419111,0.13387644,0.25149831,-0.01393436,7.86934042
1691757111422678,0.02856679,0.19026637,-0.01058965,8.30433559
1691757111426203,0.03319167,0.18169574,-0.01109405,8.27791977
1691757111430536,0.15302099,0.09578412,-0.00946904,7.68925333
1691757111435096,0.07555040,0.00902843,-0.00594777,8.14125252
1691757111437099,-0.01589062,-0.19243863,0.00019835,8.50226116
1691757111441527,-0.01735213,-0.24403016,0.00190832,8.38603878
1691757111454443,0.10876765,0.08163907,-0.00867219,8.20173359
1691757111454848,-0.01533034,-0.11061374,-0.00170475,8.62142658
1691757111455152,-0.01357403,-0.10334945,-0.00154294,8.69585609
1691757111458684,-0.01460904,-0.15305659,0.00090976,8.65785027
1691757111459603,-0.01205475,-0.14987037,0.00176342,8.65598774
1691757111463292,-0.00044298,-0.06663639,0.00010279,8.85476017
1691757111469400,0.01860488,-0.05344374,0.00058305,8.82067299
1691757111470124,0.01766768,-0.00882637,-0.00026362,8.93071556
1691757111473582,0.00916784,-0.02526799,0.00074676,9.07805920
1691757111479561,0.02717807,0.00168247,0.00035569,9.05626488
1691757111481377,0.09674167,0.26149133,-0.01002701,8.91127110
1691757111484689,0.01559483,0.03505660,-0.00044102,9.32032299
1691757111490264,-0.00350227,0.00721175,0.00097165,9.38565254
1691757111494841,-0.00784457,-0.01244268,0.00215135,9.45888042
1691757111496514,-0.01273475,0.00463110,0.00205408,9.51878929
1691757111501524,0.04443768,0.11832869,-0.00218559,9.44944763
1691757111502647,0.00354014,-0.00369423,0.00264439,9.59221458
1691757111508256,-0.00936899,-0.00535848,0.00318701,9.63737297
1691757111510289,-0.01089661,-0.01367641,0.00399271,9.67101955
1691757111514415,-0.01435327,-0.01579232,0.00449839,9.73088455
1691757111517955,-0.01164085,-0.01568147,0.00501146,9.71866894
1691757111521040,-0.01278539,-0.01501797,0.00542697,9.78042507
1691757111524295,-0.01866458,-0.00314487,0.00537508,9.82507896
1691757111528143,-0.01993740,0.00224438,0.00552145,9.86515713
1691757111534288,-0.02328464,0.00761422,0.00555872,9.91618538
1691757111535236,-0.02652889,0.01517130,0.00547374,9.94352722
1691757111540266,-0.02401829,0.01782818,0.00558022,9.95677471
1691757111547296,-0.02050967,0.01899609,0.00572261,9.98085213
1691757111547436,-0.01557155,0.02462042,0.00570166,10.00635719
1691757111549728,-0.02016391,0.02201352,0.00606786,10.01625824
1691757111553630,-0.01222418,0.01976916,0.00634368,10.03465176
1691757111557436,-0.01238144,0.02678642,0.00633410,10.05478287
1691757111561347,-0.01088544,0.02869457,0.00645974,10.06216621
1691757111564384,0.00011836,0.04648269,0.00580288,10.09173965
1691757111567776,0.06347188,0.14250253,0.00117596,10.11406136
1691757111574269,0.05945448,0.15681723,0.00005088,10.10880470
1691757111577779,-0.01283370,0.01092613,0.00587383,10.18181705
1691757111579391,-0.01487502,0.01181213,0.00593849,10.21234894
1691757111584978,-0.02032126,0.03318383,0.00536795,10.23425293
1691757111586396,-0.02250132,0.04083389,0.00514518,10.26187229
1691757111589817,-0.01342701,0.03985568,0.00516369,10.29424095
1691757111593477,-0.01188793,0.05130868,0.00486851,10.32219791
1691757111597459,-0.01769828,0.05349969,0.00489499,10.31752300
1691757111603782,-0.01209486,0.04749790,0.00507241,10.33619118
1691757111604450,-0.00756688,0.04364779,0.00519990,10.27810478
1691757111608503,0.01633980,0.17750168,-0.00032813,10.41993999
1691757111615127,-0.01821573,0.03264770,0.00480371,10.36586857
1691757111615712,-0.01777553,0.02261444,0.00518920,10.36775780
1691757111618891,-0.01563582,0.01948616,0.00536406,10.40646076
1691757111623112,-0.01983642,0.01954648,0.00534822,10.38018894
1691757111626040,-0.01494518,0.01189035,0.00548482,10.37963200
1691757111629760,-0.02094088,0.02004267,0.00521826,10.36348152
1691757111633474,0.00413802,0.10870421,0.00124005,10.36272049
1691757111636855,0.02062753,0.10701910,-0.00001124,10.32901001
1691757111640934,-0.02250499,-0.02649683,0.00480504,10.44229126
1691757111644327,-0.03414794,0.00316053,0.00387815,10.39246845
1691757111648150,-0.02769733,0.00028947,0.00404435,10.41134357
1691757111652368,-0.01661937,-0.00419570,0.00434515,10.44664192
1691757111655823,0.00669220,0.09798557,0.00025813,10.45171356
1691757111659664,0.00503661,0.10785892,-0.00096932,10.39261341
1691757111663438,-0.03235139,-0.06611758,0.00490797,10.49717903
1691757111666709,-0.03168765,-0.03790384,0.00415312,10.38753796
1691757111669871,-0.03839565,-0.02363211,0.00375128,10.36987972
1691757111675565,-0.03487050,-0.01711020,0.00363060,10.37034607
1691757111677415,-0.03436393,-0.01713987,0.00383908,10.35591507
1691757111685148,0.00306474,0.08450692,-0.00000904,10.38658237
1691757111685314,-0.02113778,0.13340887,-0.00233652,10.46514416
1691757111688095,-0.03736649,-0.02787112,0.00304991,10.38426304
1691757111692925,-0.03752613,-0.02638243,0.00307553,10.34673309
1691757111697162,-0.03682046,-0.01921499,0.00315287,10.37476730
1691757111699516,-0.03739496,-0.03185564,0.00370972,10.30131245
1691757111704891,0.00422449,0.02431289,0.00139240,10.31158543
1691757111706842,-0.02968602,-0.10897773,0.00579592,10.47881222
1691757111709757,-0.03415649,-0.06884047,0.00464862,10.40607357
1691757111715463,-0.03217682,-0.05378263,0.00443628,10.36451244
1691757111718660,-0.02555631,-0.03952022,0.00418927,10.37560081
1691757111721482,-0.03433428,-0.02771402,0.00397567,10.35199070
1691757111724286,-0.00043538,0.03838927,0.00161513,10.33828354
1691757111728066,-0.00855109,0.08324241,-0.00046437,10.40043831
1691757111731772,-0.02543476,-0.05494900,0.00418049,10.35724258
1691757111737002,-0.03477053,-0.04667192,0.00413796,10.33607006
1691757111739894,-0.02952988,-0.04486633,0.00437899,10.34003162
1691757111742303,-0.01493033,-0.06358159,0.00518287,10.36771965
1691757111746146,-0.01785115,-0.05740357,0.00517193,10.37327957
1691757111751738,-0.00200596,0.00575936,0.00309672,10.34629726
1691757111753530,0.00886597,0.00890693,0.00282932,10.30338764
1691757111760025,-0.02275184,-0.12848029,0.00769468,10.43897533
1691757111761912,-0.02377936,-0.08397131,0.00683040,10.36192036
1691757111764413,-0.02188902,-0.07034158,0.00674863,10.33860493
1691757111769376,-0.01321704,-0.05715641,0.00656078,10.34800911
1691757111771680,-0.01415998,-0.05509321,0.00689300,10.35889244
1691757111776434,0.01230604,0.02187955,0.00437801,10.36651325
1691757111781394,0.02363572,0.03164700,0.00381094,10.30881119
1691757111782928,-0.00831805,-0.10115558,0.00837539,10.42696571
1691757111786541,-0.01454324,-0.08222146,0.00806396,10.34299564
1691757111791724,-0.01262638,-0.05773156,0.00743416,10.34273720
1691757111794319,-0.00861465,-0.04578137,0.00708760,10.34035397
1691757111797148,-0.01087980,-0.03873507,0.00701057,10.31794071
1691757111805339,-0.01307293,-0.03834486,0.00715117,10.27125931
1691757111805487,0.03653372,0.03738220,0.00407202,10.33000851
1691757111808954,-0.00043026,-0.09640849,0.00879675,10.43124199
1691757111813269,-0.00647582,-0.05794956,0.00783077,10.36124802
1691757111815266,-0.00333109,-0.05623703,0.00774861,10.35347080
1691757111819361,0.00711918,-0.05144140,0.00742699,10.37252998
1691757111824725,-0.00133147,-0.05258568,0.00749212,10.31864643
1691757111826646,-0.00170285,-0.03833822,0.00693848,10.26517200
1691757111832512,0.04566436,0.05456804,0.00283808,10.29088593
1691757111836785,0.01043435,-0.05460598,0.00649142,10.36225986
1691757111837593,0.00031813,-0.04338636,0.00626202,10.30398941
1691757111841858,0.00211763,-0.02831527,0.00571868,10.30540180
1691757111844930,0.00786927,-0.02215051,0.00531906,10.30906391
1691757111848770,0.01519410,-0.03042158,0.00544693,10.29090595
1691757111851496,0.04460514,0.02246533,0.00283015,10.26270390
1691757111857366,0.05286558,0.03401471,0.00094667,10.24499893
1691757111860153,0.01521167,-0.02555241,0.00265208,10.32061958
1691757111863537,0.02021119,-0.06977355,0.00441130,10.33572388
1691757111867656,0.01301050,-0.03904955,0.00330761,10.29618549
1691757111870677,0.02339147,-0.03446432,0.00307873,10.30723476
1691757111873934,0.02162880,-0.04511525,0.00355829,10.29070187
1691757111878027,0.01113399,-0.02905474,0.00302914,10.25684547
1691757111882702,0.05345424,0.02910253,0.00043720,10.22919750
1691757111884303,0.03284846,-0.10199614,0.00507098,10.32851601
1691757111890199,0.02144323,-0.05092014,0.00351109,10.28023720
1691757111893693,0.01239066,-0.02460209,0.00243339,10.25394726
1691757111895786,0.01781531,-0.01616387,0.00206298,10.25951672
1691757111902246,0.01676403,-0.00908659,0.00187225,10.25167465
1691757111903659,0.04584382,0.05487811,-0.00060472,10.23444653
1691757111906169,0.06239310,0.06719771,-0.00195172,10.22008324
1691757111911500,0.04638239,0.06640939,-0.00226636,10.23977757
1691757111913668,0.02108526,-0.02033437,0.00068914,10.24181938
1691757111917453,0.01646021,-0.01818131,0.00052034,10.21997070
1691757111922888,0.03609581,-0.03173901,0.00097760,10.26307011
1691757111924393,0.03939512,-0.02607835,0.00086810,10.25449562
1691757111928310,0.02755919,-0.01436942,0.00036868,10.23359394
1691757111933144,0.02608353,-0.00886456,-0.00003370,10.22404671
1691757111935608,0.08499625,0.05326758,-0.00285495,10.18473244
1691757111939956,0.03312408,-0.05733282,0.00159119,10.22796822
1691757111942789,0.01840646,-0.01911463,0.00044254,10.20483112
1691757111947194,0.02167211,-0.00428811,0.00002161,10.19940186
1691757111950599,0.02516382,0.00996218,-0.00033525,10.21156788
1691757111955174,0.01812463,0.01496461,-0.00045159,10.20486450
1691757111958093,0.07184805,0.08227865,-0.00311556,10.22016335
1691757111963725,0.07751784,0.07562693,-0.00336632,10.20558453
1691757111964802,0.07571154,0.07948191,-0.00432818,10.17614269
1691757111968717,0.04163271,-0.07269189,0.00136033,10.24302387
1691757111972722,0.03453244,-0.04368340,0.00051787,10.23031425
1691757111977609,0.01888194,-0.01184639,-0.00048253,10.21233845
1691757111981407,0.01029437,0.00065700,-0.00093811,10.20854282
1691757111983185,0.01918973,0.01046255,-0.00128699,10.23213387
1691757111992891,0.02204861,0.00670282,-0.00107772,10.22702217
1691757111993078,0.01059705,0.01827264,-0.00145599,10.21585655
1691757111993381,0.06882669,0.08977747,-0.00474415,10.21337223
1691757111997101,0.09834704,0.11462508,-0.00663435,10.17830181
1691757112005081,0.01988425,0.00919640,-0.00219453,10.23476410
1691757112005624,0.00547077,0.01903496,-0.00248867,10.22404289
1691757112013208,0.01733757,0.00867676,-0.00209855,10.23214340
1691757112013363,0.01466548,0.00442959,-0.00190219,10.22652340
1691757112015135,0.00716132,0.01398618,-0.00225387,10.22215939
1691757112018907,0.01716648,0.01793288,-0.00241137,10.24382877
1691757112022826,0.02315759,0.01752921,-0.00231984,10.26633263
1691757112026770,0.01248684,0.02036658,-0.00232102,10.25402546
1691757112030995,0.06128536,0.08733003,-0.00548930,10.25097942
1691757112033862,0.08987246,0.11209089,-0.00755557,10.23096466
1691757112037344,0.02278127,-0.00595042,-0.00262775,10.27952862
1691757112040893,0.00622535,0.00759383,-0.00306475,10.26100922
1691757112045161,0.00839236,0.01216876,-0.00313587,10.26730156
1691757112049631,0.00436193,0.02611603,-0.00354889,10.27261066
1691757112051340,0.00387120,0.02299414,-0.00348520,10.27467632
1691757112056538,0.00468614,0.01300397,-0.00309101,10.25953293
1691757112060732,0.00639863,0.02378960,-0.00361917,10.26432037
1691757112062497,0.00390873,0.04119670,-0.00458287,10.24736977
1691757112066026,0.03917579,0.14426677,-0.00974144,10.32555008
1691757112069911,0.00716841,0.01646028,-0.00477774,10.30208206
1691757112074303,-0.00449562,0.01911979,-0.00480489,10.29297352
1691757112077898,-0.00255883,0.02073456,-0.00482231,10.31045151
1691757112081660,0.00702938,0.01365747,-0.00441744,10.31351185
1691757112084937,-0.00402932,0.01883482,-0.00444963,10.29974079
1691757112089701,0.03067047,0.08609790,-0.00781137,10.31932926
1691757112093478,0.03974530,0.07783914,-0.00831450,10.28525543
1691757112095943,0.04834576,0.08700783,-0.01004986,10.26039028
1691757112101758,-0.01407974,-0.01116162,-0.00609822,10.32202530
1691757112102518,-0.02550817,-0.00184017,-0.00636832,10.28850937
1691757112108190,-0.01964168,0.00858805,-0.00671645,10.30239582
1691757112110875,-0.02545872,0.01712094,-0.00694069,10.30904770
1691757112113833,-0.03431852,0.01711553,-0.00661424,10.28367805
1691757112118016,0.01401592,0.07923803,-0.00944987,10.30377769
1691757112121637,0.02265169,0.09959025,-0.01096463,10.28655148
1691757112124527,-0.03333669,-0.01527296,-0.00610825,10.32682800
1691757112128240,-0.03811607,-0.00319744,-0.00617016,10.30653858
1691757112135772,-0.03732460,-0.00060847,-0.00594279,10.30906677
1691757112135927,-0.03379851,-0.00778287,-0.00542108,10.31502056
1691757112138874,-0.03791209,-0.01423482,-0.00490539,10.31001377
1691757112142931,-0.03522504,-0.01605170,-0.00467361,10.30235291
1691757112147061,-0.03577724,0.00508046,-0.00530411,10.29833412
1691757112150982,0.00350750,0.08637890,-0.00884535,10.30341244
1691757112155349,-0.03196796,-0.03325754,-0.00379868,10.34824753
1691757112157486,-0.04091207,-0.01114717,-0.00434775,10.32632256
1691757112161677,-0.04251435,0.00025409,-0.00436675,10.31884956
1691757112165535,-0.04250348,-0.00450066,-0.00375700,10.30963326
1691757112172382,-0.01338888,0.05100545,-0.00603216,10.32439518
1691757112172796,-0.01421554,0.06251127,-0.00685989,10.28854656
1691757112176553,-0.00613495,0.06155647,-0.00721869,10.28361130
1691757112179016,-0.03690908,-0.07482440,-0.00209184,10.35463619
1691757112182901,-0.04565871,-0.03775545,-0.00339538,10.33269882
1691757112187308,-0.05250644,-0.02878056,-0.00350930,10.32536888
1691757112189730,-0.04743953,-0.02680483,-0.00320242,10.33641720
1691757112194887,-0.04388806,-0.02293718,-0.00315950,10.33888626
1691757112198341,-0.04952917,-0.01673480,-0.00319449,10.30879879
1691757112201071,-0.01739173,0.04336363,-0.00552885,10.30534172
1691757112204461,-0.04625716,-0.07377251,-0.00075398,10.37260246
1691757112209347,-0.05075613,-0.03567974,-0.00179022,10.31822872
1691757112212019,-0.05404173,-0.01790178,-0.00200738,10.29160213
1691757112216217,-0.04877370,-0.01974017,-0.00180096,10.30084038
1691757112220511,-0.04519362,-0.01829648,-0.00180280,10.30427647
1691757112222439,-0.04978834,-0.01730464,-0.00164584,10.29692841
1691757112226225,-0.02394739,0.03687096,-0.00368311,10.29078484
1691757112230471,-0.01015910,0.05374214,-0.00477959,10.27004051
1691757112234447,-0.04361349,-0.05415582,-0.00051772,10.32966042
1691757112238910,-0.04865673,-0.03246211,-0.00079860,10.29327774
1691757112240839,-0.04846098,-0.02619851,-0.00071123,10.28317451
1691757112244278,-0.04246117,-0.02478077,-0.00064341,10.29178333
1691757112248230,-0.04024486,-0.02443021,-0.00033464,10.29332733
1691757112252842,-0.03966273,-0.02451255,-0.00014280,10.29366398
1691757112256162,-0.01056019,0.02253275,-0.00237012,10.30960178
1691757112260062,-0.00370761,0.02831155,-0.00302985,10.28824615
1691757112264014,-0.03208501,-0.07417438,0.00113231,10.33858299
1691757112266220,-0.03797284,-0.03704482,0.00008155,10.29607582
1691757112270986,-0.04055504,-0.02406484,-0.00025606,10.28128147
1691757112274195,-0.03824863,-0.01993999,-0.00007332,10.28075886
1691757112279695,-0.03828238,-0.01615821,0.00003053,10.26826477
1691757112281703,-0.03859402,-0.01356912,-0.00005101,10.26514530
1691757112286672,-0.03080503,-0.01598606,0.00011736,10.25138378
1691757112288193,0.00494622,0.03881526,-0.00205275,10.25520229
1691757112292200,-0.01787676,-0.07994794,0.00225568,10.33414650
1691757112297766,-0.01895725,-0.04707669,0.00119902,10.30444813
1691757112298957,-0.02423678,-0.03307630,0.00081914,10.28161144
1691757112310551,-0.02403124,-0.02417120,0.00049433,10.28337002
1691757112310735,-0.01903320,-0.02488849,0.00048073,10.27871323
1691757112310994,-0.02045821,-0.01484585,0.00027230,10.27610970
1691757112315415,-0.01810125,-0.01412069,0.00031486,10.24535370
1691757112317009,0.03203945,0.04905811,-0.00250864,10.21467304
1691757112320952,-0.00488104,-0.04258976,0.00108012,10.29944420
1691757112326708,-0.01596441,-0.02303013,0.00077550,10.27357197
1691757112328076,-0.02004453,-0.01444570,0.00055242,10.25721741
1691757112331933,-0.01495388,-0.00807217,0.00031439,10.26537323
1691757112337629,-0.01089608,-0.01439389,0.00064314,10.26038647
1691757112343799,0.01507010,0.02375490,-0.00101193,10.23733234
1691757112344219,0.02973820,0.03762503,-0.00246262,10.22025585
1691757112347333,0.01415843,0.04277464,-0.00328112,10.25306892
1691757112349963,0.00069419,-0.03559412,-0.00057857,10.26141071
1691757112353725,-0.00494125,-0.02278268,-0.00103081,10.25884533
1691757112358571,0.00053046,-0.02353936,-0.00100736,10.26311588
1691757112362040,0.00269417,-0.01984809,-0.00090905,10.26303864
1691757112365230,-0.00361442,-0.01106791,-0.00112436,10.25625134
1691757112369001,0.00768327,-0.01809095,-0.00099170,10.23577404
1691757112372344,0.05017631,0.04073228,-0.00327832,10.20955849
1691757112375270,0.00759682,-0.04734964,0.00017730,10.26754093
1691757112379327,0.00780495,-0.03658425,-0.00017646,10.25204659
1691757112383257,0.01478446,-0.02022562,-0.00077402,10.26097107
1691757112387319,0.01052413,-0.02010076,-0.00064590,10.24879551
1691757112389872,0.01247774,-0.00922361,-0.00115053,10.24814510
1691757112396327,0.01426911,-0.00667616,-0.00138693,10.24382877
1691757112397887,0.05865864,0.04874086,-0.00369332,10.21746254
1691757112401141,0.07508229,0.06062633,-0.00472837,10.17071342
1691757112405313,0.03036340,-0.04809840,-0.00085556,10.23896027
1691757112408022,0.02729902,-0.03945560,-0.00107102,10.24284744
1691757112412297,0.01913631,-0.01872582,-0.00169949,10.23588467
1691757112416064,0.01423995,-0.00575620,-0.00219202,10.24481010
1691757112418941,0.02903925,-0.00662372,-0.00218324,10.25991440
1691757112422546,0.02753069,-0.00210258,-0.00227901,10.25696278
1691757112426886,0.01526754,0.00618698,-0.00257579,10.24465084
1691757112435298,0.06978684,0.08203542,-0.00595439,10.22401810
1691757112435816,0.09340409,0.07877750,-0.00677885,10.19674683
1691757112438044,0.03525864,-0.03865997,-0.00231939,10.24389267
1691757112440804,0.01907968,-0.01332011,-0.00333268,10.23345089
1691757112444408,0.01847360,-0.00157335,-0.00389116,10.23938274
1691757112448360,0.02342733,-0.00389570,-0.00382124,10.24333954
1691757112453811,0.01399285,0.00622821,-0.00422362,10.24964428
1691757112456351,0.02056463,0.00929182,-0.00441986,10.25624371
1691757112459228,0.06309476,0.06679099,-0.00676830,10.25460339
1691757112462747,0.06982984,0.07440662,-0.00776259,10.21098423
1691757112466427,0.02947028,-0.03148412,-0.00403827,10.28267288
1691757112470282,0.02727142,-0.01464953,-0.00458642,10.25885010
1691757112478020,0.01989618,0.00038079,-0.00509810,10.25192547
1691757112478163,0.01882434,0.00766753,-0.00545159,10.25199032
1691757112481040,0.02720458,0.01424986,-0.00572211,10.27303600
1691757112488876,0.07095473,0.08984125,-0.01014430,10.22878170
1691757112491475,0.02689223,-0.02407349,-0.00606455,10.27551365
1691757112495373,0.02395293,-0.01383564,-0.00648591,10.25080585
