timestamp,roll,pitch,thrust,yaw,aux1,aux2,aux3,aux4
1691752810269683,1495,1520,1257,1528,1000,0,0,0
1691752810273188,1497,1524,1281,1530,1000,0,0,0
1691752810276920,1498,1524,1284,1531,1000,0,0,0
1691752810281149,1498,1524,1284,1531,1000,0,0,0
1691752810284722,1499,1524,1284,1531,1000,0,0,0
1691752810288637,1500,1525,1284,1530,1000,0,0,0
1691752810291101,1540,1555,1255,1533,1000,0,0,0
1691752810295169,1546,1553,1248,1533,1000,0,0,0
1691752810299142,1527,1540,1263,1532,1000,0,0,0
1691752810302745,1513,1534,1272,1532,1000,0,0,0
1691752810306592,1512,1533,1274,1532,1000,0,0,0
1691752810313800,1506,1531,1278,1532,1000,0,0,0
1691752810314082,1505,1530,1280,1531,1000,0,0,0
1691752810320753,1504,1528,1282,1531,1000,0,0,0
1691752810321174,1499,1523,1285,1531,1000,0,0,0
1691752810328982,1500,1526,1283,1530,1000,0,0,0
1691752810332426,1500,1524,1283,1530,1000,0,0,0
1691752810332639,1499,1522,1282,1529,1000,0,0,0
1691752810335004,1498,1520,1282,1529,1000,0,0,0
1691752810338573,1496,1518,1282,1527,1000,0,0,0
1691752810342002,1495,1515,1282,1526,1000,0,0,0
1691752810346013,1493,1511,1281,1525,1000,0,0,0
1691752810349570,1493,1509,1281,1524,1000,0,0,0
1691752810353623,1475,1503,1302,1521,1000,0,0,0
1691752810357762,1467,1486,1316,1520,1000,0,0,0
1691752810361122,1477,1490,1304,1518,1000,0,0,0
1691752810364433,1483,1493,1297,1516,1000,0,0,0
1691752810369357,1487,1493,1294,1515,1000,0,0,0
1691752810371307,1495,1495,1286,1514,1000,0,0,0
1691752810375150,1491,1488,1284,1513,1000,0,0,0
1691752810378717,1493,1484,1280,1512,1000,0,0,0
1691752810383162,1490,1485,1273,1511,1000,0,0,0
1691752810386680,1493,1477,1269,1511,1000,0,0,0
1691752810391009,1497,1475,1263,1510,1000,0,0,0
1691752810393085,1508,1488,1241,1509,1000,0,0,0
1691752810396969,1498,1478,1261,1508,1000,0,0,0
1691752810403502,1506,1483,1246,1508,1000,0,0,0
1691752810404811,1499,1476,1256,1507,1000,0,0,0
1691752810407773,1497,1475,1255,1507,1000,0,0,0
1691752810411308,1505,1486,1234,1506,1000,0,0,0
1691752810415133,1496,1475,1254,1505,1000,0,0,0
1691752810418587,1497,1469,1256,1505,1000,0,0,0
1691752810422353,1497,1472,1253,1504,1000,0,0,0
1691752810426054,1514,1479,1229,1503,1000,0,0,0
1691752810433893,1505,1469,1249,1503,1000,0,0,0
1691752810434184,1503,1469,1250,1502,1000,0,0,0
1691752810437876,1502,1468,1248,1502,1000,0,0,0
1691752810440493,1503,1467,1245,1501,1000,0,0,0
1691752810444275,1502,1472,1246,1501,1000,0,0,0
1691752810447889,1520,1481,1229,1500,1000,0,0,0
1691752810451811,1501,1474,1247,1500,1000,0,0,0
1691752810456008,1475,1436,1237,1501,1000,0,0,0
1691752810459388,1482,1453,1243,1499,1000,0,0,0
1691752810462479,1492,1461,1246,1498,1000,0,0,0
1691752810466990,1498,1466,1248,1497,1000,0,0,0
1691752810469960,1498,1473,1248,1496,1000,0,0,0
1691752810473777,1503,1477,1244,1496,1000,0,0,0
1691752810478620,1579,1511,1201,1497,1000,0,0,0
1691752810480357,1562,1528,1202,1498,1000,0,0,0
1691752810483990,1528,1494,1232,1496,1000,0,0,0
1691752810490078,1486,1485,1258,1496,1000,0,0,0
1691752810491519,1477,1478,1268,1496,1000,0,0,0
1691752810495891,1477,1473,1267,1496,1000,0,0,0
1691752810499501,1482,1478,1261,1495,1000,0,0,0
1691752810502352,1488,1477,1257,1495,1000,0,0,0
1691752810506121,1545,1502,1214,1495,1000,0,0,0
1691752810510180,1632,1519,1166,1499,1000,0,0,0
1691752810523815,1543,1513,1223,1497,1000,0,0,0
1691752810524020,1518,1511,1240,1497,1000,0,0,0
1691752810524284,1468,1489,1266,1498,1000,0,0,0
1691752810524626,1453,1467,1278,1499,1000,0,0,0
1691752810527909,1469,1481,1275,1498,1000,0,0,0
1691752810534389,1509,1504,1248,1498,1000,0,0,0
1691752810536144,1612,1521,1164,1501,1000,0,0,0
1691752810539613,1536,1514,1219,1500,1000,0,0,0
1691752810542680,1512,1509,1236,1500,1000,0,0,0
1691752810546160,1502,1502,1233,1500,1000,0,0,0
1691752810549880,1494,1500,1235,1501,1000,0,0,0
1691752810554000,1495,1499,1230,1502,1000,0,0,0
1691752810556927,1489,1491,1229,1502,1000,0,0,0
1691752810562949,1480,1491,1226,1503,1000,0,0,0
1691752810563935,1480,1499,1225,1503,1000,0,0,0
1691752810567787,1479,1493,1229,1503,1000,0,0,0
1691752810571302,1480,1489,1226,1503,1000,0,0,0
1691752810575156,1474,1496,1225,1503,1000,0,0,0
1691752810578677,1476,1495,1224,1503,1000,0,0,0
1691752810582382,1478,1493,1223,1503,1000,0,0,0
1691752810585821,1478,1502,1225,1503,1000,0,0,0
1691752810589436,1475,1502,1231,1503,1000,0,0,0
1691752810593051,1476,1490,1221,1503,1000,0,0,0
1691752810596980,1477,1490,1226,1503,1000,0,0,0
1691752810602772,1475,1492,1230,1503,1000,0,0,0
1691752810605602,1474,1494,1230,1503,1000,0,0,0
1691752810610409,1477,1495,1231,1503,1000,0,0,0
1691752810612859,1477,1493,1231,1503,1000,0,0,0
1691752810615931,1477,1493,1230,1502,1000,0,0,0
1691752810618955,1470,1489,1241,1502,1000,0,0,0
1691752810622523,1470,1491,1236,1502,1000,0,0,0
1691752810625949,1467,1504,1256,1502,1000,0,0,0
1691752810630435,1470,1505,1256,1501,1000,0,0,0
1691752810635535,1480,1467,1227,1500,1000,0,0,0
1691752810637807,1485,1479,1226,1500,1000,0,0,0
1691752810640435,1490,1487,1232,1500,1000,0,0,0
1691752810644046,1486,1496,1236,1500,1000,0,0,0
1691752810648618,1489,1502,1237,1500,1000,0,0,0
1691752810651946,1489,1496,1239,1500,1000,0,0,0
1691752810654903,1487,1498,1241,1500,1000,0,0,0
1691752810658470,1432,1475,1272,1499,1000,0,0,0
1691752810662381,1453,1479,1272,1498,1000,0,0,0
1691752810666143,1472,1486,1267,1497,1000,0,0,0
1691752810670024,1482,1487,1262,1496,1000,0,0,0
1691752810674460,1490,1488,1254,1496,1000,0,0,0
1691752810677720,1499,1485,1244,1496,1000,0,0,0
1691752810681784,1504,1490,1242,1495,1000,0,0,0
1691752810684095,1527,1483,1235,1495,1000,0,0,0
1691752810688121,1511,1496,1252,1495,1000,0,0,0
1691752810692050,1513,1496,1245,1495,1000,0,0,0
1691752810695689,1510,1501,1250,1495,1000,0,0,0
1691752810698516,1512,1494,1245,1495,1000,0,0,0
1691752810702403,1521,1500,1248,1495,1000,0,0,0
1691752810706768,1517,1491,1247,1495,1000,0,0,0
1691752810710329,1552,1494,1227,1495,1000,0,0,0
1691752810717458,1541,1504,1238,1496,1000,0,0,0
1691752810719302,1535,1504,1244,1496,1000,0,0,0
1691752810720323,1509,1501,1257,1496,1000,0,0,0
1691752810724588,1507,1498,1258,1496,1000,0,0,0
1691752810730494,1510,1498,1257,1496,1000,0,0,0
1691752810732000,1542,1500,1237,1496,1000,0,0,0
1691752810735741,1583,1521,1214,1499,1000,0,0,0
1691752810739032,1554,1520,1236,1499,1000,0,0,0
1691752810742402,1538,1517,1246,1499,1000,0,0,0
1691752810746047,1529,1516,1251,1500,1000,0,0,0
1691752810752047,1523,1515,1253,1500,1000,0,0,0
1691752810754011,1518,1515,1247,1501,1000,0,0,0
1691752810757836,1514,1512,1257,1501,1000,0,0,0
1691752810760333,1512,1509,1257,1501,1000,0,0,0
1691752810764036,1512,1509,1250,1501,1000,0,0,0
1691752810767901,1520,1512,1242,1502,1000,0,0,0
1691752810772525,1514,1515,1249,1502,1000,0,0,0
1691752810775831,1512,1513,1251,1502,1000,0,0,0
1691752810779049,1506,1516,1257,1502,1000,0,0,0
1691752810783196,1506,1514,1257,1502,1000,0,0,0
1691752810785620,1506,1512,1258,1502,1000,0,0,0
1691752810789430,1504,1512,1260,1502,1000,0,0,0
1691752810793566,1501,1512,1260,1502,1000,0,0,0
1691752810797761,1500,1511,1259,1502,1000,0,0,0
1691752810800429,1500,1511,1261,1502,1000,0,0,0
1691752810804023,1501,1510,1263,1502,1000,0,0,0
1691752810808115,1500,1509,1263,1502,1000,0,0,0
1691752810812340,1499,1509,1262,1502,1000,0,0,0
1691752810815853,1500,1510,1263,1502,1000,0,0,0
1691752810819017,1501,1506,1262,1502,1000,0,0,0
1691752810823162,1501,1513,1259,1502,1000,0,0,0
1691752810826024,1501,1507,1258,1502,1000,0,0,0
1691752810829375,1458,1489,1283,1501,1000,0,0,0
1691752810834160,1463,1493,1286,1500,1000,0,0,0
1691752810837157,1470,1499,1284,1499,1000,0,0,0
1691752810841461,1478,1499,1282,1499,1000,0,0,0
1691752810847586,1483,1495,1276,1498,1000,0,0,0
1691752810848069,1489,1495,1272,1498,1000,0,0,0
1691752810852433,1492,1495,1267,1498,1000,0,0,0
1691752810855918,1499,1494,1263,1497,1000,0,0,0
1691752810859007,1567,1528,1223,1500,1000,0,0,0
1691752810862392,1576,1508,1213,1498,1000,0,0,0
1691752810866388,1549,1512,1231,1499,1000,0,0,0
1691752810870097,1489,1499,1273,1498,1000,0,0,0
1691752810873111,1478,1493,1282,1498,1000,0,0,0
1691752810876856,1484,1497,1278,1497,1000,0,0,0
1691752810880375,1484,1493,1274,1497,1000,0,0,0
1691752810884222,1494,1491,1268,1497,1000,0,0,0
1691752810887959,1494,1493,1260,1497,1000,0,0,0
1691752810892587,1499,1494,1257,1497,1000,0,0,0
1691752810895848,1499,1495,1255,1497,1000,0,0,0
1691752810899851,1630,1526,1183,1502,1000,0,0,0
1691752810902328,1555,1517,1225,1500,1000,0,0,0
1691752810906057,1535,1510,1240,1500,1000,0,0,0
1691752810914062,1523,1506,1252,1500,1000,0,0,0
1691752810914430,1512,1506,1260,1500,1000,0,0,0
1691752810918561,1509,1501,1258,1500,1000,0,0,0
1691752810920308,1502,1500,1258,1501,1000,0,0,0
1691752810924424,1500,1504,1252,1501,1000,0,0,0
1691752810928383,1499,1500,1254,1501,1000,0,0,0
1691752810932531,1499,1496,1255,1501,1000,0,0,0
1691752810934899,1499,1491,1252,1501,1000,0,0,0
1691752810939306,1497,1499,1249,1502,1000,0,0,0
1691752810942547,1496,1502,1250,1502,1000,0,0,0
1691752810946150,1501,1500,1248,1502,1000,0,0,0
1691752810950136,1493,1500,1253,1502,1000,0,0,0
1691752810954314,1490,1498,1255,1502,1000,0,0,0
1691752810956874,1493,1493,1254,1502,1000,0,0,0
1691752810960936,1494,1492,1257,1502,1000,0,0,0
1691752810964040,1494,1494,1259,1502,1000,0,0,0
1691752810969431,1471,1492,1276,1502,1000,0,0,0
1691752810971081,1469,1492,1277,1501,1000,0,0,0
1691752810975644,1471,1490,1272,1501,1000,0,0,0
1691752810979282,1476,1491,1267,1501,1000,0,0,0
1691752810982453,1479,1494,1262,1500,1000,0,0,0
1691752810991846,1485,1493,1261,1500,1000,0,0,0
1691752810992058,1486,1494,1256,1500,1000,0,0,0
1691752810999375,1550,1496,1210,1500,1000,0,0,0
1691752811000392,1527,1501,1237,1500,1000,0,0,0
1691752811001887,1512,1505,1247,1500,1000,0,0,0
1691752811004152,1505,1508,1251,1500,1000,0,0,0
1691752811008629,1501,1497,1258,1500,1000,0,0,0
1691752811012434,1502,1495,1261,1500,1000,0,0,0
1691752811014967,1504,1496,1250,1500,1000,0,0,0
1691752811018773,1494,1498,1263,1500,1000,0,0,0
1691752811022981,1494,1496,1259,1500,1000,0,0,0
1691752811026394,1477,1492,1276,1499,1000,0,0,0
1691752811034166,1476,1493,1275,1499,1000,0,0,0
1691752811035296,1478,1494,1269,1499,1000,0,0,0
1691752811040538,1482,1492,1266,1499,1000,0,0,0
1691752811041689,1534,1511,1229,1499,1000,0,0,0
1691752811048638,1527,1497,1245,1499,1000,0,0,0
1691752811048860,1518,1501,1249,1499,1000,0,0,0
1691752811052474,1507,1502,1260,1499,1000,0,0,0
1691752811054872,1506,1500,1259,1499,1000,0,0,0
1691752811058873,1504,1504,1257,1499,1000,0,0,0
1691752811062404,1497,1504,1262,1499,1000,0,0,0
1691752811066450,1503,1503,1256,1499,1000,0,0,0
1691752811070411,1494,1497,1269,1499,1000,0,0,0
1691752811074219,1478,1486,1276,1499,1000,0,0,0
1691752811078563,1481,1487,1274,1499,1000,0,0,0
1691752811081335,1500,1496,1264,1499,1000,0,0,0
1691752811085107,1507,1495,1261,1499,1000,0,0,0
1691752811087747,1528,1499,1238,1499,1000,0,0,0
1691752811092976,1504,1504,1263,1499,1000,0,0,0
1691752811095339,1493,1497,1272,1499,1000,0,0,0
1691752811099434,1517,1503,1252,1499,1000,0,0,0
1691752811103148,1508,1500,1264,1499,1000,0,0,0
1691752811105711,1507,1499,1267,1499,1000,0,0,0
1691752811109402,1508,1498,1263,1499,1000,0,0,0
1691752811113487,1499,1498,1269,1499,1000,0,0,0
1691752811117410,1494,1493,1268,1499,1000,0,0,0
1691752811121408,1501,1494,1266,1499,1000,0,0,0
1691752811124026,1522,1496,1252,1499,1000,0,0,0
1691752811128412,1521,1501,1254,1499,1000,0,0,0
1691752811132044,1518,1502,1257,1499,1000,0,0,0
1691752811135051,1528,1511,1247,1499,1000,0,0,0
1691752811138647,1514,1505,1262,1499,1000,0,0,0
1691752811144050,1509,1497,1262,1499,1000,0,0,0
1691752811146372,1516,1496,1259,1499,1000,0,0,0
1691752811150734,1511,1502,1268,1499,1000,0,0,0
1691752811153208,1512,1501,1265,1499,1000,0,0,0
1691752811156894,1511,1503,1259,1499,1000,0,0,0
1691752811160530,1525,1502,1245,1499,1000,0,0,0
1691752811163991,1526,1504,1243,1500,1000,0,0,0
1691752811167686,1510,1501,1263,1500,1000,0,0,0
1691752811171146,1509,1497,1267,1500,1000,0,0,0
1691752811175004,1510,1498,1266,1500,1000,0,0,0
1691752811181815,1519,1502,1253,1500,1000,0,0,0
1691752811182393,1506,1504,1268,1500,1000,0,0,0
1691752811186495,1521,1506,1253,1500,1000,0,0,0
1691752811190686,1516,1501,1257,1500,1000,0,0,0
1691752811192959,1512,1504,1255,1500,1000,0,0,0
1691752811196999,1510,1503,1261,1501,1000,0,0,0
1691752811200467,1508,1501,1263,1501,1000,0,0,0
1691752811205318,1513,1510,1256,1501,1000,0,0,0
1691752811208433,1506,1505,1268,1501,1000,0,0,0
1691752811213082,1508,1502,1265,1501,1000,0,0,0
1691752811214803,1504,1508,1267,1501,1000,0,0,0
1691752811218541,1504,1503,1262,1501,1000,0,0,0
1691752811222421,1506,1499,1261,1501,1000,0,0,0
1691752811226470,1503,1496,1264,1501,1000,0,0,0
1691752811230444,1501,1498,1263,1501,1000,0,0,0
1691752811233111,1504,1502,1259,1501,1000,0,0,0
1691752811237736,1501,1502,1267,1501,1000,0,0,0
1691752811240358,1498,1497,1273,1501,1000,0,0,0
1691752811244449,1499,1501,1268,1501,1000,0,0,0
1691752811248963,1493,1501,1275,1501,1000,0,0,0
1691752811252509,1508,1502,1253,1501,1000,0,0,0
1691752811254806,1502,1500,1260,1501,1000,0,0,0
1691752811258883,1497,1498,1264,1501,1000,0,0,0
1691752811262475,1502,1502,1263,1501,1000,0,0,0
1691752811266571,1503,1503,1260,1501,1000,0,0,0
1691752811270470,1502,1510,1259,1501,1000,0,0,0
1691752811272956,1501,1505,1263,1501,1000,0,0,0
1691752811276883,1501,1496,1257,1500,1000,0,0,0
1691752811282891,1502,1498,1260,1500,1000,0,0,0
1691752811284543,1496,1501,1267,1500,1000,0,0,0
1691752811288410,1496,1502,1264,1500,1000,0,0,0
1691752811294471,1482,1499,1280,1500,1000,0,0,0
1691752811295102,1489,1498,1269,1500,1000,0,0,0
1691752811298411,1504,1499,1250,1500,1000,0,0,0
1691752811302546,1504,1497,1249,1500,1000,0,0,0
1691752811306483,1497,1497,1259,1500,1000,0,0,0
1691752811310678,1496,1499,1266,1500,1000,0,0,0
1691752811313404,1502,1501,1259,1500,1000,0,0,0
1691752811316793,1491,1506,1270,1500,1000,0,0,0
1691752811320617,1499,1503,1256,1500,1000,0,0,0
1691752811330094,1502,1501,1254,1500,1000,0,0,0
1691752811330381,1496,1501,1259,1500,1000,0,0,0
1691752811332401,1494,1499,1261,1499,1000,0,0,0
1691752811338729,1500,1501,1256,1500,1000,0,0,0
1691752811339331,1495,1500,1263,1499,1000,0,0,0
1691752811343843,1485,1498,1275,1499,1000,0,0,0
1691752811348936,1489,1492,1268,1499,1000,0,0,0
1691752811349507,1490,1491,1266,1499,1000,0,0,0
1691752811353768,1497,1496,1254,1499,1000,0,0,0
1691752811356937,1497,1506,1255,1499,1000,0,0,0
1691752811361658,1500,1504,1255,1499,1000,0,0,0
1691752811364367,1488,1499,1275,1499,1000,0,0,0
1691752811368595,1486,1497,1273,1499,1000,0,0,0
1691752811371339,1494,1506,1256,1499,1000,0,0,0
1691752811375567,1498,1508,1258,1499,1000,0,0,0
1691752811378772,1495,1495,1258,1499,1000,0,0,0
1691752811382389,1485,1492,1269,1499,1000,0,0,0
1691752811386035,1487,1495,1268,1499,1000,0,0,0
1691752811389873,1492,1498,1262,1499,1000,0,0,0
1691752811394036,1505,1498,1243,1499,1000,0,0,0
1691752811397574,1486,1496,1267,1499,1000,0,0,0
1691752811401383,1484,1487,1267,1499,1000,0,0,0
1691752811404078,1492,1493,1267,1498,1000,0,0,0
1691752811407736,1511,1502,1243,1499,1000,0,0,0
1691752811411613,1503,1506,1255,1499,1000,0,0,0
1691752811415669,1486,1498,1273,1499,1000,0,0,0
1691752811420413,1507,1506,1252,1499,1000,0,0,0
1691752811423283,1498,1505,1257,1499,1000,0,0,0
1691752811426823,1490,1494,1262,1498,1000,0,0,0
1691752811429948,1494,1492,1265,1498,1000,0,0,0
1691752811436396,1494,1495,1260,1498,1000,0,0,0
1691752811438398,1485,1491,1266,1498,1000,0,0,0
1691752811441693,1484,1487,1265,1498,1000,0,0,0
1691752811444025,1503,1488,1253,1498,1000,0,0,0
1691752811447833,1502,1497,1257,1498,1000,0,0,0
1691752811453195,1495,1494,1265,1498,1000,0,0,0
1691752811456045,1508,1496,1250,1498,1000,0,0,0
1691752811459360,1525,1515,1239,1499,1000,0,0,0
1691752811464398,1503,1503,1260,1499,1000,0,0,0
1691752811465708,1486,1493,1269,1499,1000,0,0,0
1691752811469811,1487,1488,1266,1499,1000,0,0,0
1691752811473779,1499,1497,1259,1498,1000,0,0,0
1691752811477740,1502,1500,1254,1498,1000,0,0,0
1691752811480387,1494,1491,1260,1498,1000,0,0,0
1691752811486484,1498,1492,1259,1498,1000,0,0,0
1691752811487855,1517,1496,1246,1498,1000,0,0,0
1691752811491720,1514,1501,1251,1499,1000,0,0,0
1691752811495678,1514,1502,1256,1499,1000,0,0,0
1691752811499288,1504,1498,1268,1499,1000,0,0,0
1691752811502793,1502,1497,1262,1499,1000,0,0,0
1691752811507158,1516,1499,1249,1499,1000,0,0,0
1691752811509471,1518,1514,1251,1499,1000,0,0,0
1691752811513851,1508,1511,1257,1499,1000,0,0,0
1691752811517716,1516,1507,1250,1499,1000,0,0,0
1691752811522981,1498,1496,1269,1499,1000,0,0,0
1691752811523907,1496,1493,1267,1499,1000,0,0,0
1691752811527852,1497,1494,1262,1499,1000,0,0,0
1691752811533628,1510,1493,1252,1499,1000,0,0,0
1691752811536805,1497,1497,1262,1499,1000,0,0,0
1691752811540534,1527,1509,1241,1500,1000,0,0,0
1691752811542414,1527,1509,1240,1500,1000,0,0,0
1691752811546014,1506,1501,1266,1500,1000,0,0,0
1691752811549702,1494,1500,1272,1500,1000,0,0,0
1691752811556014,1503,1503,1261,1500,1000,0,0,0
1691752811557657,1507,1499,1258,1500,1000,0,0,0
1691752811562825,1495,1497,1268,1500,1000,0,0,0
1691752811564521,1491,1496,1268,1500,1000,0,0,0
1691752811567732,1505,1493,1257,1500,1000,0,0,0
1691752811571810,1524,1503,1240,1500,1000,0,0,0
1691752811575756,1499,1500,1273,1500,1000,0,0,0
1691752811580996,1495,1499,1274,1500,1000,0,0,0
1691752811582318,1505,1501,1259,1500,1000,0,0,0
1691752811585860,1510,1498,1256,1500,1000,0,0,0
1691752811589703,1496,1497,1268,1500,1000,0,0,0
1691752811593978,1488,1493,1270,1500,1000,0,0,0
1691752811596912,1491,1496,1266,1500,1000,0,0,0
1691752811600808,1512,1499,1254,1500,1000,0,0,0
1691752811604840,1514,1502,1258,1500,1000,0,0,0
1691752811608367,1508,1503,1261,1500,1000,0,0,0
1691752811611529,1497,1504,1269,1500,1000,0,0,0
1691752811616009,1496,1502,1267,1500,1000,0,0,0
1691752811618766,1528,1509,1237,1501,1000,0,0,0
1691752811623055,1515,1506,1250,1500,1000,0,0,0
1691752811627070,1489,1505,1278,1500,1000,0,0,0
1691752811629462,1489,1504,1281,1500,1000,0,0,0
1691752811633140,1498,1500,1266,1500,1000,0,0,0
1691752811637106,1489,1498,1271,1500,1000,0,0,0
1691752811640931,1487,1491,1266,1500,1000,0,0,0
1691752811645452,1504,1498,1259,1500,1000,0,0,0
1691752811648442,1520,1509,1244,1500,1000,0,0,0
1691752811651174,1511,1514,1254,1501,1000,0,0,0
1691752811655081,1497,1501,1270,1500,1000,0,0,0
1691752811659129,1504,1508,1261,1500,1000,0,0,0
1691752811662976,1502,1510,1259,1501,1000,0,0,0
1691752811669576,1485,1501,1278,1500,1000,0,0,0
1691752811669785,1477,1492,1277,1500,1000,0,0,0
1691752811673688,1485,1492,1273,1500,1000,0,0,0
1691752811676838,1488,1498,1268,1500,1000,0,0,0
1691752811681030,1487,1503,1271,1500,1000,0,0,0
1691752811684879,1488,1497,1264,1500,1000,0,0,0
1691752811688522,1491,1493,1264,1500,1000,0,0,0
1691752811691358,1494,1511,1276,1500,1000,0,0,0
1691752811695301,1493,1494,1260,1500,1000,0,0,0
1691752811698970,1495,1494,1260,1500,1000,0,0,0
1691752811702773,1498,1496,1264,1500,1000,0,0,0
1691752811706810,1515,1513,1252,1500,1000,0,0,0
1691752811709318,1510,1516,1256,1500,1000,0,0,0
1691752811713306,1498,1518,1274,1500,1000,0,0,0
1691752811716970,1486,1493,1269,1500,1000,0,0,0
1691752811721038,1490,1490,1267,1500,1000,0,0,0
1691752811724946,1493,1494,1264,1500,1000,0,0,0
1691752811730021,1486,1492,1266,1500,1000,0,0,0
1691752811733098,1506,1500,1255,1500,1000,0,0,0
1691752811734776,1495,1498,1266,1500,1000,0,0,0
1691752811738960,1498,1507,1275,1500,1000,0,0,0
1691752811742949,1505,1497,1249,1500,1000,0,0,0
1691752811746767,1496,1508,1272,1500,1000,0,0,0
1691752811749723,1495,1504,1273,1500,1000,0,0,0
1691752811755688,1492,1503,1270,1500,1000,0,0,0
1691752811756955,1497,1499,1260,1500,1000,0,0,0
1691752811761275,1526,1498,1222,1500,1000,0,0,0
1691752811765086,1497,1502,1273,1500,1000,0,0,0
1691752811767627,1505,1494,1245,1500,1000,0,0,0
1691752811772052,1493,1500,1276,1500,1000,0,0,0
1691752811774920,1497,1504,1269,1500,1000,0,0,0
1691752811780066,1500,1508,1261,1500,1000,0,0,0
1691752811782946,1492,1499,1271,1500,1000,0,0,0
1691752811788582,1486,1492,1269,1500,1000,0,0,0
1691752811789916,1497,1497,1256,1500,1000,0,0,0
1691752811793925,1499,1487,1261,1500,1000,0,0,0
1691752811796650,1495,1488,1262,1500,1000,0,0,0
1691752811801575,1491,1492,1265,1500,1000,0,0,0
1691752811809705,1505,1497,1246,1500,1000,0,0,0
1691752811809981,1510,1495,1247,1500,1000,0,0,0
1691752811811847,1497,1490,1263,1500,1000,0,0,0
1691752811815021,1503,1500,1250,1500,1000,0,0,0
1691752811818449,1494,1499,1262,1500,1000,0,0,0
1691752811822869,1497,1495,1260,1500,1000,0,0,0
1691752811830168,1502,1491,1254,1500,1000,0,0,0
1691752811830487,1501,1492,1253,1500,1000,0,0,0
1691752811833519,1493,1487,1265,1500,1000,0,0,0
1691752811840917,1494,1491,1264,1500,1000,0,0,0
1691752811841367,1492,1486,1263,1500,1000,0,0,0
1691752811845749,1505,1492,1247,1500,1000,0,0,0
1691752811847973,1497,1490,1256,1500,1000,0,0,0
1691752811851936,1495,1488,1260,1500,1000,0,0,0
1691752811854980,1494,1489,1261,1500,1000,0,0,0
1691752811858450,1502,1502,1246,1500,1000,0,0,0
1691752811863347,1498,1487,1257,1500,1000,0,0,0
1691752811866757,1500,1487,1257,1500,1000,0,0,0
1691752811869482,1502,1490,1254,1500,1000,0,0,0
1691752811873219,1492,1470,1246,1500,1000,0,0,0
1691752811877201,1506,1503,1253,1500,1000,0,0,0
1691752811881227,1507,1507,1254,1500,1000,0,0,0
1691752811883996,1495,1478,1251,1500,1000,0,0,0
1691752811887714,1496,1478,1254,1500,1000,0,0,0
1691752811892462,1502,1486,1256,1500,1000,0,0,0
1691752811894839,1518,1511,1251,1500,1000,0,0,0
1691752811898608,1509,1510,1261,1500,1000,0,0,0
1691752811902990,1499,1499,1272,1500,1000,0,0,0
1691752811906872,1482,1476,1256,1500,1000,0,0,0
1691752811909504,1498,1497,1269,1500,1000,0,0,0
1691752811913201,1500,1484,1250,1499,1000,0,0,0
1691752811917181,1501,1491,1254,1499,1000,0,0,0
1691752811921009,1503,1495,1257,1499,1000,0,0,0
1691752811924925,1516,1511,1249,1500,1000,0,0,0
1691752811928426,1499,1493,1265,1499,1000,0,0,0
1691752811931370,1499,1498,1268,1499,1000,0,0,0
1691752811935125,1502,1509,1275,1499,1000,0,0,0
1691752811939182,1493,1490,1258,1499,1000,0,0,0
1691752811943544,1500,1496,1258,1499,1000,0,0,0
1691752811946019,1505,1501,1259,1499,1000,0,0,0
1691752811950235,1518,1515,1252,1499,1000,0,0,0
1691752811953458,1496,1501,1269,1499,1000,0,0,0
1691752811957137,1499,1512,1280,1499,1000,0,0,0
1691752811961154,1496,1493,1262,1499,1000,0,0,0
1691752811965287,1501,1503,1263,1499,1000,0,0,0
1691752811968077,1505,1504,1265,1499,1000,0,0,0
1691752811972094,1507,1502,1261,1499,1000,0,0,0
1691752811977316,1506,1507,1263,1499,1000,0,0,0
1691752811978449,1497,1507,1268,1499,1000,0,0,0
1691752811982472,1501,1511,1267,1499,1000,0,0,0
1691752811986219,1509,1511,1261,1499,1000,0,0,0
1691752811990244,1505,1507,1262,1499,1000,0,0,0
1691752811993834,1501,1508,1266,1499,1000,0,0,0
1691752811996694,1502,1510,1266,1499,1000,0,0,0
1691752812000425,1501,1494,1264,1499,1000,0,0,0
1691752812004096,1505,1505,1263,1499,1000,0,0,0
1691752812008067,1501,1503,1267,1499,1000,0,0,0
1691752812012481,1508,1527,1268,1499,1000,0,0,0
1691752812014986,1502,1503,1263,1499,1000,0,0,0
1691752812019668,1503,1505,1261,1499,1000,0,0,0
1691752812023802,1504,1506,1260,1499,1000,0,0,0
1691752812026347,1518,1522,1250,1500,1000,0,0,0
1691752812030007,1502,1518,1279,1499,1000,0,0,0
1691752812034363,1493,1495,1264,1499,1000,0,0,0
1691752812037106,1503,1513,1270,1499,1000,0,0,0
1691752812041338,1503,1506,1255,1499,1000,0,0,0
1691752812044978,1495,1502,1262,1499,1000,0,0,0
1691752812050040,1512,1525,1259,1500,1000,0,0,0
1691752812051290,1511,1522,1263,1500,1000,0,0,0
1691752812055650,1503,1509,1273,1499,1000,0,0,0
1691752812059730,1498,1506,1271,1499,1000,0,0,0
1691752812064280,1505,1511,1258,1500,1000,0,0,0
1691752812066607,1497,1504,1268,1500,1000,0,0,0
1691752812069473,1505,1507,1254,1500,1000,0,0,0
1691752812073597,1508,1507,1255,1500,1000,0,0,0
1691752812077345,1498,1504,1265,1500,1000,0,0,0
1691752812081435,1495,1500,1270,1500,1000,0,0,0
1691752812083970,1495,1499,1266,1500,1000,0,0,0
1691752812088095,1504,1506,1252,1500,1000,0,0,0
1691752812092490,1500,1504,1261,1500,1000,0,0,0
1691752812094807,1500,1503,1261,1500,1000,0,0,0
1691752812098905,1508,1510,1251,1500,1000,0,0,0
1691752812102391,1499,1505,1261,1500,1000,0,0,0
1691752812108611,1493,1494,1268,1500,1000,0,0,0
1691752812110352,1496,1490,1265,1500,1000,0,0,0
1691752812114832,1509,1501,1246,1500,1000,0,0,0
1691752812116772,1500,1508,1254,1500,1000,0,0,0
1691752812120401,1492,1509,1262,1500,1000,0,0,0
1691752812124473,1491,1493,1269,1500,1000,0,0,0
1691752812128190,1495,1490,1262,1500,1000,0,0,0
1691752812131240,1502,1504,1249,1500,1000,0,0,0
1691752812136097,1503,1505,1249,1500,1000,0,0,0
1691752812146889,1494,1495,1268,1500,1000,0,0,0
1691752812147189,1495,1502,1255,1500,1000,0,0,0
1691752812149308,1493,1491,1263,1500,1000,0,0,0
1691752812153341,1496,1490,1262,1500,1000,0,0,0
1691752812157656,1496,1493,1259,1500,1000,0,0,0
1691752812161334,1493,1495,1265,1500,1000,0,0,0
1691752812163946,1498,1507,1253,1500,1000,0,0,0
1691752812168664,1500,1503,1254,1500,1000,0,0,0
1691752812171972,1493,1493,1266,1500,1000,0,0,0
1691752812174986,1500,1500,1255,1500,1000,0,0,0
1691752812179123,1502,1500,1252,1500,1000,0,0,0
1691752812182520,1501,1505,1255,1500,1000,0,0,0
1691752812186386,1491,1494,1270,1500,1000,0,0,0
1691752812190474,1488,1492,1269,1500,1000,0,0,0
1691752812194591,1493,1489,1261,1500,1000,0,0,0
1691752812197229,1502,1499,1250,1500,1000,0,0,0
1691752812201445,1500,1501,1254,1500,1000,0,0,0
1691752812206107,1497,1501,1259,1500,1000,0,0,0
1691752812207837,1492,1493,1271,1500,1000,0,0,0
1691752812211408,1493,1501,1261,1500,1000,0,0,0
1691752812215394,1494,1500,1257,1500,1000,0,0,0
1691752812219449,1498,1496,1259,1500,1000,0,0,0
1691752812223016,1498,1498,1259,1500,1000,0,0,0
1691752812225972,1494,1498,1262,1500,1000,0,0,0
1691752812229454,1493,1497,1261,1500,1000,0,0,0
1691752812233465,1499,1493,1260,1500,1000,0,0,0
1691752812237447,1499,1496,1258,1500,1000,0,0,0
1691752812242990,1496,1500,1257,1500,1000,0,0,0
1691752812244437,1496,1498,1260,1500,1000,0,0,0
1691752812248409,1495,1493,1266,1500,1000,0,0,0
1691752812252072,1495,1496,1264,1500,1000,0,0,0
1691752812254928,1496,1501,1258,1500,1000,0,0,0
1691752812259334,1500,1499,1257,1500,1000,0,0,0
1691752812262473,1500,1495,1258,1500,1000,0,0,0
1691752812267406,1496,1496,1264,1500,1000,0,0,0
1691752812270703,1493,1497,1264,1500,1000,0,0,0
1691752812275082,1494,1495,1259,1500,1000,0,0,0
1691752812277487,1498,1496,1257,1500,1000,0,0,0
1691752812281105,1498,1497,1257,1500,1000,0,0,0
1691752812283951,1496,1496,1263,1500,1000,0,0,0
1691752812289268,1494,1498,1261,1500,1000,0,0,0
1691752812291389,1496,1496,1259,1500,1000,0,0,0
1691752812295481,1499,1496,1258,1500,1000,0,0,0
1691752812299306,1499,1499,1256,1500,1000,0,0,0
1691752812303386,1499,1499,1259,1500,1000,0,0,0
1691752812306447,1495,1498,1264,1500,1000,0,0,0
1691752812309632,1491,1492,1269,1500,1000,0,0,0
1691752812313492,1502,1497,1252,1500,1000,0,0,0
1691752812319576,1504,1503,1255,1500,1000,0,0,0
1691752812321085,1500,1502,1257,1500,1000,0,0,0
1691752812324949,1497,1497,1261,1500,1000,0,0,0
1691752812328634,1495,1499,1262,1500,1000,0,0,0
1691752812331774,1498,1498,1260,1500,1000,0,0,0
1691752812337480,1502,1497,1255,1500,1000,0,0,0
1691752812339390,1501,1500,1257,1500,1000,0,0,0
1691752812342497,1497,1498,1263,1500,1000,0,0,0
1691752812349316,1494,1501,1261,1500,1000,0,0,0
1691752812350183,1508,1506,1248,1500,1000,0,0,0
1691752812356195,1501,1496,1261,1500,1000,0,0,0
1691752812360618,1499,1499,1260,1500,1000,0,0,0
1691752812361473,1497,1501,1260,1500,1000,0,0,0
1691752812363714,1496,1497,1264,1500,1000,0,0,0
1691752812373137,1508,1502,1250,1500,1000,0,0,0
1691752812373415,1501,1498,1262,1500,1000,0,0,0
1691752812375208,1500,1498,1261,1500,1000,0,0,0
1691752812378722,1497,1501,1259,1500,1000,0,0,0
1691752812382523,1496,1503,1262,1500,1000,0,0,0
1691752812386540,1496,1504,1262,1500,1000,0,0,0
1691752812390556,1498,1500,1258,1500,1000,0,0,0
1691752812393323,1502,1499,1257,1499,1000,0,0,0
1691752812397549,1502,1502,1256,1499,1000,0,0,0
1691752812401318,1500,1500,1260,1499,1000,0,0,0
1691752812404134,1497,1497,1264,1499,1000,0,0,0
1691752812407786,1497,1495,1262,1499,1000,0,0,0
1691752812411603,1509,1504,1250,1500,1000,0,0,0
1691752812415554,1502,1499,1263,1499,1000,0,0,0
1691752812419492,1499,1498,1262,1499,1000,0,0,0
1691752812422026,1498,1500,1260,1499,1000,0,0,0
1691752812425946,1497,1499,1265,1499,1000,0,0,0
1691752812429726,1497,1499,1264,1499,1000,0,0,0
1691752812433584,1508,1506,1251,1500,1000,0,0,0
1691752812437721,1500,1500,1262,1499,1000,0,0,0
1691752812441175,1499,1500,1262,1499,1000,0,0,0
1691752812448137,1499,1499,1262,1499,1000,0,0,0
1691752812448470,1498,1500,1261,1499,1000,0,0,0
1691752812451622,1496,1500,1266,1499,1000,0,0,0
1691752812462372,1508,1505,1255,1500,1000,0,0,0
1691752812462573,1499,1498,1263,1499,1000,0,0,0
1691752812463158,1499,1499,1262,1499,1000,0,0,0
1691752812466455,1500,1499,1260,1499,1000,0,0,0
1691752812470423,1500,1501,1262,1499,1000,0,0,0
1691752812473073,1497,1504,1262,1499,1000,0,0,0
1691752812477334,1496,1505,1263,1499,1000,0,0,0
1691752812480584,1500,1497,1261,1499,1000,0,0,0
1691752812484773,1503,1500,1260,1499,1000,0,0,0
1691752812488624,1499,1502,1259,1499,1000,0,0,0
1691752812491190,1495,1501,1265,1499,1000,0,0,0
1691752812495106,1509,1507,1251,1500,1000,0,0,0
1691752812498971,1501,1499,1262,1499,1000,0,0,0
1691752812502616,1498,1499,1260,1499,1000,0,0,0
1691752812506508,1494,1500,1263,1499,1000,0,0,0
1691752812510488,1496,1499,1262,1499,1000,0,0,0
1691752812513316,1510,1503,1247,1499,1000,0,0,0
1691752812520895,1499,1501,1262,1499,1000,0,0,0
1691752812521206,1497,1502,1259,1499,1000,0,0,0
1691752812524569,1498,1501,1262,1499,1000,0,0,0
1691752812527992,1496,1504,1259,1499,1000,0,0,0
1691752812531153,1500,1503,1258,1499,1000,0,0,0
1691752812535212,1502,1503,1255,1499,1000,0,0,0
1691752812542520,1501,1503,1259,1499,1000,0,0,0
1691752812542754,1497,1501,1262,1499,1000,0,0,0
1691752812548010,1495,1497,1263,1499,1000,0,0,0
1691752812550359,1499,1495,1259,1499,1000,0,0,0
1691752812553219,1504,1494,1258,1499,1000,0,0,0
1691752812556789,1501,1500,1255,1499,1000,0,0,0
1691752812561152,1500,1499,1256,1499,1000,0,0,0
1691752812564698,1498,1499,1262,1499,1000,0,0,0
1691752812567414,1498,1498,1260,1499,1000,0,0,0
1691752812579833,1509,1506,1249,1499,1000,0,0,0
1691752812580054,1500,1502,1264,1499,1000,0,0,0
1691752812580337,1509,1508,1253,1499,1000,0,0,0
1691752812583029,1507,1508,1253,1499,1000,0,0,0
1691752812586780,1495,1500,1268,1499,1000,0,0,0
1691752812590518,1492,1497,1266,1499,1000,0,0,0
1691752812593160,1495,1494,1260,1499,1000,0,0,0
1691752812597790,1499,1497,1256,1499,1000,0,0,0
1691752812600398,1497,1500,1257,1499,1000,0,0,0
1691752812604101,1498,1502,1260,1499,1000,0,0,0
1691752812607900,1499,1494,1203,1499,1000,0,0,0
1691752812611944,1501,1487,1196,1499,1000,0,0,0
1691752812615669,1504,1486,1195,1499,1000,0,0,0
1691752812619593,1505,1491,1194,1499,1000,0,0,0
1691752812622380,1499,1490,1198,1499,1000,0,0,0
1691752812625891,1497,1492,1197,1499,1000,0,0,0
1691752812629747,1497,1494,1196,1499,1000,0,0,0
1691752812633737,1501,1491,1195,1499,1000,0,0,0
1691752812637832,1501,1493,1197,1499,1000,0,0,0
1691752812641264,1500,1492,1197,1499,1000,0,0,0
1691752812644229,1501,1491,1199,1499,1000,0,0,0
1691752812647846,1522,1511,1184,1500,1000,0,0,0
1691752812651845,1503,1495,1204,1499,1000,0,0,0
1691752812655812,1498,1489,1208,1499,1000,0,0,0
1691752812659403,1497,1492,1212,1499,1000,0,0,0
1691752812662350,1498,1491,1210,1499,1000,0,0,0
1691752812665969,1499,1493,1210,1499,1000,0,0,0
1691752812669879,1514,1511,1198,1499,1000,0,0,0
1691752812673802,1509,1503,1207,1499,1000,0,0,0
1691752812677558,1500,1494,1220,1499,1000,0,0,0
1691752812680592,1496,1495,1223,1499,1000,0,0,0
1691752812684419,1497,1495,1224,1499,1000,0,0,0
1691752812687862,1498,1495,1225,1499,1000,0,0,0
1691752812692012,1506,1504,1217,1499,1000,0,0,0
1691752812695908,1507,1508,1220,1499,1000,0,0,0
1691752812698745,1504,1503,1225,1499,1000,0,0,0
1691752812704109,1504,1502,1229,1499,1000,0,0,0
1691752812705964,1498,1498,1235,1499,1000,0,0,0
1691752812709786,1501,1503,1233,1499,1000,0,0,0
1691752812713897,1496,1499,1238,1499,1000,0,0,0
1691752812716619,1495,1500,1240,1499,1000,0,0,0
1691752812720811,1496,1499,1240,1499,1000,0,0,0
1691752812723947,1496,1501,1241,1499,1000,0,0,0
1691752812727652,1498,1502,1242,1499,1000,0,0,0
1691752812731471,1498,1501,1242,1499,1000,0,0,0
1691752812734971,1502,1506,1240,1499,1000,0,0,0
1691752812738552,1502,1507,1241,1499,1000,0,0,0
1691752812742700,1502,1506,1243,1499,1000,0,0,0
1691752812747046,1501,1506,1245,1499,1000,0,0,0
1691752812749910,1500,1507,1246,1499,1000,0,0,0
1691752812752951,1500,1506,1247,1499,1000,0,0,0
1691752812756927,1497,1503,1249,1499,1000,0,0,0
1691752812760976,1497,1503,1250,1499,1000,0,0,0
1691752812764993,1497,1504,1250,1499,1000,0,0,0
1691752812768546,1497,1504,1251,1499,1000,0,0,0
1691752812771317,1499,1506,1250,1499,1000,0,0,0
1691752812774938,1498,1501,1253,1499,1000,0,0,0
1691752812779322,1498,1500,1254,1499,1000,0,0,0
1691752812783052,1498,1501,1254,1499,1000,0,0,0
1691752812786169,1498,1502,1254,1499,1000,0,0,0
1691752812790058,1500,1506,1253,1499,1000,0,0,0
1691752812793830,1501,1506,1253,1499,1000,0,0,0
1691752812797635,1501,1506,1254,1499,1000,0,0,0
1691752812800415,1497,1500,1261,1499,1000,0,0,0
1691752812804201,1497,1500,1263,1499,1000,0,0,0
1691752812808013,1496,1500,1262,1499,1000,0,0,0
1691752812814889,1497,1501,1261,1499,1000,0,0,0
1691752812815867,1498,1502,1260,1499,1000,0,0,0
1691752812818486,1500,1506,1257,1499,1000,0,0,0
1691752812822337,1500,1507,1257,1499,1000,0,0,0
1691752812826270,1497,1503,1262,1499,1000,0,0,0
1691752812830063,1497,1505,1261,1499,1000,0,0,0
1691752812833960,1500,1507,1258,1499,1000,0,0,0
1691752812837763,1499,1504,1260,1499,1000,0,0,0
1691752812840499,1499,1505,1260,1499,1000,0,0,0
1691752812844138,1501,1506,1258,1499,1000,0,0,0
1691752812848056,1497,1501,1264,1499,1000,0,0,0
1691752812851893,1496,1500,1264,1499,1000,0,0,0
1691752812855631,1498,1500,1263,1499,1000,0,0,0
1691752812859842,1499,1501,1262,1499,1000,0,0,0
1691752812862357,1500,1506,1258,1499,1000,0,0,0
1691752812866117,1497,1501,1262,1499,1000,0,0,0
1691752812869923,1497,1502,1262,1499,1000,0,0,0
1691752812873981,1500,1505,1258,1499,1000,0,0,0
1691752812877677,1499,1502,1260,1499,1000,0,0,0
1691752812880666,1500,1505,1257,1499,1000,0,0,0
1691752812884782,1501,1505,1256,1499,1000,0,0,0
1691752812888526,1498,1500,1261,1499,1000,0,0,0
1691752812891845,1501,1503,1258,1499,1000,0,0,0
1691752812896246,1499,1500,1260,1499,1000,0,0,0
1691752812898623,1499,1502,1259,1499,1000,0,0,0
1691752812904500,1501,1505,1256,1499,1000,0,0,0
1691752812905866,1498,1502,1260,1499,1000,0,0,0
1691752812913271,1500,1503,1257,1499,1000,0,0,0
1691752812917555,1499,1499,1260,1499,1000,0,0,0
1691752812917821,1499,1497,1260,1499,1000,0,0,0
1691752812923928,1499,1499,1259,1499,1000,0,0,0
1691752812925679,1498,1497,1260,1499,1000,0,0,0
1691752812927475,1498,1499,1260,1499,1000,0,0,0
1691752812935068,1499,1497,1259,1499,1000,0,0,0
1691752812935294,1499,1499,1257,1499,1000,0,0,0
1691752812939096,1500,1500,1257,1499,1000,0,0,0
1691752812943292,1501,1502,1255,1499,1000,0,0,0
1691752812945794,1499,1499,1257,1499,1000,0,0,0
1691752812950114,1498,1499,1258,1499,1000,0,0,0
1691752812954102,1500,1498,1257,1499,1000,0,0,0
1691752812966142,1500,1498,1257,1499,1000,0,0,0
1691752812966686,1499,1498,1257,1499,1000,0,0,0
1691752812968200,1499,1498,1257,1499,1000,0,0,0
1691752812972093,1501,1496,1257,1499,1000,0,0,0
1691752812979015,1500,1500,1255,1499,1000,0,0,0
1691752812979583,1500,1501,1255,1499,1000,0,0,0
1691752812982322,1500,1499,1255,1499,1000,0,0,0
1691752812989455,1501,1499,1256,1499,1000,0,0,0
1691752812989984,1503,1500,1254,1499,1000,0,0,0
1691752812996848,1502,1497,1255,1499,1000,0,0,0
1691752812997065,1504,1499,1254,1499,1000,0,0,0
1691752813001066,1504,1500,1253,1499,1000,0,0,0
1691752813005039,1501,1496,1256,1499,1000,0,0,0
1691752813011746,1500,1494,1257,1499,1000,0,0,0
1691752813011991,1501,1493,1257,1499,1000,0,0,0
1691752813015636,1501,1495,1256,1499,1000,0,0,0
1691752813019263,1500,1497,1255,1499,1000,0,0,0
1691752813023552,1501,1496,1255,1499,1000,0,0,0
1691752813026852,1502,1494,1257,1499,1000,0,0,0
1691752813029449,1500,1496,1256,1499,1000,0,0,0
1691752813033472,1502,1498,1254,1499,1000,0,0,0
1691752813036981,1502,1495,1255,1499,1000,0,0,0
1691752813041180,1501,1497,1255,1499,1000,0,0,0
1691752813045786,1501,1498,1255,1499,1000,0,0,0
1691752813048161,1501,1495,1256,1499,1000,0,0,0
1691752813052000,1500,1496,1256,1499,1000,0,0,0
1691752813055999,1501,1497,1255,1499,1000,0,0,0
1691752813058678,1501,1497,1255,1499,1000,0,0,0
1691752813062023,1502,1496,1255,1499,1000,0,0,0
1691752813066161,1503,1500,1254,1499,1000,0,0,0
1691752813070166,1501,1496,1256,1499,1000,0,0,0
1691752813074759,1501,1495,1256,1499,1000,0,0,0
1691752813077415,1502,1494,1256,1499,1000,0,0,0
1691752813080494,1502,1496,1256,1499,1000,0,0,0
1691752813084417,1503,1499,1254,1499,1000,0,0,0
1691752813092588,1504,1499,1253,1499,1000,0,0,0
1691752813092775,1501,1496,1256,1499,1000,0,0,0
1691752813094719,1500,1496,1256,1499,1000,0,0,0
1691752813098522,1500,1499,1255,1499,1000,0,0,0
1691752813105300,1501,1498,1255,1499,1000,0,0,0
1691752813105559,1504,1500,1253,1499,1000,0,0,0
1691752813110036,1502,1499,1255,1499,1000,0,0,0
1691752813113147,1500,1497,1256,1499,1000,0,0,0
1691752813117252,1503,1499,1254,1499,1000,0,0,0
1691752813121403,1503,1491,1257,1499,1000,0,0,0
1691752813124937,1501,1493,1257,1499,1000,0,0,0
1691752813127609,1500,1495,1256,1499,1000,0,0,0
1691752813131408,1503,1498,1255,1499,1000,0,0,0
1691752813135196,1500,1495,1257,1499,1000,0,0,0
1691752813139435,1500,1494,1258,1499,1000,0,0,0
1691752813142023,1499,1495,1258,1499,1000,0,0,0
1691752813145797,1499,1498,1256,1499,1000,0,0,0
1691752813149445,1500,1497,1257,1499,1000,0,0,0
1691752813153268,1500,1497,1257,1499,1000,0,0,0
1691752813157357,1501,1496,1257,1499,1000,0,0,0
1691752813161280,1499,1496,1258,1499,1000,0,0,0
1691752813167011,1498,1496,1259,1499,1000,0,0,0
1691752813168246,1498,1496,1258,1499,1000,0,0,0
1691752813173375,1499,1497,1258,1499,1000,0,0,0
1691752813175099,1500,1498,1258,1499,1000,0,0,0
1691752813179287,1500,1501,1256,1499,1000,0,0,0
1691752813182521,1499,1499,1258,1499,1000,0,0,0
1691752813185811,1498,1498,1259,1499,1000,0,0,0
1691752813190220,1498,1498,1259,1499,1000,0,0,0
1691752813193078,1499,1497,1259,1499,1000,0,0,0
1691752813197075,1500,1502,1256,1500,1000,0,0,0
1691752813200487,1499,1500,1258,1499,1000,0,0,0
1691752813204749,1497,1498,1259,1499,1000,0,0,0
1691752813208219,1497,1498,1260,1499,1000,0,0,0
1691752813212469,1498,1498,1259,1499,1000,0,0,0
1691752813214929,1498,1499,1258,1499,1000,0,0,0
1691752813221927,1499,1502,1256,1500,1000,0,0,0
1691752813222851,1498,1501,1257,1499,1000,0,0,0
1691752813225758,1497,1500,1258,1499,1000,0,0,0
1691752813229471,1499,1503,1256,1500,1000,0,0,0
1691752813233385,1498,1498,1259,1499,1000,0,0,0
1691752813237208,1498,1498,1259,1499,1000,0,0,0
1691752813243662,1498,1499,1258,1499,1000,0,0,0
1691752813244079,1497,1499,1259,1499,1000,0,0,0
1691752813247694,1496,1498,1259,1499,1000,0,0,0
1691752813251292,1497,1499,1258,1499,1000,0,0,0
1691752813255294,1498,1500,1257,1499,1000,0,0,0
1691752813259404,1500,1503,1256,1500,1000,0,0,0
1691752813263146,1497,1500,1257,1499,1000,0,0,0
1691752813270280,1496,1500,1258,1499,1000,0,0,0
1691752813270924,1497,1500,1257,1499,1000,0,0,0
1691752813275525,1498,1500,1257,1499,1000,0,0,0
1691752813277923,1497,1502,1256,1499,1000,0,0,0
1691752813280234,1496,1501,1257,1499,1000,0,0,0
1691752813284454,1496,1501,1257,1499,1000,0,0,0
1691752813288474,1499,1502,1255,1500,1000,0,0,0
1691752813292028,1498,1503,1255,1499,1000,0,0,0
1691752813296915,1497,1503,1255,1499,1000,0,0,0
1691752813298720,1500,1505,1254,1499,1000,0,0,0
1691752813302493,1498,1500,1256,1499,1000,0,0,0
1691752813306299,1496,1501,1256,1499,1000,0,0,0
1691752813310820,1497,1500,1256,1499,1000,0,0,0
1691752813317466,1500,1503,1254,1499,1000,0,0,0
1691752813317691,1499,1504,1254,1499,1000,0,0,0
1691752813320715,1497,1501,1255,1499,1000,0,0,0
1691752813323994,1497,1500,1256,1499,1000,0,0,0
1691752813328549,1499,1502,1254,1499,1000,0,0,0
1691752813332088,1497,1500,1255,1499,1000,0,0,0
1691752813334857,1497,1501,1255,1499,1000,0,0,0
1691752813338543,1499,1503,1254,1499,1000,0,0,0
1691752813342521,1497,1500,1255,1499,1000,0,0,0
1691752813346394,1496,1501,1255,1499,1000,0,0,0
1691752813350579,1496,1500,1255,1499,1000,0,0,0
1691752813353288,1497,1500,1255,1499,1000,0,0,0
1691752813357870,1499,1503,1254,1499,1000,0,0,0
1691752813361281,1499,1504,1253,1500,1000,0,0,0
1691752813363966,1497,1501,1255,1499,1000,0,0,0
1691752813368451,1497,1501,1255,1499,1000,0,0,0
1691752813372054,1496,1502,1255,1499,1000,0,0,0
1691752813374935,1497,1501,1255,1499,1000,0,0,0
1691752813378717,1498,1501,1255,1499,1000,0,0,0
1691752813382439,1500,1503,1253,1500,1000,0,0,0
1691752813386431,1497,1502,1255,1499,1000,0,0,0
1691752813390379,1497,1501,1255,1499,1000,0,0,0
1691752813393041,1497,1501,1255,1499,1000,0,0,0
1691752813396989,1498,1500,1255,1499,1000,0,0,0
1691752813400808,1498,1501,1255,1499,1000,0,0,0
1691752813404423,1498,1501,1255,1500,1000,0,0,0
1691752813408528,1500,1503,1253,1500,1000,0,0,0
1691752813412533,1498,1504,1254,1499,1000,0,0,0
1691752813414876,1498,1504,1255,1499,1000,0,0,0
1691752813418461,1500,1503,1254,1499,1000,0,0,0
1691752813422452,1499,1500,1255,1499,1000,0,0,0
1691752813426517,1499,1501,1255,1499,1000,0,0,0
1691752813430534,1500,1503,1254,1499,1000,0,0,0
1691752813433980,1501,1503,1254,1499,1000,0,0,0
1691752813437215,1499,1500,1256,1499,1000,0,0,0
1691752813440373,1498,1499,1256,1499,1000,0,0,0
1691752813444602,1500,1501,1255,1499,1000,0,0,0
1691752813448381,1500,1499,1256,1499,1000,0,0,0
1691752813452483,1499,1499,1256,1499,1000,0,0,0
1691752813454798,1499,1500,1256,1499,1000,0,0,0
1691752813460053,1500,1499,1256,1499,1000,0,0,0
1691752813462517,1499,1499,1257,1499,1000,0,0,0
1691752813466411,1498,1500,1257,1500,1000,0,0,0
1691752813470439,1499,1501,1256,1499,1000,0,0,0
1691752813473113,1500,1501,1256,1499,1000,0,0,0
1691752813476864,1503,1503,1255,1499,1000,0,0,0
1691752813480687,1502,1504,1255,1499,1000,0,0,0
1691752813484542,1500,1500,1257,1499,1000,0,0,0
1691752813488520,1500,1500,1257,1499,1000,0,0,0
1691752813492564,1501,1500,1257,1499,1000,0,0,0
1691752813494917,1501,1497,1258,1499,1000,0,0,0
1691752813499101,1501,1498,1257,1499,1000,0,0,0
1691752813504565,1500,1497,1258,1499,1000,0,0,0
1691752813506462,1500,1497,1258,1499,1000,0,0,0
1691752813510481,1503,1499,1256,1499,1000,0,0,0
1691752813513065,1502,1497,1258,1499,1000,0,0,0
1691752813516826,1501,1499,1257,1499,1000,0,0,0
1691752813520776,1501,1499,1257,1499,1000,0,0,0
1691752813524597,1500,1498,1258,1499,1000,0,0,0
1691752813528839,1500,1498,1258,1499,1000,0,0,0
1691752813532565,1502,1501,1256,1499,1000,0,0,0
1691752813535061,1501,1499,1257,1499,1000,0,0,0
1691752813538922,1502,1501,1256,1499,1000,0,0,0
1691752813542712,1503,1502,1255,1499,1000,0,0,0
1691752813547346,1501,1498,1258,1499,1000,0,0,0
1691752813550292,1500,1498,1258,1499,1000,0,0,0
1691752813553555,1500,1498,1257,1499,1000,0,0,0
1691752813557452,1501,1498,1257,1499,1000,0,0,0
1691752813561499,1503,1501,1256,1499,1000,0,0,0
1691752813563986,1501,1498,1257,1499,1000,0,0,0
1691752813567900,1499,1499,1258,1499,1000,0,0,0
1691752813571349,1502,1501,1256,1499,1000,0,0,0
1691752813575622,1501,1498,1258,1499,1000,0,0,0
1691752813578492,1501,1499,1257,1499,1000,0,0,0
1691752813582168,1501,1500,1257,1499,1000,0,0,0
1691752813585988,1500,1500,1257,1499,1000,0,0,0
1691752813590273,1500,1498,1258,1499,1000,0,0,0
1691752813593121,1501,1501,1256,1499,1000,0,0,0
1691752813598461,1501,1499,1257,1499,1000,0,0,0
1691752813603998,1501,1499,1257,1499,1000,0,0,0
1691752813605264,1502,1501,1256,1499,1000,0,0,0
1691752813608628,1500,1499,1257,1499,1000,0,0,0
1691752813611255,1500,1499,1258,1499,1000,0,0,0
1691752813615633,1502,1501,1256,1499,1000,0,0,0
1691752813619521,1501,1500,1257,1499,1000,0,0,0
1691752813622115,1500,1501,1257,1499,1000,0,0,0
1691752813625779,1503,1503,1256,1499,1000,0,0,0
1691752813629566,1501,1498,1258,1499,1000,0,0,0
1691752813633639,1499,1498,1258,1499,1000,0,0,0
1691752813638465,1500,1497,1258,1499,1000,0,0,0
1691752813640279,1501,1498,1258,1499,1000,0,0,0
1691752813644674,1500,1499,1257,1499,1000,0,0,0
1691752813647620,1499,1498,1258,1499,1000,0,0,0
1691752813651138,1499,1498,1258,1499,1000,0,0,0
1691752813655070,1502,1500,1256,1499,1000,0,0,0
1691752813658546,1500,1498,1257,1499,1000,0,0,0
1691752813662174,1500,1499,1257,1499,1000,0,0,0
1691752813666464,1501,1501,1256,1499,1000,0,0,0
1691752813669634,1500,1498,1258,1499,1000,0,0,0
1691752813673807,1498,1498,1258,1499,1000,0,0,0
1691752813677926,1498,1498,1257,1499,1000,0,0,0
1691752813680430,1500,1497,1257,1499,1000,0,0,0
1691752813684651,1499,1499,1257,1499,1000,0,0,0
1691752813687826,1499,1500,1256,1499,1000,0,0,0
1691752813691817,1498,1499,1257,1499,1000,0,0,0
1691752813695797,1498,1501,1256,1499,1000,0,0,0
1691752813702589,1499,1501,1256,1499,1000,0,0,0
1691752813703329,1499,1501,1256,1499,1000,0,0,0
1691752813706233,1500,1500,1256,1499,1000,0,0,0
1691752813709890,1499,1500,1256,1499,1000,0,0,0
1691752813713739,1498,1500,1256,1499,1000,0,0,0
1691752813716738,1498,1500,1256,1499,1000,0,0,0
1691752813720631,1501,1499,1256,1499,1000,0,0,0
1691752813723951,1500,1497,1257,1499,1000,0,0,0
1691752813729866,1499,1498,1257,1499,1000,0,0,0
1691752813731557,1498,1499,1256,1499,1000,0,0,0
1691752813735919,1498,1498,1258,1499,1000,0,0,0
1691752813739447,1498,1499,1257,1499,1000,0,0,0
1691752813742004,1498,1498,1257,1499,1000,0,0,0
1691752813745942,1499,1498,1257,1499,1000,0,0,0
1691752813750004,1500,1500,1256,1499,1000,0,0,0
1691752813753805,1499,1501,1255,1499,1000,0,0,0
1691752813756655,1498,1498,1257,1499,1000,0,0,0
1691752813762875,1498,1496,1258,1499,1000,0,0,0
1691752813764679,1498,1496,1258,1499,1000,0,0,0
1691752813768059,1498,1498,1257,1499,1000,0,0,0
1691752813771364,1498,1498,1257,1499,1000,0,0,0
1691752813775080,1497,1497,1258,1499,1000,0,0,0
1691752813778813,1497,1497,1258,1499,1000,0,0,0
1691752813783066,1498,1500,1256,1499,1000,0,0,0
1691752813786847,1498,1498,1257,1499,1000,0,0,0
1691752813791007,1499,1500,1256,1499,1000,0,0,0
1691752813796468,1499,1501,1256,1499,1000,0,0,0
1691752813797428,1497,1498,1257,1499,1000,0,0,0
1691752813800171,1497,1498,1258,1499,1000,0,0,0
1691752813804060,1498,1500,1256,1499,1000,0,0,0
1691752813808066,1498,1498,1257,1499,1000,0,0,0
1691752813811855,1499,1500,1256,1499,1000,0,0,0
1691752813815838,1499,1501,1255,1499,1000,0,0,0
1691752813818809,1497,1498,1257,1499,1000,0,0,0
1691752813822154,1496,1500,1257,1499,1000,0,0,0
1691752813825595,1497,1499,1257,1499,1000,0,0,0
1691752813829858,1498,1500,1256,1499,1000,0,0,0
1691752813833945,1499,1502,1255,1499,1000,0,0,0
1691752813840272,1499,1501,1256,1499,1000,0,0,0
1691752813840721,1497,1497,1257,1499,1000,0,0,0
1691752813844475,1498,1500,1256,1499,1000,0,0,0
1691752813848294,1498,1497,1257,1499,1000,0,0,0
1691752813851780,1497,1497,1257,1499,1000,0,0,0
1691752813855935,1498,1500,1256,1499,1000,0,0,0
1691752813859012,1497,1499,1257,1499,1000,0,0,0
1691752813862485,1496,1497,1258,1499,1000,0,0,0
1691752813865835,1498,1500,1256,1499,1000,0,0,0
1691752813869874,1497,1499,1257,1499,1000,0,0,0
1691752813874842,1497,1499,1257,1499,1000,0,0,0
1691752813878758,1498,1501,1256,1499,1000,0,0,0
1691752813880280,1498,1501,1256,1499,1000,0,0,0
1691752813883926,1497,1498,1258,1499,1000,0,0,0
1691752813889577,1497,1497,1258,1499,1000,0,0,0
1691752813891722,1497,1497,1258,1499,1000,0,0,0
1691752813896032,1497,1498,1257,1499,1000,0,0,0
1691752813898866,1498,1499,1257,1499,1000,0,0,0
1691752813905125,1499,1501,1256,1499,1000,0,0,0
1691752813905900,1497,1498,1258,1499,1000,0,0,0
1691752813910163,1497,1498,1258,1499,1000,0,0,0
1691752813914023,1499,1501,1256,1499,1000,0,0,0
1691752813917552,1498,1499,1257,1499,1000,0,0,0
1691752813920959,1498,1499,1257,1499,1000,0,0,0
1691752813923943,1499,1502,1256,1499,1000,0,0,0
1691752813927889,1498,1499,1258,1499,1000,0,0,0
1691752813932785,1497,1499,1258,1499,1000,0,0,0
1691752813934826,1497,1499,1258,1499,1000,0,0,0
1691752813938932,1498,1499,1257,1499,1000,0,0,0
1691752813942062,1500,1502,1256,1499,1000,0,0,0
1691752813946050,1499,1501,1257,1499,1000,0,0,0
1691752813949915,1498,1501,1257,1499,1000,0,0,0
1691752813954147,1499,1501,1257,1499,1000,0,0,0
1691752813957583,1499,1500,1257,1499,1000,0,0,0
1691752813960291,1501,1502,1256,1499,1000,0,0,0
1691752813965721,1501,1502,1256,1499,1000,0,0,0
1691752813967806,1499,1499,1257,1499,1000,0,0,0
1691752813972570,1500,1501,1256,1499,1000,0,0,0
1691752813974946,1499,1500,1257,1499,1000,0,0,0
1691752813978547,1501,1501,1256,1499,1000,0,0,0
1691752813982385,1502,1502,1255,1499,1000,0,0,0
1691752813985864,1499,1498,1257,1499,1000,0,0,0
1691752813989341,1498,1499,1257,1499,1000,0,0,0
1691752813992929,1501,1501,1256,1499,1000,0,0,0
1691752813996746,1500,1498,1257,1499,1000,0,0,0
1691752814000911,1500,1499,1256,1499,1000,0,0,0
1691752814005157,1502,1501,1255,1499,1000,0,0,0
1691752814007585,1500,1499,1257,1499,1000,0,0,0
1691752814012620,1499,1499,1257,1499,1000,0,0,0
1691752814016435,1501,1501,1256,1499,1000,0,0,0
1691752814018510,1500,1500,1256,1499,1000,0,0,0
1691752814022186,1500,1500,1256,1499,1000,0,0,0
1691752814027988,1502,1501,1255,1499,1000,0,0,0
1691752814030518,1500,1499,1256,1499,1000,0,0,0
1691752814033687,1500,1499,1257,1499,1000,0,0,0
1691752814037006,1502,1500,1255,1499,1000,0,0,0
1691752814041555,1501,1500,1256,1499,1000,0,0,0
1691752814044591,1500,1501,1256,1499,1000,0,0,0
1691752814048054,1503,1502,1254,1499,1000,0,0,0
1691752814052836,1501,1501,1256,1499,1000,0,0,0
1691752814056302,1500,1499,1256,1499,1000,0,0,0
1691752814058966,1502,1501,1255,1499,1000,0,0,0
1691752814062574,1502,1498,1256,1499,1000,0,0,0
1691752814066007,1501,1500,1256,1499,1000,0,0,0
1691752814070002,1500,1500,1256,1499,1000,0,0,0
1691752814075539,1500,1499,1256,1499,1000,0,0,0
1691752814076855,1500,1499,1256,1499,1000,0,0,0
1691752814082067,1502,1500,1255,1499,1000,0,0,0
1691752814084613,1501,1499,1255,1499,1000,0,0,0
1691752814088640,1501,1499,1256,1499,1000,0,0,0
1691752814091237,1503,1501,1254,1499,1000,0,0,0
1691752814094921,1500,1499,1256,1499,1000,0,0,0
1691752814098988,1500,1499,1256,1499,1000,0,0,0
1691752814103073,1503,1500,1255,1499,1000,0,0,0
1691752814106106,1501,1499,1256,1499,1000,0,0,0
1691752814110100,1500,1500,1256,1499,1000,0,0,0
1691752814119956,1503,1501,1254,1499,1000,0,0,0
1691752814120152,1501,1500,1256,1499,1000,0,0,0
1691752814122386,1500,1500,1256,1499,1000,0,0,0
1691752814126416,1500,1500,1256,1499,1000,0,0,0
1691752814128254,1501,1498,1256,1499,1000,0,0,0
1691752814132184,1500,1500,1256,1499,1000,0,0,0
1691752814135826,1500,1501,1255,1499,1000,0,0,0
1691752814138502,1504,1502,1254,1499,1000,0,0,0
1691752814142520,1501,1501,1255,1499,1000,0,0,0
1691752814146040,1500,1501,1256,1499,1000,0,0,0
1691752814150118,1502,1500,1255,1499,1000,0,0,0
1691752814153896,1502,1498,1256,1499,1000,0,0,0
1691752814157643,1501,1499,1256,1499,1000,0,0,0
1691752814160917,1503,1501,1254,1499,1000,0,0,0
1691752814164640,1501,1498,1256,1499,1000,0,0,0
1691752814168118,1500,1498,1257,1499,1000,0,0,0
1691752814172675,1501,1500,1256,1499,1000,0,0,0
1691752814175856,1500,1498,1256,1499,1000,0,0,0
1691752814178432,1500,1498,1256,1499,1000,0,0,0
1691752814182085,1501,1499,1256,1499,1000,0,0,0
1691752814186880,1500,1499,1256,1499,1000,0,0,0
1691752814190234,1499,1499,1256,1499,1000,0,0,0
1691752814193866,1500,1497,1257,1499,1000,0,0,0
1691752814196555,1501,1500,1256,1499,1000,0,0,0
1691752814200509,1500,1499,1256,1499,1000,0,0,0
1691752814206521,1503,1500,1255,1499,1000,0,0,0
1691752814208164,1503,1501,1255,1499,1000,0,0,0
1691752814211546,1500,1499,1257,1499,1000,0,0,0
1691752814216649,1499,1498,1257,1499,1000,0,0,0
1691752814219415,1499,1498,1257,1499,1000,0,0,0
1691752814223095,1499,1500,1256,1499,1000,0,0,0
1691752814225790,1500,1500,1256,1499,1000,0,0,0
1691752814231281,1499,1500,1256,1499,1000,0,0,0
1691752814233123,1502,1501,1255,1499,1000,0,0,0
1691752814237131,1500,1498,1257,1499,1000,0,0,0
1691752814241326,1499,1498,1257,1499,1000,0,0,0
1691752814247930,1499,1497,1257,1499,1000,0,0,0
1691752814248178,1500,1497,1257,1499,1000,0,0,0
1691752814251237,1501,1500,1255,1499,1000,0,0,0
1691752814255282,1501,1500,1255,1499,1000,0,0,0
1691752814259324,1499,1497,1257,1499,1000,0,0,0
1691752814262025,1499,1497,1257,1499,1000,0,0,0
1691752814266187,1500,1499,1256,1499,1000,0,0,0
1691752814271120,1500,1497,1257,1499,1000,0,0,0
1691752814273963,1499,1498,1256,1499,1000,0,0,0
1691752814276593,1499,1499,1256,1499,1000,0,0,0
1691752814280458,1499,1497,1257,1499,1000,0,0,0
1691752814284195,1498,1497,1257,1499,1000,0,0,0
1691752814288062,1501,1499,1256,1499,1000,0,0,0
1691752814291195,1499,1498,1256,1499,1000,0,0,0
1691752814295115,1499,1498,1256,1499,1000,0,0,0
1691752814299115,1501,1501,1255,1499,1000,0,0,0
1691752814302440,1499,1500,1256,1499,1000,0,0,0
1691752814305695,1498,1500,1256,1499,1000,0,0,0
1691752814309548,1500,1500,1255,1499,1000,0,0,0
1691752814313091,1499,1497,1256,1499,1000,0,0,0
1691752814316581,1499,1497,1256,1499,1000,0,0,0
1691752814320586,1500,1500,1255,1499,1000,0,0,0
1691752814324083,1499,1497,1256,1499,1000,0,0,0
1691752814328195,1498,1497,1257,1499,1000,0,0,0
1691752814331122,1499,1499,1256,1499,1000,0,0,0
1691752814336228,1498,1497,1256,1499,1000,0,0,0
1691752814339234,1498,1497,1256,1499,1000,0,0,0
1691752814343378,1498,1499,1256,1499,1000,0,0,0
1691752814345695,1498,1499,1256,1499,1000,0,0,0
1691752814349658,1497,1498,1257,1499,1000,0,0,0
1691752814353439,1497,1498,1257,1499,1000,0,0,0
1691752814359857,1497,1498,1256,1499,1000,0,0,0
1691752814361496,1498,1499,1256,1499,1000,0,0,0
1691752814363807,1500,1500,1255,1499,1000,0,0,0
1691752814368459,1500,1501,1255,1499,1000,0,0,0
1691752814373744,1498,1499,1256,1499,1000,0,0,0
1691752814375096,1497,1500,1256,1499,1000,0,0,0
1691752814378417,1498,1500,1256,1499,1000,0,0,0
1691752814383039,1498,1501,1256,1499,1000,0,0,0
1691752814386281,1499,1501,1255,1499,1000,0,0,0
1691752814390334,1498,1498,1256,1499,1000,0,0,0
1691752814394087,1497,1498,1256,1499,1000,0,0,0
1691752814397434,1499,1500,1255,1499,1000,0,0,0
1691752814400477,1498,1498,1256,1499,1000,0,0,0
1691752814404427,1498,1498,1256,1499,1000,0,0,0
1691752814407743,1500,1501,1254,1499,1000,0,0,0
1691752814411448,1498,1499,1256,1499,1000,0,0,0
1691752814415645,1497,1498,1256,1499,1000,0,0,0
1691752814418503,1499,1500,1255,1499,1000,0,0,0
1691752814422615,1498,1499,1255,1499,1000,0,0,0
1691752814426476,1498,1499,1255,1499,1000,0,0,0
1691752814433659,1498,1500,1255,1499,1000,0,0,0
1691752814433977,1498,1500,1255,1499,1000,0,0,0
1691752814436766,1498,1499,1255,1499,1000,0,0,0
1691752814440702,1497,1500,1255,1499,1000,0,0,0
1691752814444423,1498,1499,1255,1499,1000,0,0,0
1691752814448464,1498,1499,1255,1499,1000,0,0,0
1691752814452132,1500,1501,1253,1499,1000,0,0,0
1691752814454812,1500,1503,1253,1500,1000,0,0,0
1691752814462156,1498,1501,1255,1499,1000,0,0,0
1691752814462608,1498,1501,1255,1499,1000,0,0,0
1691752814466569,1500,1500,1254,1499,1000,0,0,0
1691752814470996,1499,1498,1254,1499,1000,0,0,0
1691752814473889,1499,1499,1255,1499,1000,0,0,0
1691752814477342,1500,1501,1254,1499,1000,0,0,0
1691752814480143,1498,1499,1255,1499,1000,0,0,0
1691752814484484,1498,1499,1255,1499,1000,0,0,0
1691752814488441,1500,1500,1254,1499,1000,0,0,0
1691752814492551,1499,1498,1255,1499,1000,0,0,0
1691752814495827,1499,1499,1255,1499,1000,0,0,0
1691752814498442,1499,1500,1255,1499,1000,0,0,0
1691752814502579,1500,1501,1254,1499,1000,0,0,0
1691752814506682,1499,1499,1255,1499,1000,0,0,0
1691752814509481,1498,1500,1256,1499,1000,0,0,0
1691752814513414,1500,1501,1254,1499,1000,0,0,0
1691752814517598,1499,1500,1255,1499,1000,0,0,0
1691752814521215,1499,1500,1255,1499,1000,0,0,0
1691752814524524,1499,1500,1255,1499,1000,0,0,0
1691752814527788,1498,1500,1255,1499,1000,0,0,0
1691752814531396,1498,1500,1256,1499,1000,0,0,0
1691752814538460,1500,1501,1254,1499,1000,0,0,0
1691752814539240,1499,1501,1255,1499,1000,0,0,0
1691752814542182,1499,1502,1255,1499,1000,0,0,0
1691752814545821,1499,1500,1255,1499,1000,0,0,0
1691752814549413,1499,1500,1256,1499,1000,0,0,0
1691752814553530,1499,1500,1256,1499,1000,0,0,0
1691752814560803,1501,1501,1255,1499,1000,0,0,0
1691752814562039,1499,1500,1255,1499,1000,0,0,0
1691752814563814,1499,1500,1255,1499,1000,0,0,0
1691752814567683,1500,1500,1255,1499,1000,0,0,0
1691752814571412,1499,1500,1255,1499,1000,0,0,0
1691752814575604,1499,1500,1255,1499,1000,0,0,0
1691752814580256,1499,1501,1255,1499,1000,0,0,0
1691752814581962,1499,1499,1255,1499,1000,0,0,0
1691752814588905,1499,1500,1255,1499,1000,0,0,0
1691752814589584,1500,1500,1255,1499,1000,0,0,0
1691752814593531,1500,1500,1255,1499,1000,0,0,0
1691752814598718,1499,1500,1255,1499,1000,0,0,0
1691752814601692,1499,1501,1255,1499,1000,0,0,0
1691752814603924,1503,1503,1254,1499,1000,0,0,0
1691752814609799,1501,1501,1255,1499,1000,0,0,0
1691752814611405,1504,1503,1252,1499,1000,0,0,0
1691752814616461,1504,1502,1253,1499,1000,0,0,0
1691752814618502,1501,1499,1255,1499,1000,0,0,0
1691752814629086,1500,1499,1255,1499,1000,0,0,0
1691752814629364,1501,1500,1254,1499,1000,0,0,0
1691752814630735,1500,1499,1255,1499,1000,0,0,0
1691752814633358,1500,1499,1255,1499,1000,0,0,0
1691752814637644,1503,1501,1253,1499,1000,0,0,0
1691752814641260,1500,1499,1255,1499,1000,0,0,0
1691752814644153,1500,1499,1255,1499,1000,0,0,0
1691752814647574,1499,1499,1255,1499,1000,0,0,0
1691752814652066,1499,1499,1255,1499,1000,0,0,0
1691752814655647,1500,1499,1255,1499,1000,0,0,0
1691752814661150,1501,1499,1255,1499,1000,0,0,0
1691752814662398,1503,1501,1253,1499,1000,0,0,0
1691752814665839,1500,1499,1255,1499,1000,0,0,0
1691752814669608,1500,1499,1255,1499,1000,0,0,0
1691752814673436,1499,1500,1255,1499,1000,0,0,0
1691752814677577,1500,1500,1255,1499,1000,0,0,0
1691752814680332,1501,1500,1255,1499,1000,0,0,0
1691752814684580,1501,1500,1255,1499,1000,0,0,0
1691752814688566,1503,1501,1253,1499,1000,0,0,0
1691752814691098,1501,1499,1255,1499,1000,0,0,0
1691752814695068,1500,1499,1255,1499,1000,0,0,0
1691752814698520,1500,1498,1256,1499,1000,0,0,0
1691752814705048,1503,1499,1254,1499,1000,0,0,0
1691752814706412,1501,1498,1255,1499,1000,0,0,0
1691752814710531,1501,1498,1255,1499,1000,0,0,0
1691752814713029,1503,1500,1254,1499,1000,0,0,0
1691752814716748,1501,1500,1255,1499,1000,0,0,0
1691752814720622,1500,1498,1256,1499,1000,0,0,0
1691752814724585,1500,1497,1256,1499,1000,0,0,0
1691752814728159,1500,1499,1256,1499,1000,0,0,0
1691752814733272,1500,1498,1256,1499,1000,0,0,0
1691752814735665,1501,1497,1255,1499,1000,0,0,0
1691752814741716,1501,1498,1255,1499,1000,0,0,0
1691752814742448,1500,1499,1255,1499,1000,0,0,0
1691752814746052,1500,1498,1256,1499,1000,0,0,0
1691752814750559,1500,1497,1256,1499,1000,0,0,0
1691752814753038,1500,1499,1256,1499,1000,0,0,0
1691752814756817,1502,1501,1255,1499,1000,0,0,0
1691752814760810,1501,1500,1255,1499,1000,0,0,0
1691752814764594,1501,1498,1256,1499,1000,0,0,0
1691752814768323,1501,1499,1256,1499,1000,0,0,0
1691752814771497,1501,1498,1256,1499,1000,0,0,0
1691752814774908,1501,1497,1257,1499,1000,0,0,0
1691752814780570,1500,1498,1256,1499,1000,0,0,0
1691752814782569,1500,1498,1256,1499,1000,0,0,0
1691752814786679,1501,1497,1256,1499,1000,0,0,0
1691752814790299,1501,1499,1256,1499,1000,0,0,0
1691752814793189,1500,1499,1256,1499,1000,0,0,0
1691752814796887,1503,1501,1254,1499,1000,0,0,0
1691752814800554,1501,1498,1256,1499,1000,0,0,0
1691752814804931,1499,1499,1256,1499,1000,0,0,0
1691752814808477,1502,1500,1255,1499,1000,0,0,0
1691752814811293,1501,1499,1256,1499,1000,0,0,0
