timestamp,roll,pitch,yaw,norm_thrust
1691752810269523,-0.06419614,0.29102769,-0.39340511,11.45948029
1691752810273048,-0.03282210,0.30719009,-0.39227712,11.38090897
1691752810276780,-0.02258997,0.30463377,-0.39144230,11.38222504
1691752810281001,-0.01470429,0.30859765,-0.39033049,11.39544868
1691752810284564,-0.00355385,0.31355777,-0.38948327,11.37092400
1691752810288508,0.00622877,0.31486779,-0.38598835,11.39408207
1691752810291017,0.56577301,0.74331385,-0.41990289,10.09472847
1691752810294975,0.59263885,0.66268957,-0.42382014,9.92026711
1691752810299003,0.32114792,0.49761686,-0.40946344,10.59127522
1691752810302623,0.15084590,0.42859074,-0.40355894,10.92129421
1691752810306468,0.14931314,0.41880783,-0.40511456,10.97683907
1691752810313592,0.07204490,0.39255178,-0.40234962,11.17804337
1691752810313926,0.06164108,0.37788481,-0.40137881,11.20563412
1691752810320547,0.06149216,0.36078051,-0.39988482,11.28922939
1691752810321071,-0.02043140,0.28249410,-0.39228827,11.45699787
1691752810328789,0.00779505,0.33204395,-0.38861254,11.34523869
1691752810332257,0.00334924,0.30667639,-0.38319510,11.34951782
1691752810332566,-0.00389409,0.27834719,-0.37504014,11.31413651
1691752810334873,-0.02232237,0.25584948,-0.36336154,11.29461670
1691752810338460,-0.05213694,0.23607972,-0.34975544,11.31686878
1691752810341879,-0.05580777,0.18559630,-0.33659944,11.28045559
1691752810345859,-0.08114496,0.14363632,-0.31999353,11.25802708
1691752810349447,-0.08478680,0.11453845,-0.30462515,11.27684593
1691752810353476,-0.33418179,0.04111934,-0.27200305,12.20006275
1691752810357661,-0.42468667,-0.19358797,-0.24949798,12.72226715
1691752810360981,-0.26955122,-0.10765663,-0.22445872,12.11912727
1691752810364320,-0.19961302,-0.08164404,-0.20641892,11.87951660
1691752810369202,-0.15227340,-0.08759284,-0.19113462,11.77144146
1691752810371155,-0.04919450,-0.04778093,-0.18014722,11.42444706
1691752810375023,-0.11097998,-0.14787765,-0.16672637,11.36764145
1691752810378528,-0.08340704,-0.19955352,-0.15640309,11.21659279
1691752810382970,-0.12196047,-0.18140562,-0.14843112,10.90166569
1691752810386537,-0.07946651,-0.29186517,-0.13733728,10.75416946
1691752810390858,-0.02493202,-0.31448656,-0.12564676,10.53299904
1691752810392882,0.12734923,-0.12372629,-0.11919249,9.57100677
1691752810396806,-0.02728914,-0.27945408,-0.11178517,10.56100845
1691752810402961,0.08729627,-0.19930857,-0.10329312,9.80672646
1691752810404668,-0.02225586,-0.31040826,-0.09653108,10.31443691
1691752810407623,-0.03079309,-0.30283442,-0.08885114,10.19948292
1691752810411118,0.08253746,-0.15202129,-0.08152069,9.30431366
1691752810414946,-0.06143565,-0.32500562,-0.07397612,10.28033829
1691752810418440,-0.02966304,-0.39026442,-0.06479848,10.25752544
1691752810422071,-0.03285963,-0.34157434,-0.05623699,10.12865257
1691752810425898,0.20679656,-0.25146359,-0.04446988,9.09228516
1691752810433737,0.05642836,-0.39208528,-0.03981904,10.04903507
1691752810433895,0.04550266,-0.38449958,-0.03314754,10.02570915
1691752810437729,0.03054909,-0.39026746,-0.02628348,9.92013550
1691752810440364,0.03888786,-0.41264307,-0.01919129,9.81756783
1691752810444003,0.02719337,-0.34034252,-0.01250484,9.85783958
1691752810447746,0.28237861,-0.21321753,-0.00297883,9.11915684
1691752810451636,-0.00521382,-0.32409057,-0.00331037,9.99680614
1691752810455826,-0.33849266,-0.85493875,-0.01920849,9.45778847
1691752810459254,-0.21047491,-0.55832696,0.00727416,9.77814674
1691752810462166,-0.08618535,-0.47774497,0.02237880,9.85852146
1691752810466848,-0.01007146,-0.40684584,0.03300454,9.96249866
1691752810469800,-0.01274732,-0.32642615,0.04044303,9.93756104
1691752810473651,0.05301645,-0.27442056,0.04641129,9.76627159
1691752810478437,1.10856664,0.18740238,0.02885362,7.85708189
1691752810480247,0.76725692,0.38382801,0.02068145,8.10141373
1691752810483874,0.31047162,-0.12272961,0.04544904,9.44713116
1691752810489936,-0.22591090,-0.19793279,0.04440821,10.45469189
1691752810491441,-0.29874197,-0.27951103,0.04783340,10.80101109
1691752810495741,-0.27646118,-0.33596697,0.04940942,10.70915222
1691752810499384,-0.22039872,-0.26114163,0.05483131,10.43227673
1691752810502029,-0.13013513,-0.27758494,0.05800739,10.30032349
1691752810505967,0.65011793,0.06440718,0.05461460,8.36569881
1691752810510075,1.78219414,0.27314800,0.00699641,6.43573046
1691752810523661,0.42748627,0.15947288,0.03159110,9.19144821
1691752810523799,0.19063056,0.14125399,0.02641795,9.71042156
1691752810524079,-0.45895872,-0.15895259,0.02418814,10.75764179
1691752810524562,-0.60560220,-0.44290251,0.01081228,11.19130135
1691752810527761,-0.35683516,-0.20806479,0.02551569,10.98754025
1691752810534261,0.17267251,0.08618565,0.02478279,9.81294632
1691752810535993,1.55678701,0.29562041,-0.02462008,6.19736290
1691752810539480,0.35375986,0.16606095,0.00006163,9.04498863
1691752810542569,0.11699571,0.11664699,-0.00534579,9.51947784
1691752810546002,0.01936993,0.01823774,-0.01171627,9.33578873
1691752810549769,-0.07536530,0.00023457,-0.02088998,9.42281628
1691752810553841,-0.05768698,-0.01081210,-0.03072180,9.19943047
1691752810556746,-0.14186405,-0.11591283,-0.03308761,9.17630482
1691752810562772,-0.26028630,-0.10241300,-0.03840940,9.04979515
1691752810563843,-0.23837413,0.01044736,-0.04198185,8.99706459
1691752810567635,-0.26383728,-0.09645070,-0.04102999,9.19121838
1691752810571161,-0.24880084,-0.13656265,-0.04096701,9.02972126
1691752810575043,-0.32233110,-0.03171558,-0.04446452,9.01750660
1691752810578533,-0.29484832,-0.05653665,-0.04420274,8.96052361
1691752810582201,-0.27086133,-0.08976728,-0.04355372,8.95564365
1691752810585713,-0.26414827,0.03848773,-0.04747761,9.00967503
1691752810589303,-0.31551108,0.02671809,-0.04716171,9.27785206
1691752810592920,-0.29999349,-0.13244653,-0.04307713,8.82408810
1691752810596802,-0.28051949,-0.11713371,-0.04229734,9.06659222
1691752810602610,-0.31576174,-0.09020741,-0.04206706,9.25067329
1691752810605460,-0.31552818,-0.06798071,-0.04105860,9.20264626
1691752810610299,-0.28061628,-0.06165554,-0.04016065,9.27847004
1691752810612729,-0.27916613,-0.08203372,-0.03795105,9.23982811
1691752810615806,-0.28561404,-0.08407384,-0.03595697,9.22466850
1691752810618816,-0.38478985,-0.13246539,-0.03390919,9.72221565
1691752810622408,-0.36824554,-0.10087808,-0.03220430,9.45381927
1691752810625826,-0.41249251,0.07542401,-0.02905242,10.33653641
1691752810630304,-0.36411220,0.07564028,-0.01941415,10.26068783
1691752810635435,-0.22956695,-0.46356872,-0.01095311,8.95658398
1691752810637668,-0.17682746,-0.23890647,-0.00990404,9.06364632
1691752810640316,-0.11597001,-0.13941619,-0.00794963,9.34211636
1691752810643942,-0.17289270,-0.03598764,-0.00815474,9.48983765
1691752810648504,-0.12376185,0.04215640,-0.00482445,9.50240135
1691752810651840,-0.13716920,-0.05286698,-0.00225966,9.61056709
1691752810654779,-0.15698500,-0.02023338,-0.00122774,9.64705181
1691752810658364,-0.92163962,-0.33273301,0.00390107,11.02901649
1691752810662050,-0.55422831,-0.25133297,0.02517299,10.89311790
1691752810665999,-0.32282475,-0.16260494,0.03743117,10.67555046
1691752810669923,-0.20052011,-0.15444277,0.04203274,10.48062038
1691752810674322,-0.10297091,-0.14661229,0.04716672,10.13496017
1691752810677616,0.00255914,-0.18259597,0.04830672,9.74028587
1691752810681635,0.07042193,-0.10656788,0.05172326,9.70659351
1691752810683975,0.38383693,-0.22024526,0.05710552,9.36794376
1691752810687956,0.11646739,-0.02643227,0.05569069,10.19765568
1691752810691915,0.16674067,-0.03732329,0.05930476,9.80514050
1691752810695522,0.12224689,0.02092503,0.06019963,10.06057453
1691752810698391,0.15893935,-0.08542892,0.05860401,9.80499458
1691752810702142,0.28605133,0.01904968,0.05671568,9.95117092
1691752810706623,0.21236765,-0.11364734,0.05439866,9.87767792
1691752810710231,0.71413702,-0.07093358,0.05535281,8.99393559
1691752810717319,0.50794649,0.07268853,0.04970021,9.61023712
1691752810719187,0.43057826,0.05649570,0.04734142,9.80528259
1691752810720104,0.08872561,0.00908775,0.04721132,10.34928131
1691752810724439,0.09649457,-0.01961251,0.04578086,10.32594776
1691752810730166,0.13416436,-0.01963207,0.04505047,10.29747677
1691752810731872,0.58083230,0.00423002,0.04028113,9.40684795
1691752810735622,1.10477221,0.30332577,0.00755551,8.49552727
1691752810738875,0.64952666,0.25053003,0.00736573,9.57161903
1691752810742156,0.46548396,0.21799636,0.00163406,9.88176537
1691752810745910,0.36243054,0.20391634,-0.00456313,10.09084988
1691752810751895,0.28429681,0.19283618,-0.01005630,10.15515995
1691752810753909,0.22607002,0.19954146,-0.01547413,9.86465645
1691752810757711,0.18030256,0.15079257,-0.01926396,10.36048222
1691752810760251,0.15723914,0.11486312,-0.02212575,10.31599236
1691752810763897,0.16017272,0.11933517,-0.02406438,9.99373722
1691752810767795,0.26929158,0.16103499,-0.02915163,9.64304256
1691752810772083,0.17307326,0.19846806,-0.03115555,10.03085041
1691752810775720,0.15871349,0.16388918,-0.03139041,10.05260086
1691752810778937,0.07109933,0.20862950,-0.03208320,10.33979607
1691752810783071,0.07842317,0.17318355,-0.03326163,10.28871059
1691752810785528,0.08334856,0.14915760,-0.03496127,10.35154915
1691752810789296,0.05515817,0.16255173,-0.03561180,10.40671921
1691752810793455,0.01425261,0.16254967,-0.03495815,10.40930462
1691752810797543,0.01033314,0.14933035,-0.03433810,10.37271214
1691752810800322,0.01038574,0.13950871,-0.03404758,10.45703697
1691752810803913,0.01748909,0.13379344,-0.03364027,10.53910255
1691752810807968,0.00627013,0.11921054,-0.03269342,10.53344154
1691752810811982,-0.00210102,0.12124390,-0.03248020,10.47944927
1691752810815726,0.00723968,0.12644733,-0.03236112,10.52883053
1691752810818911,0.01619762,0.08298008,-0.02954151,10.49407387
1691752810823035,0.01721929,0.17320551,-0.02853934,10.36072922
1691752810825857,0.01995416,0.09251736,-0.02595019,10.34779263
1691752810829249,-0.58098698,-0.15460812,-0.01662727,11.46776867
1691752810834012,-0.44909826,-0.07553002,-0.00415330,11.49147129
1691752810837003,-0.35828963,0.00622857,0.00523435,11.34831619
1691752810841313,-0.26194340,-0.00870770,0.01179114,11.31458950
1691752810847437,-0.19414833,-0.05631190,0.01689153,11.04789829
1691752810847973,-0.12676765,-0.05742677,0.02104757,10.86643982
1691752810852071,-0.08428527,-0.05937755,0.02496480,10.67907715
1691752810855778,0.00555251,-0.07044528,0.02794315,10.51707363
1691752810858850,0.94979286,0.40323740,-0.00834502,8.77978611
1691752810862092,0.97645295,0.08345793,0.01610020,8.49873447
1691752810866126,0.58313215,0.15654846,0.01136678,9.33552933
1691752810869953,-0.21559642,-0.02833177,0.02166375,11.14370251
1691752810872934,-0.28819218,-0.08560421,0.02212773,11.32815361
1691752810876723,-0.18079117,-0.02100870,0.02852647,11.11533070
1691752810880242,-0.19676201,-0.09106728,0.02894699,10.95445919
1691752810884074,-0.05962919,-0.10646959,0.03024083,10.73294067
1691752810887844,-0.07000638,-0.07357325,0.03059704,10.39854622
1691752810892136,0.00732369,-0.07368752,0.03102181,10.30425739
1691752810895754,-0.00926310,-0.05519764,0.03124744,10.22975731
1691752810899718,1.82484305,0.37991941,-0.03893501,7.03632259
1691752810902062,0.58572334,0.20181929,0.00046553,9.21455956
1691752810905920,0.42190963,0.12738052,-0.00196602,9.69150639
1691752810913827,0.27590734,0.07377807,-0.00558607,10.16971970
1691752810914119,0.13927718,0.08647230,-0.00953920,10.46725559
1691752810918445,0.11439531,0.01771551,-0.01110625,10.32263851
1691752810920129,0.02090789,0.00235555,-0.01413372,10.33101845
1691752810924099,-0.00150704,0.06116591,-0.01863364,10.07835770
1691752810928152,-0.00248950,-0.00458222,-0.02067355,10.18586636
1691752810932120,-0.00906585,-0.04457034,-0.02173630,10.24653053
1691752810934793,-0.01154670,-0.10846096,-0.02190353,10.06227493
1691752810939152,-0.03826830,0.00351886,-0.02756353,9.96820736
1691752810942409,-0.04141903,0.03359972,-0.03089936,10.01046467
1691752810946025,0.01870927,-0.00295018,-0.03045490,9.93858433
1691752810949988,-0.09115350,0.01286760,-0.03056126,10.14368343
1691752810954192,-0.12062385,-0.02069941,-0.03062226,10.21864223
1691752810956720,-0.08045503,-0.09460589,-0.02937876,10.19790459
1691752810960785,-0.06195549,-0.09358542,-0.02889833,10.31479168
1691752810963926,-0.06593613,-0.06364650,-0.02963976,10.38913536
1691752810969295,-0.39465207,-0.10399421,-0.02773875,11.13755608
1691752810970964,-0.39144576,-0.09290232,-0.02325863,11.09744930
1691752810975521,-0.36113316,-0.11662488,-0.01856123,10.87592411
1691752810979191,-0.28933641,-0.11254521,-0.01446591,10.67314434
1691752810982096,-0.25155583,-0.06323486,-0.01100182,10.48849773
1691752810991691,-0.16734223,-0.07964183,-0.00751142,10.46271515
1691752810991845,-0.16657449,-0.07000684,-0.00405333,10.25880337
1691752810999185,0.71704644,-0.03840472,-0.00105724,8.19725800
1691752811000256,0.31093991,0.03088818,-0.00579206,9.60060883
1691752811001771,0.13068180,0.07315701,-0.00637202,9.94329453
1691752811004062,0.06177775,0.10461585,-0.00533559,10.08168125
1691752811008506,0.01377510,-0.05309550,-0.00055841,10.37516308
1691752811012237,0.03091923,-0.06201705,-0.00013287,10.47661209
1691752811014764,0.05995503,-0.04518425,-0.00051955,9.97102642
1691752811018635,-0.08916830,-0.02011201,-0.00121192,10.60121346
1691752811022840,-0.06311128,-0.04442620,-0.00014246,10.38403416
1691752811026213,-0.30388567,-0.09480165,0.00244029,11.14861774
1691752811034021,-0.30317923,-0.08001653,0.00448835,11.02631569
1691752811035206,-0.27329531,-0.07004536,0.00676448,10.75859833
1691752811040400,-0.20851876,-0.09351722,0.00951963,10.65440273
1691752811041586,0.50232232,0.17689204,-0.00013121,8.99649143
1691752811048458,0.34181008,-0.04935895,0.01162536,9.89233589
1691752811048768,0.22490159,0.02726984,0.00825908,9.98666477
1691752811052191,0.08283368,0.03221476,0.00840423,10.49121666
1691752811054789,0.07408613,0.00615321,0.00839942,10.36410713
1691752811058726,0.04935447,0.06142664,0.00647064,10.29242802
1691752811062274,-0.03963697,0.05414346,0.00604815,10.50074196
1691752811066248,0.04794368,0.04013177,0.00413520,10.21632862
1691752811070292,-0.08487035,-0.03891873,0.00470907,10.86040592
1691752811074020,-0.29307249,-0.17835474,0.00438741,11.09867859
1691752811078452,-0.22775139,-0.16131644,0.00698329,10.97711658
1691752811081229,0.03528761,-0.03644114,0.00870706,10.54381466
1691752811084918,0.10022721,-0.05470802,0.00900587,10.43619347
1691752811087660,0.38615918,-0.00679518,0.00805042,9.43472195
1691752811092822,0.02501880,0.06737078,0.00863418,10.63757706
1691752811095185,-0.09618817,-0.04516881,0.01005746,10.93045521
1691752811099283,0.25638545,0.04980279,0.00860702,10.01091194
1691752811102988,0.09746943,0.00446868,0.00988014,10.65337849
1691752811105630,0.08644165,-0.00719229,0.00995826,10.70087433
1691752811109269,0.11360280,-0.02258703,0.01014995,10.50366497
1691752811113363,-0.01669857,-0.02057496,0.01002259,10.80795097
1691752811117267,-0.08096075,-0.09167754,0.01059042,10.72583103
1691752811121289,0.03552449,-0.06931817,0.01161552,10.67054558
1691752811123887,0.31737491,-0.04721048,0.01257159,10.05457306
1691752811128192,0.27067435,0.02720630,0.01051799,10.18839931
1691752811131908,0.23191914,0.03808450,0.01012894,10.32918262
1691752811134912,0.37577507,0.15236698,0.00461501,9.83859825
1691752811138545,0.15958130,0.06788539,0.00829722,10.56716061
1691752811143907,0.11273687,-0.04348151,0.00954154,10.50623512
1691752811146281,0.21686091,-0.04591535,0.00913409,10.34801388
1691752811150619,0.13587965,0.03325165,0.00731442,10.78060341
1691752811153089,0.15817201,0.02297108,0.00702472,10.58756065
1691752811156737,0.14406385,0.04609843,0.00581528,10.34639740
1691752811160407,0.33788398,0.03394812,0.00238535,9.75999451
1691752811163882,0.33174729,0.05418121,-0.00058811,9.74374104
1691752811167553,0.10667688,0.01761837,-0.00022003,10.64144993
1691752811171030,0.12200344,-0.03169306,-0.00074898,10.73525333
1691752811174812,0.13836458,-0.01362051,-0.00208597,10.65174389
1691752811181692,0.25882974,0.04053893,-0.00486394,10.07078457
1691752811182295,0.06753341,0.06167689,-0.00519826,10.78684807
1691752811186378,0.28601056,0.08345775,-0.00992953,10.08498478
1691752811190585,0.20087761,0.01398664,-0.00981842,10.29668045
1691752811192847,0.15146108,0.06238721,-0.01271365,10.21819496
1691752811196881,0.13088520,0.03726246,-0.01374763,10.50344753
1691752811200334,0.10956481,0.02185987,-0.01438934,10.53868580
1691752811205194,0.16967955,0.14938785,-0.01805895,10.23408127
1691752811208303,0.07895551,0.06368079,-0.01683095,10.78528786
1691752811212901,0.10418345,0.02046042,-0.01638022,10.62213993
1691752811214726,0.05137061,0.11880185,-0.01867052,10.72871494
1691752811218428,0.05221320,0.03182048,-0.01741516,10.47820568
1691752811222253,0.08354168,-0.00526840,-0.01732814,10.45841122
1691752811226341,0.03516645,-0.04473047,-0.01655500,10.58055592
1691752811230319,0.01735647,-0.02329993,-0.01730384,10.52978325
1691752811232858,0.06155885,0.03656624,-0.01915141,10.37699318
1691752811237608,0.01424086,0.03692044,-0.01902529,10.75158024
1691752811240219,-0.02186288,-0.04016693,-0.01633271,10.98230457
1691752811244323,-0.00848122,0.02626571,-0.01579247,10.71071243
1691752811248813,-0.08482142,0.01991406,-0.01460242,11.03254414
1691752811252355,0.13246250,0.03123934,-0.01543589,10.03207779
1691752811254720,0.02446475,0.00465491,-0.01400926,10.43045330
1691752811258742,-0.03318149,-0.01801465,-0.01286772,10.58347797
1691752811262369,0.04430541,0.04340651,-0.01476704,10.53525639
1691752811266416,0.04768755,0.04217151,-0.01407771,10.42203426
1691752811270352,0.02379722,0.14466248,-0.01680127,10.37570477
1691752811272863,0.02044244,0.05816161,-0.01385477,10.57480431
1691752811276734,0.02356723,-0.05873887,-0.00991857,10.28504372
1691752811282717,0.02696210,-0.02036818,-0.01036099,10.41473866
1691752811284389,-0.05526623,0.02169205,-0.01086812,10.74022770
1691752811288281,-0.04273968,0.03175095,-0.01062664,10.58747673
1691752811294344,-0.24614783,-0.01055610,-0.00688001,11.28820324
1691752811294975,-0.12745611,-0.02052553,-0.00547476,10.73141098
1691752811298311,0.08233366,-0.00697103,-0.00532171,9.92970085
1691752811302428,0.05910239,-0.03707702,-0.00387009,9.98268414
1691752811306377,-0.03941898,-0.03538954,-0.00364431,10.44139194
1691752811310542,-0.04213677,-0.00010827,-0.00426489,10.69601059
1691752811313315,0.03514100,0.02262024,-0.00461122,10.35787964
1691752811316664,-0.12484095,0.08434234,-0.00281707,10.88460350
1691752811320498,0.00561772,0.03414422,-0.00180873,10.20010185
1691752811329972,0.03170030,0.01953872,-0.00103857,10.17289257
1691752811330112,-0.05393266,0.02053422,-0.00067438,10.40998268
1691752811332133,-0.07463063,-0.01025029,0.00042372,10.46105289
1691752811338597,0.02128535,0.02259103,-0.00059704,10.24804878
1691752811339252,-0.05752136,0.00450387,0.00054576,10.58716488
1691752811343713,-0.20234358,-0.01683807,0.00179747,11.07829571
1691752811348799,-0.12675647,-0.09926657,0.00385260,10.69880104
1691752811349388,-0.11166288,-0.11534901,0.00470034,10.66381264
1691752811353540,-0.02840662,-0.02991744,0.00317334,10.11596584
1691752811356750,-0.02606165,0.09314783,0.00018516,10.22526646
1691752811361523,0.01248117,0.04819938,0.00141365,10.20186043
1691752811364150,-0.16659087,-0.01400101,0.00457342,11.09783363
1691752811368475,-0.16811115,-0.03025678,0.00544029,10.91299057
1691752811371203,-0.05759618,0.09972364,0.00243434,10.18533993
1691752811375421,-0.01310129,0.10211803,0.00199383,10.33214378
1691752811378640,-0.05667287,-0.07050129,0.00690512,10.32730484
1691752811382105,-0.19702166,-0.09366289,0.00703874,10.81875992
1691752811385902,-0.14948520,-0.05906445,0.00734056,10.72930527
1691752811389757,-0.08079608,-0.00828477,0.00873862,10.46496677
1691752811393792,0.09143020,-0.01804417,0.00934522,9.66417789
1691752811397460,-0.20196338,-0.04777492,0.01019978,10.78385639
1691752811401235,-0.19694240,-0.16470054,0.01274427,10.70977020
1691752811403942,-0.08521567,-0.07561474,0.01297741,10.69593716
1691752811407617,0.16582896,0.04934753,0.00973562,9.65359974
1691752811411485,0.02905361,0.08884543,0.00894788,10.26884651
1691752811415515,-0.19406916,-0.02780354,0.01279190,11.04096222
1691752811420218,0.12583309,0.08776328,0.00896144,10.00770187
1691752811423186,-0.03511329,0.07462876,0.00901593,10.31838036
1691752811426677,-0.13066092,-0.09187488,0.01321448,10.51450062
1691752811429838,-0.06223378,-0.09334341,0.01384692,10.64153385
1691752811436170,-0.06937966,-0.05366202,0.01301650,10.39060402
1691752811438308,-0.18854405,-0.11095848,0.01281774,10.68080997
1691752811441587,-0.19150248,-0.16710757,0.01304587,10.63146687
1691752811443877,0.07680154,-0.14521514,0.01577042,10.08512497
1691752811447731,0.03051686,-0.02413873,0.01254387,10.29726219
1691752811452979,-0.07030626,-0.06996012,0.01295474,10.63571453
1691752811455908,0.12688102,-0.04245427,0.01296957,9.96729469
1691752811459242,0.34550196,0.21558058,0.00166305,9.51817131
1691752811464277,0.01926365,0.02552415,0.00999810,10.53245163
1691752811465613,-0.19134355,-0.09964129,0.01030867,10.82033062
1691752811469673,-0.14951156,-0.15566424,0.01104395,10.64293766
1691752811473666,0.01555780,-0.02446602,0.01296666,10.36446476
1691752811477606,0.03653952,0.01388444,0.01317515,10.15184021
1691752811480265,-0.07360488,-0.11525553,0.01368867,10.46123695
1691752811486355,-0.01910759,-0.08725134,0.01429265,10.37490368
1691752811487739,0.24039792,-0.03367246,0.01411532,9.79794025
1691752811491607,0.18270345,0.02295361,0.01181353,10.10122585
1691752811495544,0.18247095,0.03383091,0.01092160,10.28480625
1691752811499178,0.03723365,-0.02123094,0.01174975,10.77159405
1691752811502634,0.03569494,-0.02801951,0.01157366,10.46655273
1691752811507007,0.22557838,0.00093022,0.01047834,9.93876171
1691752811509340,0.22975524,0.20322224,0.00309032,10.04728127
1691752811513692,0.09166560,0.14102258,0.00490163,10.34251404
1691752811517614,0.22365721,0.08856170,0.00247382,9.98058701
1691752811522842,-0.04563888,-0.05712034,0.00473478,10.87003040
1691752811523816,-0.05039570,-0.08891775,0.00452056,10.67281055
1691752811527711,-0.02974247,-0.06518854,0.00420524,10.48479462
1691752811533467,0.15327577,-0.08006144,0.00435582,10.05482769
1691752811536677,-0.05666013,-0.02850197,0.00312811,10.54021931
1691752811540404,0.38584629,0.13085029,-0.00511819,9.55686855
1691752811542201,0.34927058,0.11689681,-0.00733503,9.60999870
1691752811545889,0.04611426,0.01197134,-0.00371235,10.77908516
1691752811549596,-0.08144687,0.00154630,-0.00285226,10.93001652
1691752811555876,0.05887333,0.04168849,-0.00354166,10.39857197
1691752811557562,0.09274257,-0.01494706,-0.00289110,10.34508038
1691752811562658,-0.07368292,-0.03060778,-0.00279093,10.76633739
1691752811564409,-0.11851238,-0.04973054,-0.00243547,10.73192215
1691752811567619,0.08987359,-0.08195432,-0.00149175,10.25108528
1691752811571674,0.33486184,0.05637198,-0.00814436,9.53699207
1691752811575635,-0.03907982,-0.00332106,-0.00563254,11.07808590
1691752811580857,-0.06591617,-0.00472773,-0.00555102,10.99932671
1691752811582037,0.08915225,0.01787198,-0.00618230,10.30203533
1691752811585741,0.13856819,-0.02056823,-0.00560288,10.24138355
1691752811589569,-0.06602253,-0.03060842,-0.00575622,10.78020668
1691752811593705,-0.15997699,-0.08686623,-0.00571916,10.81518173
1691752811596751,-0.09675098,-0.04430812,-0.00533515,10.64494419
1691752811600689,0.19174320,-0.00369253,-0.00597315,10.13586998
1691752811604711,0.18228368,0.02952917,-0.00712416,10.36455345
1691752811608277,0.09793300,0.04469159,-0.00717983,10.48298264
1691752811611386,-0.04206622,0.05274924,-0.00654487,10.80043697
1691752811615892,-0.04919046,0.02732378,-0.00601957,10.70924759
1691752811618646,0.40882832,0.13501944,-0.01513148,9.36770439
1691752811622856,0.18165490,0.07459829,-0.01232901,10.08258724
1691752811626864,-0.16183895,0.06429414,-0.00859540,11.25503635
1691752811629337,-0.13614428,0.04882172,-0.00667721,11.27828026
1691752811633002,-0.00598433,0.00476304,-0.00622185,10.59594822
1691752811636851,-0.14091074,-0.02876065,-0.00572114,10.87582207
1691752811640769,-0.16672687,-0.12144370,-0.00470433,10.64685249
1691752811645319,0.08101349,-0.01222012,-0.00521931,10.36596107
1691752811648337,0.28059173,0.13496579,-0.01287670,9.72655964
1691752811651068,0.13637856,0.18512455,-0.01438909,10.22590351
1691752811654900,-0.05262633,0.00041891,-0.00804390,10.88594151
1691752811658984,0.06643874,0.11441050,-0.01251570,10.40238857
1691752811662813,0.03429845,0.13341889,-0.01378102,10.39245892
1691752811669416,-0.21335851,-0.00023458,-0.00997738,11.21862698
1691752811669574,-0.29845417,-0.10723244,-0.00926691,11.09344864
1691752811673575,-0.17721617,-0.09505252,-0.00772089,10.91846085
1691752811676714,-0.14656794,-0.01682462,-0.00830415,10.71467781
1691752811680881,-0.15496132,0.04501401,-0.00886659,10.89380074
1691752811684743,-0.14755544,-0.03952589,-0.00516148,10.55907726
1691752811688414,-0.10564695,-0.09099978,-0.00361340,10.57672215
1691752811691247,-0.07093672,0.17055666,-0.00868515,11.09174156
1691752811695062,-0.08718741,-0.09610131,-0.00332131,10.34688663
1691752811698826,-0.05354768,-0.06773321,-0.00308614,10.42442322
1691752811702659,-0.01780874,-0.03889434,-0.00324588,10.57694530
1691752811706673,0.21451716,0.19469757,-0.01254852,10.05258751
1691752811709235,0.12413024,0.21531706,-0.01219811,10.28307915
1691752811713088,-0.02869896,0.23341428,-0.01114148,11.07688046
1691752811716827,-0.18494086,-0.11725438,-0.00452887,10.74051857
1691752811720852,-0.11043089,-0.12765643,-0.00322991,10.67259312
1691752811724843,-0.07377943,-0.06833936,-0.00351723,10.54767990
1691752811729889,-0.18053608,-0.09446667,-0.00288736,10.68488884
1691752811732967,0.11453723,0.01804015,-0.00375096,10.15346527
1691752811734693,-0.06800350,-0.01494916,-0.00253430,10.70543003
1691752811738819,-0.01943678,0.10320567,-0.00531471,11.06881142
1691752811742860,0.08250089,-0.04955151,-0.00201345,9.88475037
1691752811746629,-0.05659201,0.12798752,-0.00666406,11.01153564
1691752811749629,-0.05235247,0.04995269,-0.00618193,10.93272972
1691752811755545,-0.09475926,0.04701146,-0.00635721,10.79666615
1691752811756855,-0.02222276,-0.00937491,-0.00626715,10.38636398
1691752811761173,0.37935302,-0.02622546,-0.00653878,8.74312592
1691752811764946,-0.07389039,0.04040872,-0.00853802,11.18456936
1691752811767547,0.07674042,-0.08300041,-0.00629763,9.67313480
1691752811771919,-0.10207782,0.01613944,-0.00894576,11.21341419
1691752811774781,-0.03096324,0.06391920,-0.01091939,10.72705555
1691752811779876,0.01061410,0.11090507,-0.01191316,10.43814373
1691752811782841,-0.11096852,-0.02028587,-0.00834405,10.90514278
1691752811788426,-0.17572540,-0.10774647,-0.00859669,10.77239418
1691752811789801,-0.01009132,-0.01868410,-0.00926428,10.19457817
1691752811793809,-0.00243285,-0.16880809,-0.00669014,10.46857643
1691752811796503,-0.06825362,-0.14859776,-0.00804831,10.51482773
1691752811801469,-0.11559344,-0.09319832,-0.00932771,10.62592316
1691752811809547,0.08742800,-0.02117070,-0.00995518,9.75521183
1691752811809692,0.13555132,-0.05296280,-0.00930543,9.91410542
1691752811811727,-0.05369464,-0.12238123,-0.00931535,10.61300850
1691752811814823,0.05958484,0.02147516,-0.01233932,9.96004200
1691752811818355,-0.07949462,-0.00442791,-0.01223922,10.56505680
1691752811822754,-0.02411823,-0.05787775,-0.01175021,10.42535782
1691752811830009,0.04219792,-0.10845245,-0.01072864,10.17355156
1691752811830412,0.02335874,-0.08840783,-0.01140169,10.13278961
1691752811833406,-0.09248636,-0.15878807,-0.01137122,10.67898464
1691752811840752,-0.07471824,-0.10643736,-0.01048676,10.57546329
1691752811841288,-0.09715296,-0.17858814,-0.01011200,10.54265690
1691752811845587,0.08909648,-0.08820612,-0.00954476,9.81824684
1691752811847847,-0.04422326,-0.12807523,-0.00984947,10.31981373
1691752811851823,-0.05707851,-0.14645471,-0.00973685,10.44203568
1691752811854859,-0.07228663,-0.13436033,-0.00984237,10.46160030
1691752811858351,0.03654042,0.04970328,-0.01183143,9.81300068
1691752811863190,-0.02579483,-0.17302707,-0.00868643,10.35943699
1691752811866638,0.01475234,-0.15908293,-0.00793822,10.28806877
1691752811869365,0.02749975,-0.11884008,-0.00823502,10.17566681
1691752811873092,-0.10596234,-0.39439756,-0.00699834,9.83978367
1691752811877040,0.09501877,0.08466028,-0.01011530,10.16630459
1691752811881003,0.09900101,0.09369228,-0.01040203,10.18239880
1691752811883891,-0.06795613,-0.31184009,-0.00444319,10.04586124
1691752811887579,-0.04079391,-0.26694000,-0.00229495,10.19045639
1691752811892193,0.03674594,-0.16148442,-0.00081769,10.25765133
1691752811894737,0.25210002,0.18039201,-0.00935606,10.01748562
1691752811898479,0.10487776,0.12877318,-0.00630293,10.48931599
1691752811902866,-0.02345517,-0.02390687,-0.00319342,10.93362141
1691752811906747,-0.24627738,-0.32485551,-0.00420477,10.18910980
1691752811909391,0.00175568,-0.00137326,-0.00068827,10.82881737
1691752811913040,0.01082541,-0.21105377,0.00319242,9.94421291
1691752811916992,0.01348948,-0.10039699,0.00306031,10.19118500
1691752811920916,0.05182741,-0.05626734,0.00371879,10.30953121
1691752811924764,0.21861206,0.16108200,-0.00175114,9.93559933
1691752811928327,-0.03347808,-0.09928472,0.00482758,10.68006420
1691752811931262,-0.00115203,-0.01904378,0.00477136,10.74764633
1691752811935033,0.02961136,0.13496724,0.00290721,11.04310799
1691752811939018,-0.08824152,-0.14643952,0.00636417,10.24771690
1691752811943438,0.01911264,-0.03432802,0.00705872,10.35128021
1691752811945929,0.07067666,0.03036537,0.00684083,10.37677288
1691752811950069,0.25786468,0.20873454,-0.00008349,10.07523346
1691752811953349,-0.07209314,-0.00202373,0.00714357,10.83877087
1691752811956996,-0.00250550,0.17669633,0.00521747,11.25763416
1691752811961061,-0.04769142,-0.10809620,0.00837762,10.41392326
1691752811965152,0.03220978,0.05127048,0.00762969,10.56490421
1691752811967943,0.06798905,0.05782925,0.00757659,10.63088799
1691752811971965,0.09942260,0.02985535,0.00794271,10.44355202
1691752811977201,0.07542529,0.10149618,0.00691194,10.52959251
1691752811978369,-0.04086572,0.09170486,0.00812701,10.77365971
1691752811982182,0.02730752,0.14670797,0.00693207,10.69718838
1691752811986096,0.13501382,0.14932901,0.00597136,10.42465687
1691752811990092,0.06701090,0.08285811,0.00814050,10.52693558
1691752811993742,0.00836926,0.10938324,0.00871547,10.66501904
1691752811996609,0.02935860,0.12953331,0.00875105,10.64197063
1691752812000279,0.02295413,-0.08812808,0.01147313,10.59450912
1691752812003985,0.08107665,0.07830707,0.00922785,10.52840042
1691752812007953,0.00781979,0.03830681,0.01012731,10.73113346
1691752812012149,0.12201232,0.37682018,0.00158140,10.73284721
1691752812014833,0.01805484,0.00375263,0.00881666,10.50464153
1691752812019544,0.05189392,0.07230344,0.00782189,10.45645618
1691752812023673,0.05932349,0.07782896,0.00730247,10.41310787
1691752812026154,0.25754380,0.30742106,-0.00322732,9.96203613
1691752812029909,0.01344320,0.22636995,0.00327937,11.32256603
1691752812034131,-0.09372808,-0.08797253,0.00624314,10.49784470
1691752812037025,0.06476603,0.19469854,0.00185492,10.85096264
1691752812041216,0.04718024,0.06897141,0.00492705,10.14453411
1691752812044844,-0.07019567,0.01918697,0.00722805,10.51819706
1691752812049907,0.18756127,0.35096946,-0.00332324,10.38399315
1691752812051172,0.14324769,0.28318119,-0.00241191,10.57667160
1691752812055523,0.03008342,0.09826778,0.00167949,10.96436310
1691752812059593,-0.02748547,0.07526141,0.00145323,10.85010433
1691752812064114,0.07278995,0.14936982,-0.00292315,10.30220127
1691752812066483,-0.04649210,0.04482548,-0.00149998,10.79660702
1691752812069383,0.08227097,0.10320795,-0.00488779,10.09419918
1691752812073475,0.10451123,0.10038375,-0.00673989,10.22126389
1691752812077238,-0.03675937,0.04786376,-0.00564834,10.65680790
1691752812081292,-0.06698757,0.00201745,-0.00588751,10.82275772
1691752812083870,-0.04981648,-0.01042514,-0.00614979,10.64838886
1691752812087984,0.07343671,0.09182373,-0.00948397,10.01971912
1691752812092167,-0.00241836,0.05396831,-0.00696809,10.48378277
1691752812094719,0.01340591,0.04065783,-0.00591023,10.47472572
1691752812098739,0.11246917,0.14769581,-0.00905276,10.02207088
1691752812102152,-0.01183872,0.06668453,-0.00698588,10.50360489
1691752812108496,-0.09406333,-0.08853464,-0.00499972,10.76914310
1691752812110166,-0.03568347,-0.12963113,-0.00392626,10.62577534
1691752812114662,0.14237370,0.03920303,-0.00793971,9.75836658
1691752812116641,-0.00979517,0.11942914,-0.00957764,10.21160698
1691752812120299,-0.09934828,0.11656772,-0.00919610,10.54178143
1691752812124246,-0.11370276,-0.09931634,-0.00685251,10.80585575
1691752812128080,-0.04856998,-0.11839872,-0.00554298,10.48871517
1691752812131113,0.03611589,0.08081484,-0.00958937,9.92087269
1691752812135978,0.04499837,0.06490047,-0.01018274,9.97034359
1691752812146761,-0.08842833,-0.07005959,-0.00762291,10.83921623
1691752812146896,-0.12642784,-0.06029656,-0.00767042,10.81606007
1691752812147057,-0.05237681,0.03978913,-0.00908539,10.14525509
1691752812149181,-0.08568716,-0.12396768,-0.00637904,10.57759953
1691752812153218,-0.03302791,-0.11402283,-0.00549576,10.51070023
1691752812157516,-0.04894323,-0.07492670,-0.00608257,10.34330654
1691752812161233,-0.08265403,-0.05468914,-0.00630723,10.64292145
1691752812163820,-0.00905189,0.11114728,-0.00930581,10.07164955
1691752812168543,0.00623429,0.03410786,-0.00780839,10.20419884
1691752812171858,-0.09288789,-0.09601694,-0.00547654,10.73166656
1691752812174860,0.02029588,0.01139611,-0.00686629,10.17809010
1691752812178992,0.03780413,0.00986017,-0.00692177,10.07957649
1691752812182201,0.02131738,0.08154838,-0.00797955,10.24672222
1691752812186235,-0.12488008,-0.08994894,-0.00487460,10.87673187
1691752812190273,-0.14968064,-0.10028756,-0.00457594,10.76701832
1691752812194482,-0.06776465,-0.13681932,-0.00306337,10.42342472
1691752812197151,0.04423999,0.00701146,-0.00510497,9.95152378
1691752812201308,0.00618141,0.01914625,-0.00532605,10.20369339
1691752812205990,-0.03072800,0.01585311,-0.00516548,10.40294933
1691752812207709,-0.10333011,-0.09669468,-0.00333002,10.89402580
1691752812211308,-0.08443689,0.03170910,-0.00483383,10.39756584
1691752812215249,-0.06562843,-0.00117128,-0.00440312,10.29670906
1691752812219324,-0.01581027,-0.04761573,-0.00341091,10.39057350
1691752812222905,-0.01407003,-0.01395052,-0.00404751,10.35988045
1691752812225845,-0.07200274,-0.01952041,-0.00410683,10.51253796
1691752812229325,-0.07934430,-0.02981610,-0.00406079,10.43602848
1691752812233299,-0.00506224,-0.09406900,-0.00293517,10.40213776
1691752812237336,-0.00589285,-0.03885122,-0.00401155,10.31242657
1691752812242860,-0.05494560,0.01254431,-0.00488725,10.30619144
1691752812244329,-0.04870038,-0.02729943,-0.00438483,10.44012642
1691752812248229,-0.05206996,-0.08150366,-0.00378283,10.68385220
1691752812251952,-0.06259743,-0.03875445,-0.00436302,10.57170391
1691752812254781,-0.03802411,0.02415055,-0.00407602,10.32956886
1691752812259178,0.00646963,-0.01321317,-0.00272233,10.28651142
1691752812262318,0.00366236,-0.05631095,-0.00202512,10.32581520
1691752812267258,-0.05387487,-0.04741049,-0.00248728,10.59628010
1691752812270594,-0.08775294,-0.03353838,-0.00271374,10.58190632
1691752812274959,-0.06596150,-0.05356904,-0.00227401,10.36760998
1691752812277345,-0.01217915,-0.03641741,-0.00229908,10.28179550
1691752812280932,-0.02004396,-0.02627535,-0.00255050,10.28478336
1691752812283825,-0.04864056,-0.04833496,-0.00239749,10.57131386
1691752812289156,-0.07160803,-0.01854510,-0.00281876,10.46793175
1691752812291261,-0.04288266,-0.05225419,-0.00241709,10.36645603
1691752812295367,-0.00650578,-0.04400663,-0.00225013,10.34326839
1691752812299174,-0.00931582,-0.00804495,-0.00278371,10.23901749
1691752812303239,-0.00241344,-0.00750455,-0.00304222,10.38277817
1691752812306354,-0.05609033,-0.02332447,-0.00297289,10.60444260
1691752812309503,-0.11992824,-0.10263247,-0.00183341,10.79131222
1691752812313370,0.04704485,-0.02805530,-0.00118226,10.00587749
1691752812319425,0.05926662,0.05046050,-0.00212601,10.22096157
1691752812320940,-0.00017757,0.03285354,-0.00170833,10.31751442
1691752812324817,-0.03683984,-0.03333677,-0.00089625,10.45902729
1691752812328523,-0.05347619,-0.00876766,-0.00120337,10.52013206
1691752812331666,-0.00893665,-0.01337746,-0.00136387,10.39115524
1691752812337344,0.03181126,-0.03859121,-0.00101089,10.20673847
1691752812339307,0.01762652,0.00872812,-0.00188515,10.31194878
1691752812342181,-0.04173224,-0.02659156,-0.00169264,10.55452633
1691752812349197,-0.06782145,0.02182585,-0.00234663,10.47304535
1691752812350066,0.12924588,0.08998126,-0.00433389,9.89890480
1691752812356071,0.00550047,-0.05580126,-0.00125072,10.49518967
1691752812360489,-0.00434574,0.00120587,-0.00223125,10.43321705
1691752812361276,-0.02844664,0.02553703,-0.00260773,10.40855598
1691752812363621,-0.05290174,-0.03214098,-0.00188615,10.58913517
1691752812372951,0.12764917,0.03637277,-0.00299333,9.96749210
1691752812373205,0.00308728,-0.02922626,-0.00182815,10.54095173
1691752812375094,0.00316816,-0.01312542,-0.00203785,10.46463490
1691752812378612,-0.03088106,0.01697529,-0.00235454,10.38937950
1691752812382433,-0.04205725,0.04073669,-0.00187199,10.51253986
1691752812386400,-0.04895628,0.05782232,-0.00160021,10.51275539
1691752812390451,-0.01128260,0.00701776,-0.00065131,10.30389881
1691752812393120,0.03127908,-0.00286024,0.00013634,10.28335094
1691752812397443,0.02771294,0.03985610,0.00004039,10.26228237
1691752812401183,0.00438273,-0.00051734,0.00062038,10.41920567
1691752812404003,-0.03531825,-0.02999637,0.00094194,10.61315632
1691752812407672,-0.02792868,-0.05454650,0.00125363,10.48588657
1691752812411468,0.14009181,0.07324186,-0.00115804,9.96542263
1691752812415439,0.01864612,-0.00994546,0.00078918,10.59494305
1691752812419369,-0.01260022,-0.01467412,0.00100946,10.49331665
1691752812421923,-0.02639657,0.00882646,0.00076392,10.41267109
1691752812425796,-0.03388964,-0.00652037,0.00087564,10.66233158
1691752812429615,-0.03777698,0.00053030,0.00083782,10.59015083
1691752812433436,0.12384843,0.08483482,-0.00111433,9.99217987
1691752812437592,-0.00626637,-0.00510726,0.00093748,10.55420780
1691752812441067,-0.00343653,0.00060471,0.00094139,10.48520279
1691752812448008,-0.00165724,-0.00155056,0.00103489,10.49223518
1691752812448201,-0.02324848,0.00088458,0.00101912,10.47624969
1691752812451485,-0.05275299,0.00506338,0.00095027,10.66960621
1691752812462019,0.12482925,0.07738109,-0.00089617,10.18890381
1691752812462194,-0.01234450,-0.02606951,0.00143094,10.58134556
1691752812463052,-0.01384004,-0.00049660,0.00116526,10.50340652
1691752812466364,0.01337017,-0.00788640,0.00105426,10.41058922
1691752812470209,0.00979299,0.02171784,0.00044842,10.50387287
1691752812472956,-0.03857452,0.06276084,0.00059438,10.50787354
1691752812477193,-0.03889224,0.06386957,0.00104591,10.54344082
1691752812480458,0.01512240,-0.04428944,0.00224270,10.46770096
1691752812484644,0.04150982,0.00969283,0.00140081,10.39821911
1691752812488513,-0.01405215,0.04048315,0.00103054,10.39056206
1691752812491075,-0.05863304,0.01521755,0.00135422,10.63205242
1691752812494916,0.13586336,0.10134616,-0.00114900,10.00143909
1691752812498814,0.00106595,-0.01573958,0.00164443,10.57041264
1691752812502496,-0.01959916,-0.01120799,0.00147378,10.42144108
1691752812506409,-0.06914050,0.00139405,0.00130572,10.55956078
1691752812510366,-0.04357098,-0.00502613,0.00135852,10.50278091
1691752812513163,0.14927693,0.04532491,0.00006747,9.83460426
1691752812520628,-0.01989377,0.02218127,0.00097095,10.57842255
1691752812520992,-0.03866016,0.03196060,0.00085768,10.38515663
1691752812524468,-0.02255219,0.02288722,0.00119643,10.51482487
1691752812527865,-0.05053309,0.06615783,0.00119358,10.37734032
1691752812531051,0.00711346,0.03650493,0.00198477,10.34277534
1691752812535041,0.03510397,0.04797583,0.00215646,10.21820450
1691752812542112,0.02225837,0.03790758,0.00283540,10.39044189
1691752812542414,-0.03772585,0.02209839,0.00405411,10.53576660
1691752812547892,-0.06596630,-0.03677129,0.00467215,10.52632809
1691752812550143,-0.00067724,-0.05746797,0.00513422,10.34222221
1691752812553059,0.06523947,-0.06391542,0.00569323,10.34653187
1691752812556675,0.00769258,0.00879579,0.00441131,10.19183636
1691752812560948,0.00481785,-0.00067799,0.00436381,10.27756596
1691752812564582,-0.02148505,-0.00484537,0.00439988,10.54342747
1691752812567307,-0.02360421,-0.02203170,0.00463482,10.40246487
1691752812579674,0.13593246,0.08943965,0.00202865,9.92075348
1691752812579871,-0.00884183,0.02208103,0.00401578,10.63258076
1691752812580052,0.12875931,0.11578860,0.00111994,10.09429550
1691752812582927,0.09135301,0.11148765,0.00117697,10.16109276
1691752812586648,-0.07360717,-0.00689497,0.00368141,10.80990601
1691752812590397,-0.09874635,-0.02980185,0.00379673,10.66849422
1691752812592990,-0.04957622,-0.06969314,0.00435356,10.41064739
1691752812597649,-0.00686112,-0.03119375,0.00407288,10.25706387
1691752812600179,-0.02742634,0.00633435,0.00350478,10.29016399
1691752812603975,-0.01290357,0.02819411,0.00339313,10.45529652
1691752812607790,-0.00777136,-0.07811842,0.00553775,7.86601496
1691752812611794,0.01559945,-0.16113588,0.00713180,7.83663273
1691752812615528,0.05683007,-0.17403249,0.00794274,7.80841732
1691752812619449,0.06454464,-0.09714134,0.00648505,7.79121256
1691752812622115,-0.00811349,-0.11786080,0.00626066,7.96835709
1691752812625763,-0.04149114,-0.08948696,0.00560132,7.90220881
1691752812629613,-0.02536098,-0.07172167,0.00548044,7.85481167
1691752812633596,0.03082776,-0.11129756,0.00653338,7.79937315
1691752812637686,0.01408453,-0.08157383,0.00578024,7.90550709
1691752812641134,0.01211938,-0.08929142,0.00582035,7.91184235
1691752812644072,0.01784738,-0.10528354,0.00600589,7.99086285
1691752812647729,0.30983853,0.16788447,-0.00234553,7.29352713
1691752812651711,0.02040531,-0.07633384,0.00584499,8.27515221
1691752812655668,-0.02199506,-0.13971651,0.00668927,8.35872841
1691752812659264,-0.03010579,-0.08497943,0.00585415,8.51266766
1691752812662038,-0.01322888,-0.10327830,0.00627984,8.40371799
1691752812665834,-0.01023687,-0.08311749,0.00604539,8.40249920
1691752812669707,0.19966504,0.17464511,-0.00028178,7.88852406
1691752812673649,0.11599676,0.03101156,0.00437141,8.35349560
1691752812677393,-0.00285439,-0.07600451,0.00650993,8.89252472
1691752812680463,-0.04550608,-0.05723818,0.00610377,8.96643925
1691752812684240,-0.02874833,-0.05445098,0.00612145,9.00417995
1691752812687735,-0.01914958,-0.05694040,0.00622075,9.02891159
1691752812691872,0.09648519,0.06916581,0.00381325,8.67668438
1691752812695765,0.10049757,0.11751483,0.00279511,8.81512833
1691752812698598,0.05285001,0.04042557,0.00457440,9.04795456
1691752812703956,0.05049626,0.03329745,0.00458691,9.18335915
1691752812705822,-0.02510836,-0.01974966,0.00560100,9.43541908
1691752812709663,0.02919782,0.04635258,0.00477508,9.32446957
1691752812713721,-0.05391580,-0.00829587,0.00559006,9.56225586
1691752812716510,-0.05586037,0.00500922,0.00550303,9.61624622
1691752812720651,-0.04391966,-0.01018036,0.00560853,9.62347412
1691752812723822,-0.04073430,0.01858194,0.00520916,9.68044376
1691752812727487,-0.02259353,0.03487333,0.00515647,9.69318390
1691752812731323,-0.02279162,0.01132876,0.00539500,9.71865177
1691752812734797,0.03740539,0.08494300,0.00366790,9.61217403
1691752812738428,0.02618883,0.09070127,0.00336603,9.68285179
1691752812742589,0.02497672,0.08024329,0.00310440,9.75296307
1691752812746898,0.01387062,0.08625495,0.00276480,9.81532192
1691752812749792,0.00521205,0.08967768,0.00248225,9.86201572
1691752812752829,0.00632226,0.07969547,0.00221069,9.88519382
1691752812756769,-0.03000955,0.04041443,0.00295496,9.98780060
1691752812760840,-0.03848657,0.03783868,0.00293838,10.02182102
1691752812764857,-0.03295713,0.06300416,0.00295160,10.01994991
1691752812768423,-0.03109039,0.06259904,0.00319690,10.04899597
1691752812771148,-0.00551186,0.08835161,0.00304369,10.01319790
1691752812774839,-0.01731737,0.01378187,0.00435705,10.13731861
1691752812779106,-0.01522765,0.00666860,0.00449605,10.18057632
1691752812782914,-0.01349696,0.01945920,0.00432975,10.19531918
1691752812786031,-0.02130967,0.03848797,0.00413232,10.19537544
1691752812789918,0.00580145,0.08125633,0.00298012,10.12627792
1691752812793713,0.01852934,0.08156852,0.00252195,10.15979767
1691752812797498,0.01691892,0.08105610,0.00229395,10.19533539
1691752812800273,-0.03081643,-0.00367909,0.00375829,10.49321461
1691752812804034,-0.03632963,-0.00002282,0.00364597,10.53347397
1691752812807882,-0.03894877,0.01307368,0.00348870,10.48653889
1691752812814700,-0.03125915,0.01412921,0.00351386,10.45859909
1691752812815766,-0.01667190,0.02786079,0.00327708,10.40882397
1691752812818393,0.01146094,0.08916582,0.00175697,10.28042698
1691752812822028,0.01188582,0.10072415,0.00105184,10.27960014
1691752812826103,-0.03791806,0.03376182,0.00241905,10.52143192
1691752812829922,-0.03507810,0.06888205,0.00296300,10.44430542
1691752812833849,0.01490791,0.10238501,0.00278980,10.32721424
1691752812837617,-0.00974369,0.05465708,0.00498637,10.43039417
1691752812840389,-0.00414790,0.07074802,0.00532929,10.40263271
1691752812844019,0.02090321,0.08670582,0.00440631,10.33598042
1691752812847912,-0.04164245,0.00497281,0.00607704,10.60082340
1691752812851776,-0.04283135,0.00342739,0.00612773,10.59640598
1691752812855497,-0.02280003,0.00898405,0.00588278,10.53734112
1691752812859713,-0.00388455,0.02505083,0.00554777,10.50442791
1691752812862038,0.00618062,0.08242497,0.00441626,10.32642269
1691752812865969,-0.02977766,0.01414535,0.00556643,10.52804756
1691752812869801,-0.03128648,0.02655281,0.00528563,10.47675705
1691752812873856,0.01111377,0.06972528,0.00433814,10.32781887
1691752812877515,-0.00736983,0.02095381,0.00532960,10.42071819
1691752812880549,0.00710756,0.07344880,0.00408354,10.27332306
1691752812884658,0.02258611,0.06878807,0.00355138,10.27721405
1691752812888153,-0.02016345,-0.00306486,0.00473972,10.49753284
1691752812891720,0.01575059,0.04166835,0.00399075,10.32739544
1691752812896058,-0.01261806,0.00049142,0.00479339,10.41615868
1691752812898501,-0.00149058,0.03260369,0.00456327,10.36521435
1691752812904165,0.02234124,0.06760257,0.00429585,10.26611519
1691752812905756,-0.01851691,0.02580642,0.00613375,10.42077732
1691752812913121,0.00674235,0.04547119,0.00568921,10.30355835
1691752812917432,-0.00829480,-0.01466676,0.00678349,10.44045925
1691752812917755,0.00004676,-0.02745559,0.00708583,10.41817665
1691752812923780,-0.01251821,-0.00585946,0.00658536,10.36963367
1691752812925591,-0.01997957,-0.02883449,0.00656054,10.43982315
1691752812927376,-0.02563444,-0.00695070,0.00624091,10.40152359
1691752812934919,-0.00523476,-0.03431743,0.00678684,10.35820675
1691752812935051,-0.00172316,-0.00325315,0.00621713,10.29506779
1691752812938935,0.00057738,0.00969554,0.00574788,10.28136635
1691752812943173,0.02404732,0.02734581,0.00511607,10.22601891
1691752812945679,-0.00879846,-0.01442745,0.00575110,10.32371807
1691752812949977,-0.01363922,-0.00840776,0.00546238,10.32423782
1691752812953911,0.00654114,-0.02281667,0.00563669,10.31961346
1691752812965970,0.01156619,-0.01707618,0.00549696,10.28501892
1691752812966579,-0.00472605,-0.02259657,0.00530611,10.31067276
1691752812968107,-0.00416790,-0.02450727,0.00513944,10.30584717
1691752812971954,0.02468758,-0.04826721,0.00561068,10.30249214
1691752812978866,0.00693479,0.00710900,0.00524627,10.21703148
1691752812979417,0.00495009,0.01591362,0.00513570,10.20254993
1691752812982025,0.01276673,-0.00694068,0.00573693,10.23460960
1691752812989310,0.01280799,-0.00388630,0.00628504,10.24108505
1691752812989863,0.04149445,0.00351738,0.00599328,10.18671608
1691752812996713,0.02536913,-0.04083626,0.00676609,10.24301052
1691752812996870,0.05926337,-0.00735841,0.00598805,10.16449165
1691752813000935,0.05233942,0.00708658,0.00527660,10.15494537
1691752813004891,0.01224110,-0.04918797,0.00608423,10.26900578
1691752813011613,0.01129435,-0.07586072,0.00635914,10.29031372
1691752813011755,0.02280404,-0.07621229,0.00634350,10.28555012
1691752813015518,0.01840356,-0.05490899,0.00591650,10.25129700
1691752813019150,0.00966989,-0.02305995,0.00525436,10.21997356
1691752813023439,0.02327209,-0.04417796,0.00539881,10.22897911
1691752813026730,0.02608916,-0.06713948,0.00564135,10.28710175
1691752813029275,0.00706723,-0.04502941,0.00509758,10.25493431
1691752813033332,0.03632418,-0.01281750,0.00437291,10.17765617
1691752813036885,0.03427687,-0.05609822,0.00502492,10.24086285
1691752813041042,0.02078197,-0.02282845,0.00428286,10.20942116
1691752813045665,0.01756004,-0.02176850,0.00396513,10.20402908
1691752813048033,0.01941870,-0.06389917,0.00452759,10.25265408
1691752813051881,0.01110726,-0.04113298,0.00402060,10.25274467
1691752813055852,0.01313401,-0.03237915,0.00371834,10.22992611
1691752813058536,0.02347878,-0.03426601,0.00370757,10.21965981
1691752813061930,0.03356731,-0.04118851,0.00360726,10.22709751
1691752813066024,0.04885334,0.00507346,0.00228992,10.15993023
1691752813070043,0.01606422,-0.05422842,0.00309525,10.27092934
1691752813074623,0.01395927,-0.06186892,0.00301581,10.27229595
1691752813077325,0.03109272,-0.07646971,0.00308972,10.25901604
1691752813080372,0.02987794,-0.04139078,0.00227241,10.23976898
1691752813084312,0.04968582,0.00238938,0.00112989,10.16009140
1691752813092467,0.05701327,-0.00617761,0.00094590,10.15214348
1691752813092601,0.01741548,-0.04400844,0.00139426,10.25279808
1691752813094628,0.00739752,-0.03826954,0.00122664,10.24176979
1691752813098258,0.01256191,-0.00640102,0.00102137,10.21615314
1691752813105150,0.02489740,-0.02081149,0.00157331,10.20457935
1691752813105289,0.06095555,0.01037110,0.00111860,10.15001583
1691752813109916,0.02233550,-0.01049511,0.00166620,10.21118355
1691752813113014,0.00965130,-0.03456749,0.00238709,10.26007652
1691752813117120,0.05224828,-0.00570413,0.00227056,10.18793774
1691752813121299,0.03805865,-0.11362775,0.00445490,10.32918072
1691752813124821,0.01914109,-0.07509070,0.00365008,10.29990196
1691752813127518,0.00909702,-0.05198806,0.00322446,10.27718830
1691752813131277,0.04492169,-0.01476200,0.00182036,10.19632912
1691752813135064,0.00381249,-0.06113089,0.00254462,10.32035065
1691752813139299,-0.00032097,-0.07494184,0.00267367,10.34524441
1691752813141892,-0.01367502,-0.05944681,0.00221744,10.32525826
1691752813145687,-0.00252129,-0.01432658,0.00169517,10.27262878
1691752813149310,0.00792659,-0.03919555,0.00240623,10.30155182
1691752813153165,0.00158231,-0.02488427,0.00208940,10.28129387
1691752813157196,0.01748616,-0.04253979,0.00211447,10.29979801
1691752813161148,-0.00236259,-0.03898435,0.00201045,10.33989620
1691752813166875,-0.01409278,-0.04692689,0.00200303,10.36304569
1691752813168122,-0.01615948,-0.03749574,0.00187096,10.34474277
1691752813173223,-0.00812387,-0.03099259,0.00163221,10.34401512
1691752813174988,0.00316363,-0.02141095,0.00129423,10.35729980
1691752813179087,0.01105381,0.02821199,0.00026580,10.24810123
1691752813182145,-0.01146745,-0.00787563,0.00101779,10.33635902
1691752813185699,-0.01924337,-0.02001957,0.00092805,10.39025211
1691752813190063,-0.02229772,-0.02463495,0.00107284,10.37645435
1691752813192947,-0.00839702,-0.03113579,0.00145561,10.38069153
1691752813196935,0.00167754,0.03557646,-0.00017455,10.26533604
1691752813200268,-0.01165053,-0.00067958,0.00056681,10.34086704
1691752813204626,-0.02744174,-0.01992300,0.00101115,10.40156937
1691752813208043,-0.03628940,-0.02022360,0.00091375,10.40083027
1691752813212149,-0.02213545,-0.02555122,0.00086404,10.38918972
1691752813214777,-0.02322912,-0.00136212,0.00046683,10.34600639
1691752813221738,-0.00444537,0.04223574,-0.00056882,10.26001072
1691752813222742,-0.02362537,0.02085260,0.00010928,10.30762291
1691752813225618,-0.02898149,0.01080446,0.00044603,10.34919262
1691752813229353,-0.00143607,0.05084060,-0.00014876,10.27013397
1691752813233190,-0.02208686,-0.02974817,0.00191931,10.39935493
1691752813237114,-0.02143116,-0.01593529,0.00157710,10.36414337
1691752813243528,-0.02061018,0.00017298,0.00096036,10.34083462
1691752813244007,-0.03292733,-0.01149493,0.00117346,10.40283871
1691752813247593,-0.04054031,-0.01952891,0.00147134,10.36740494
1691752813251158,-0.02855533,-0.00704471,0.00118886,10.33559799
1691752813255169,-0.01738612,0.00377144,0.00093878,10.30296326
1691752813259261,0.00392172,0.04435115,-0.00014180,10.23704624
1691752813263009,-0.03570047,0.00671557,0.00077114,10.32233810
1691752813270128,-0.04381366,0.00822347,0.00070338,10.32737064
1691752813270844,-0.03410711,0.00443033,0.00073280,10.30712223
1691752813275401,-0.01998491,0.00790726,0.00070214,10.28645802
1691752813277803,-0.03209490,0.03083769,0.00027786,10.26290035
1691752813280102,-0.04074559,0.01614804,0.00052544,10.28887367
1691752813284208,-0.04010955,0.01435586,0.00046199,10.30405712
1691752813288187,0.00182356,0.03747959,-0.00008295,10.21426964
1691752813291883,-0.02494200,0.04541627,0.00063698,10.23225880
1691752813296773,-0.02939941,0.05085602,0.00078567,10.22490788
1691752813298604,0.00439859,0.06773317,0.00068786,10.17619991
1691752813302277,-0.02744633,0.00105848,0.00226306,10.28042030
1691752813306165,-0.04453913,0.01777926,0.00182794,10.26488018
1691752813310661,-0.02733615,0.00150999,0.00202725,10.25967026
1691752813317246,0.00626145,0.04263753,0.00114362,10.18340015
1691752813317619,-0.00698483,0.05929495,0.00075511,10.17035580
1691752813320588,-0.03627309,0.01595897,0.00157191,10.24362946
1691752813323864,-0.03765886,0.00332052,0.00169628,10.25256634
1691752813328436,-0.00136687,0.03412512,0.00101087,10.18968201
1691752813331943,-0.02928347,0.00723469,0.00171816,10.22228718
1691752813334733,-0.03289118,0.01755009,0.00151649,10.21741772
1691752813338439,-0.00224314,0.04591358,0.00062830,10.16226673
1691752813342321,-0.03162536,0.00274486,0.00151049,10.24276733
1691752813346227,-0.04756825,0.01645858,0.00115049,10.23911953
1691752813350448,-0.04243177,0.01009903,0.00117530,10.23122215
1691752813353103,-0.02725639,0.00371235,0.00137484,10.22086143
1691752813357705,-0.00352493,0.05031289,0.00038862,10.15781689
1691752813361122,-0.00976428,0.06234497,-0.00011544,10.15083694
1691752813363885,-0.02748230,0.01335659,0.00075991,10.22099495
1691752813368287,-0.03600359,0.02091469,0.00064349,10.23265171
1691752813371920,-0.04164089,0.02742602,0.00053086,10.22611237
1691752813374774,-0.02705311,0.01478284,0.00077971,10.21024609
1691752813378605,-0.01897793,0.01888142,0.00067701,10.19896030
1691752813382173,0.01054851,0.04905743,-0.00034207,10.14903259
1691752813386238,-0.03083094,0.02346221,0.00026593,10.20887184
1691752813390273,-0.03585346,0.01369919,0.00035542,10.22566128
1691752813392885,-0.02968807,0.01461162,0.00012639,10.23097897
1691752813396881,-0.02019276,0.01050117,0.00015879,10.21788311
1691752813400686,-0.01632121,0.01688852,0.00004018,10.21406364
1691752813404321,-0.01651274,0.02378380,-0.00012270,10.20056152
1691752813408298,0.00763916,0.05286985,-0.00105265,10.15288734
1691752813412149,-0.01851155,0.05332134,0.00011811,10.19549465
1691752813414713,-0.01996218,0.05129400,0.00103345,10.20209885
1691752813418326,0.01292052,0.04552271,0.00091273,10.17735481
1691752813422292,-0.00658517,0.00571260,0.00166427,10.22461891
1691752813426387,-0.00849181,0.01430507,0.00155222,10.21609879
1691752813430200,0.01178768,0.04099852,0.00087347,10.17043114
1691752813433849,0.02256385,0.04091313,0.00054965,10.17156029
1691752813437100,-0.01271129,-0.00094113,0.00109041,10.26074886
1691752813440269,-0.01917155,-0.00486387,0.00103640,10.27274323
1691752813444484,0.01369831,0.02499553,0.00032666,10.20666122
1691752813448237,0.00074063,-0.01443024,0.00095593,10.26735401
1691752813452093,-0.00578046,-0.00098761,0.00063528,10.26616669
1691752813454708,-0.00447416,0.00417358,0.00039416,10.25702190
1691752813459914,0.00220719,-0.01001806,0.00035070,10.27957726
1691752813462412,-0.01044959,-0.00599123,0.00004986,10.31701088
1691752813466278,-0.02318058,0.01125349,-0.00047076,10.29344940
1691752813470169,-0.00059649,0.01911714,0.00028622,10.27215004
1691752813472909,0.01074838,0.01837023,0.00105964,10.25912476
1691752813476732,0.04095824,0.05190922,0.00063836,10.21351147
1691752813480573,0.02757735,0.05072686,0.00107285,10.21176720
1691752813484421,0.00093988,0.00760424,0.00243391,10.30448818
1691752813488398,0.00315134,0.00695711,0.00288200,10.31909943
1691752813492272,0.01548260,0.00223477,0.00372320,10.30285645
1691752813494795,0.02359820,-0.03489234,0.00446589,10.33098507
1691752813498926,0.01613312,-0.01591953,0.00414940,10.30709839
1691752813504456,0.00796243,-0.03248228,0.00433120,10.35454655
1691752813506351,0.00831115,-0.02788545,0.00427345,10.36094284
1691752813510368,0.04218344,0.00309027,0.00372494,10.26945114
1691752813512915,0.02524669,-0.02848015,0.00420319,10.33709717
1691752813516660,0.01700732,-0.00793750,0.00380867,10.30384254
1691752813520636,0.01900393,-0.00865182,0.00380508,10.30373096
1691752813524468,0.00878575,-0.01867923,0.00390727,10.33619213
1691752813528684,0.01022689,-0.01708251,0.00375520,10.35499287
1691752813532245,0.03532726,0.01791721,0.00310722,10.26607323
1691752813534902,0.01830317,-0.01321703,0.00366495,10.30545330
1691752813538823,0.03762897,0.02257566,0.00273142,10.23656559
1691752813542573,0.04054607,0.02995126,0.00194485,10.22944641
1691752813547232,0.01757836,-0.02806094,0.00285966,10.34650707
1691752813550136,0.00271997,-0.01791518,0.00264395,10.33250427
1691752813553415,0.01172554,-0.01867622,0.00263663,10.31343174
1691752813557331,0.02042410,-0.01765975,0.00253617,10.31074142
1691752813561351,0.04137132,0.01965464,0.00162100,10.24514866
1691752813563825,0.00965591,-0.01762807,0.00221860,10.32549095
1691752813567761,-0.00252473,-0.00579443,0.00183517,10.33527756
1691752813571216,0.03094203,0.01807519,0.00133538,10.26895523
1691752813575498,0.01982157,-0.01936465,0.00205922,10.32888412
1691752813578370,0.01208069,-0.00233245,0.00166824,10.29388428
1691752813582041,0.01322349,0.00381053,0.00131337,10.28846550
1691752813585842,0.01125759,-0.00005532,0.00131155,10.29740715
1691752813590135,0.00245524,-0.01883654,0.00161540,10.33656216
1691752813592977,0.02586722,0.01663516,0.00096630,10.26084232
1691752813598252,0.01955796,-0.01402209,0.00149940,10.31227970
1691752813603851,0.02536995,-0.01159322,0.00143764,10.30527973
1691752813605147,0.03060471,0.02741116,0.00058681,10.23971081
1691752813608508,0.00339852,-0.01634053,0.00135810,10.32531071
1691752813611125,-0.00033983,-0.01098809,0.00114913,10.34671783
1691752813615520,0.04095985,0.02218132,0.00125466,10.26169109
1691752813619381,0.01133184,0.01064414,0.00179902,10.29635906
1691752813621985,0.00890664,0.01435313,0.00202177,10.28680897
1691752813625661,0.04198735,0.04148199,0.00204734,10.24391174
1691752813629422,0.01054870,-0.02813230,0.00350728,10.36716938
1691752813633470,-0.00254250,-0.01968038,0.00334065,10.34855556
1691752813638268,0.00845463,-0.02906104,0.00348155,10.35443783
1691752813640155,0.01455097,-0.01889206,0.00341114,10.32404327
1691752813644537,0.00363005,-0.00339433,0.00312304,10.29506779
1691752813647512,-0.00294112,-0.01348924,0.00327020,10.32479668
1691752813650990,-0.00098680,-0.01882481,0.00328308,10.33828163
1691752813654942,0.03494745,0.00549807,0.00291365,10.27070141
1691752813658410,0.00470388,-0.01854731,0.00356880,10.30331230
1691752813662039,0.00105807,-0.00870173,0.00332558,10.29757881
1691752813666368,0.02706491,0.01851241,0.00230248,10.24774361
1691752813669497,-0.00170362,-0.02781355,0.00317910,10.33787632
1691752813673660,-0.01817995,-0.01600128,0.00291105,10.32061672
1691752813677772,-0.01404047,-0.01704597,0.00287889,10.31471729
1691752813680289,0.00671079,-0.02691006,0.00312911,10.30830097
1691752813684504,-0.00127806,-0.00452220,0.00263349,10.27953815
1691752813687683,-0.00960558,0.00695512,0.00223920,10.27360535
1691752813691684,-0.01662346,-0.00646191,0.00241825,10.29999828
1691752813695667,-0.01529752,0.01496362,0.00256066,10.26652622
1691752813702142,-0.00858976,0.01266659,0.00297418,10.26306152
1691752813703164,-0.00774448,0.01581084,0.00322927,10.25054359
1691752813706105,0.00150637,0.00764580,0.00345334,10.24792290
1691752813709777,-0.00041572,0.00846364,0.00359353,10.25077248
1691752813713605,-0.01503651,0.00862723,0.00394459,10.26968670
