timestamp,roll,pitch,thrust,yaw,aux1,aux2,aux3,aux4
1704703685929818,1500,1500,1000,1500,1000,0,0,0
1704703685932835,1500,1500,1000,1500,1000,0,0,0
1704703685935804,1500,1500,1000,1500,1000,0,0,0
1704703685938582,1500,1500,1000,1500,1000,0,0,0
1704703685942304,1500,1500,1000,1500,1000,0,0,0
1704703685945033,1500,1500,1000,1500,1000,0,0,0
1704703685947610,1500,1500,1000,1500,1000,0,0,0
1704703685951334,1500,1500,1000,1500,1000,0,0,0
1704703685953615,1500,1500,1000,1500,1000,0,0,0
1704703685956659,1500,1500,1000,1500,1000,0,0,0
1704703685959701,1500,1500,1000,1500,1000,0,0,0
1704703685963096,1500,1500,1000,1500,1000,0,0,0
1704703685965816,1500,1500,1000,1500,1000,0,0,0
1704703685968781,1500,1500,1000,1500,1000,0,0,0
1704703685971667,1500,1500,1000,1500,1000,0,0,0
1704703685974833,1500,1500,1000,1500,1000,0,0,0
1704703685977841,1500,1500,1000,1500,1000,0,0,0
1704703685981686,1500,1500,1000,1500,1000,0,0,0
1704703685983960,1500,1500,1000,1500,1000,0,0,0
1704703685986733,1500,1500,1000,1500,1000,0,0,0
1704703685989678,1500,1500,1000,1500,1000,0,0,0
1704703685993508,1500,1500,1000,1500,1000,0,0,0
1704703685996543,1500,1500,1000,1500,1000,0,0,0
1704703685998721,1500,1500,1000,1500,1000,0,0,0
1704703686001763,1500,1500,1000,1500,1000,0,0,0
1704703686004532,1500,1500,1000,1500,1000,0,0,0
1704703686007698,1500,1500,1000,1500,1000,0,0,0
1704703686010613,1500,1500,1000,1500,1000,0,0,0
1704703686013610,1500,1500,1000,1500,1000,0,0,0
1704703686016754,1500,1500,1000,1500,1000,0,0,0
1704703686019819,1500,1500,1000,1500,1000,0,0,0
1704703686022489,1500,1500,1000,1500,1000,0,0,0
1704703686025723,1500,1500,1000,1500,1000,0,0,0
1704703686029544,1500,1500,1000,1500,1000,0,0,0
1704703686032190,1500,1500,1000,1500,1000,0,0,0
1704703686034763,1500,1500,1000,1500,1000,0,0,0
1704703686037529,1500,1500,1000,1500,1000,0,0,0
1704703686052823,1506,1503,1142,1494,1000,0,0,0
1704703686059412,1491,1490,1258,1494,1000,0,0,0
1704703686066221,1489,1489,1263,1494,1000,0,0,0
1704703686072210,1489,1489,1257,1494,1000,0,0,0
1704703686078341,1490,1490,1250,1495,1000,0,0,0
1704703686084669,1490,1490,1243,1495,1000,0,0,0
1704703686091083,1491,1491,1235,1495,1000,0,0,0
1704703686097422,1492,1492,1228,1496,1000,0,0,0
1704703686103811,1494,1495,1219,1496,1000,0,0,0
1704703686110275,1497,1497,1211,1496,1000,0,0,0
1704703686116444,1501,1501,1203,1496,1000,0,0,0
1704703686122730,1503,1503,1198,1496,1000,0,0,0
1704703686129078,1505,1505,1195,1496,1000,0,0,0
1704703686135472,1508,1508,1189,1496,1000,0,0,0
1704703686142339,1510,1510,1187,1496,1000,0,0,0
1704703686148154,1511,1510,1185,1496,1000,0,0,0
1704703686154546,1511,1510,1185,1496,1000,0,0,0
1704703686160872,1510,1509,1186,1497,1000,0,0,0
1704703686167321,1509,1508,1188,1497,1000,0,0,0
1704703686173498,1507,1506,1191,1497,1000,0,0,0
1704703686179798,1505,1503,1193,1497,1000,0,0,0
1704703686186275,1503,1501,1196,1498,1000,0,0,0
1704703686192488,1500,1498,1197,1498,1000,0,0,0
1704703686198682,1498,1496,1198,1498,1000,0,0,0
1704703686204952,1495,1494,1198,1498,1000,0,0,0
1704703686211333,1493,1492,1197,1498,1000,0,0,0
1704703686217591,1490,1490,1195,1498,1000,0,0,0
1704703686223780,1489,1490,1195,1498,1000,0,0,0
1704703686230145,1488,1490,1194,1498,1000,0,0,0
1704703686236430,1488,1491,1193,1498,1000,0,0,0
1704703686242662,1489,1492,1193,1498,1000,0,0,0
1704703686249017,1491,1495,1193,1498,1000,0,0,0
1704703686255361,1493,1497,1193,1498,1000,0,0,0
1704703686261687,1495,1499,1193,1498,1000,0,0,0
1704703686268198,1499,1501,1192,1498,1000,0,0,0
1704703686274360,1502,1503,1192,1498,1000,0,0,0
1704703686280714,1506,1506,1192,1498,1000,0,0,0
1704703686286973,1509,1507,1193,1498,1000,0,0,0
1704703686293332,1512,1507,1193,1498,1000,0,0,0
1704703686299638,1513,1507,1194,1498,1000,0,0,0
1704703686305894,1514,1506,1194,1498,1000,0,0,0
1704703686312326,1514,1504,1195,1498,1000,0,0,0
1704703686318644,1513,1502,1196,1498,1000,0,0,0
1704703686324847,1512,1500,1197,1498,1000,0,0,0
1704703686331158,1509,1498,1198,1499,1000,0,0,0
1704703686337527,1506,1496,1199,1499,1000,0,0,0
1704703686343924,1503,1495,1200,1499,1000,0,0,0
1704703686350159,1497,1492,1201,1499,1000,0,0,0
1704703686356385,1494,1492,1201,1499,1000,0,0,0
1704703686362809,1490,1491,1201,1499,1000,0,0,0
1704703686369087,1488,1492,1201,1499,1000,0,0,0
1704703686375321,1485,1493,1200,1499,1000,0,0,0
1704703686381536,1484,1494,1200,1499,1000,0,0,0
1704703686387936,1483,1495,1200,1499,1000,0,0,0
1704703686394249,1484,1498,1200,1499,1000,0,0,0
1704703686400535,1486,1501,1200,1499,1000,0,0,0
1704703686406777,1489,1503,1200,1499,1000,0,0,0
1704703686413008,1491,1504,1200,1499,1000,0,0,0
1704703686419283,1496,1506,1200,1499,1000,0,0,0
1704703686425526,1498,1507,1201,1498,1000,0,0,0
1704703686431836,1504,1507,1201,1498,1000,0,0,0
1704703686438303,1508,1507,1202,1498,1000,0,0,0
1704703686444566,1511,1507,1203,1498,1000,0,0,0
1704703686450960,1514,1506,1204,1498,1000,0,0,0
1704703686457197,1515,1505,1205,1498,1000,0,0,0
1704703686463682,1516,1503,1205,1498,1000,0,0,0
1704703686470312,1516,1500,1206,1499,1000,0,0,0
1704703686476222,1514,1498,1207,1499,1000,0,0,0
1704703686482553,1513,1497,1208,1499,1000,0,0,0
1704703686488922,1509,1495,1209,1499,1000,0,0,0
1704703686495262,1505,1493,1210,1499,1000,0,0,0
1704703686501548,1502,1493,1210,1499,1000,0,0,0
1704703686507773,1498,1493,1211,1499,1000,0,0,0
1704703686514157,1493,1493,1212,1499,1000,0,0,0
1704703686520403,1491,1493,1211,1499,1000,0,0,0
1704703686526807,1487,1496,1211,1499,1000,0,0,0
1704703686533064,1485,1497,1210,1499,1000,0,0,0
1704703686539309,1484,1499,1210,1499,1000,0,0,0
1704703686545651,1484,1501,1210,1499,1000,0,0,0
1704703686552143,1485,1503,1210,1499,1000,0,0,0
1704703686558219,1487,1504,1210,1499,1000,0,0,0
1704703686564758,1490,1506,1211,1499,1000,0,0,0
1704703686570895,1493,1507,1211,1499,1000,0,0,0
1704703686577232,1497,1507,1212,1499,1000,0,0,0
1704703686583591,1502,1507,1213,1499,1000,0,0,0
1704703686589821,1505,1506,1215,1499,1000,0,0,0
1704703686596180,1508,1506,1216,1499,1000,0,0,0
1704703686602487,1512,1504,1218,1499,1000,0,0,0
1704703686608763,1513,1503,1218,1499,1000,0,0,0
1704703686615195,1514,1501,1219,1499,1000,0,0,0
1704703686621606,1515,1500,1219,1499,1000,0,0,0
1704703686627865,1514,1497,1220,1499,1000,0,0,0
1704703686634240,1514,1496,1221,1499,1000,0,0,0
1704703686640505,1511,1494,1222,1500,1000,0,0,0
1704703686646859,1509,1494,1223,1500,1000,0,0,0
1704703686653069,1504,1493,1224,1500,1000,0,0,0
1704703686659353,1500,1494,1225,1499,1000,0,0,0
1704703686665610,1499,1494,1226,1499,1000,0,0,0
1704703686672109,1494,1495,1226,1500,1000,0,0,0
1704703686678328,1491,1497,1226,1500,1000,0,0,0
1704703686684513,1489,1499,1226,1500,1000,0,0,0
1704703686690930,1487,1500,1226,1500,1000,0,0,0
1704703686697167,1487,1502,1226,1500,1000,0,0,0
1704703686703647,1486,1503,1226,1500,1000,0,0,0
1704703686709704,1487,1504,1227,1500,1000,0,0,0
1704703686716197,1489,1506,1227,1500,1000,0,0,0
1704703686722310,1492,1506,1229,1500,1000,0,0,0
1704703686728593,1495,1507,1230,1500,1000,0,0,0
1704703686734888,1497,1506,1231,1500,1000,0,0,0
1704703686741219,1501,1506,1233,1500,1000,0,0,0
1704703686747529,1503,1505,1235,1500,1000,0,0,0
1704703686753807,1505,1504,1237,1500,1000,0,0,0
1704703686760148,1507,1503,1238,1500,1000,0,0,0
1704703686766454,1508,1502,1240,1500,1000,0,0,0
1704703686772834,1508,1500,1242,1500,1000,0,0,0
1704703686779058,1508,1499,1243,1500,1000,0,0,0
1704703686785354,1507,1498,1244,1500,1000,0,0,0
1704703686791653,1505,1498,1244,1500,1000,0,0,0
1704703686797958,1504,1497,1245,1500,1000,0,0,0
1704703686804311,1502,1497,1246,1500,1000,0,0,0
1704703686810560,1500,1497,1246,1500,1000,0,0,0
1704703686816958,1498,1497,1246,1500,1000,0,0,0
1704703686823186,1497,1497,1247,1500,1000,0,0,0
1704703686829478,1496,1498,1247,1500,1000,0,0,0
1704703686835757,1495,1499,1247,1500,1000,0,0,0
1704703686842261,1494,1500,1247,1500,1000,0,0,0
1704703686848485,1494,1501,1247,1500,1000,0,0,0
1704703686854772,1495,1502,1248,1500,1000,0,0,0
1704703686860981,1496,1503,1247,1500,1000,0,0,0
1704703686867266,1497,1503,1247,1500,1000,0,0,0
1704703686873556,1498,1503,1247,1500,1000,0,0,0
1704703686880010,1499,1503,1247,1500,1000,0,0,0
1704703686886227,1500,1503,1247,1500,1000,0,0,0
1704703686892491,1502,1503,1246,1500,1000,0,0,0
1704703686898895,1503,1502,1246,1500,1000,0,0,0
1704703686905196,1504,1501,1245,1500,1000,0,0,0
1704703686911456,1505,1500,1245,1500,1000,0,0,0
1704703686917760,1505,1499,1244,1500,1000,0,0,0
1704703686924243,1505,1499,1244,1500,1000,0,0,0
1704703686930339,1504,1498,1244,1500,1000,0,0,0
1704703686936647,1504,1498,1243,1500,1000,0,0,0
1704703686943054,1503,1498,1243,1500,1000,0,0,0
1704703686949266,1502,1497,1243,1500,1000,0,0,0
1704703686955690,1501,1497,1243,1500,1000,0,0,0
1704703686962150,1500,1498,1243,1500,1000,0,0,0
1704703686968162,1499,1498,1244,1500,1000,0,0,0
1704703686974720,1499,1498,1244,1500,1000,0,0,0
1704703686980980,1498,1499,1244,1500,1000,0,0,0
1704703686987116,1498,1499,1245,1500,1000,0,0,0
1704703686993438,1498,1499,1245,1500,1000,0,0,0
1704703686999721,1498,1500,1245,1500,1000,0,0,0
1704703687006931,1498,1500,1246,1500,1000,0,0,0
1704703687012264,1498,1500,1246,1500,1000,0,0,0
1704703687018729,1499,1500,1247,1500,1000,0,0,0
1704703687024925,1500,1500,1248,1500,1000,0,0,0
1704703687032082,1500,1500,1248,1500,1000,0,0,0
1704703687037551,1500,1500,1248,1500,1000,0,0,0
1704703687043833,1501,1500,1249,1500,1000,0,0,0
1704703687050237,1501,1500,1249,1500,1000,0,0,0
1704703687057090,1501,1500,1250,1500,1000,0,0,0
1704703687062850,1501,1499,1251,1500,1000,0,0,0
1704703687069108,1501,1499,1251,1500,1000,0,0,0
1704703687075404,1501,1498,1252,1500,1000,0,0,0
1704703687081705,1501,1498,1252,1500,1000,0,0,0
1704703687087952,1501,1498,1253,1500,1000,0,0,0
1704703687094253,1501,1498,1254,1500,1000,0,0,0
1704703687100592,1500,1498,1254,1500,1000,0,0,0
1704703687107071,1500,1498,1255,1500,1000,0,0,0
1704703687113030,1499,1498,1255,1500,1000,0,0,0
1704703687119412,1499,1498,1255,1500,1000,0,0,0
1704703687125766,1498,1498,1256,1500,1000,0,0,0
1704703687132338,1498,1497,1256,1500,1000,0,0,0
1704703687138224,1498,1497,1256,1500,1000,0,0,0
1704703687144651,1498,1497,1256,1500,1000,0,0,0
1704703687150919,1497,1497,1255,1500,1000,0,0,0
1704703687157069,1497,1497,1255,1500,1000,0,0,0
1704703687163386,1497,1497,1254,1500,1000,0,0,0
1704703687169647,1497,1497,1254,1500,1000,0,0,0
1704703687176001,1497,1497,1253,1500,1000,0,0,0
1704703687182411,1497,1497,1252,1500,1000,0,0,0
1704703687188551,1498,1497,1252,1500,1000,0,0,0
1704703687194888,1498,1497,1252,1500,1000,0,0,0
1704703687201187,1498,1497,1251,1500,1000,0,0,0
1704703687207540,1498,1498,1251,1500,1000,0,0,0
1704703687213745,1498,1498,1251,1500,1000,0,0,0
1704703687220198,1499,1497,1251,1500,1000,0,0,0
1704703687226395,1499,1497,1251,1500,1000,0,0,0
1704703687232673,1499,1497,1251,1500,1000,0,0,0
1704703687238919,1499,1497,1251,1500,1000,0,0,0
1704703687245234,1499,1497,1252,1500,1000,0,0,0
1704703687251589,1499,1497,1252,1500,1000,0,0,0
1704703687257859,1499,1497,1253,1500,1000,0,0,0
1704703687264175,1499,1498,1253,1500,1000,0,0,0
1704703687270805,1498,1498,1254,1500,1000,0,0,0
1704703687276945,1498,1498,1255,1500,1000,0,0,0
1704703687283277,1498,1498,1255,1500,1000,0,0,0
1704703687289573,1498,1498,1256,1500,1000,0,0,0
1704703687295902,1498,1498,1256,1500,1000,0,0,0
1704703687302367,1498,1498,1257,1500,1000,0,0,0
1704703687308663,1498,1498,1257,1500,1000,0,0,0
1704703687315064,1499,1499,1258,1500,1000,0,0,0
1704703687321326,1499,1499,1258,1500,1000,0,0,0
1704703687327706,1499,1499,1258,1500,1000,0,0,0
1704703687333886,1499,1500,1258,1500,1000,0,0,0
1704703687340243,1499,1500,1259,1500,1000,0,0,0
1704703687346668,1500,1500,1259,1500,1000,0,0,0
1704703687352879,1500,1501,1258,1500,1000,0,0,0
1704703687359226,1500,1501,1258,1500,1000,0,0,0
1704703687365515,1500,1501,1258,1500,1000,0,0,0
1704703687371834,1500,1501,1258,1500,1000,0,0,0
1704703687378209,1499,1500,1257,1500,1000,0,0,0
1704703687384434,1499,1500,1257,1500,1000,0,0,0
1704703687390861,1499,1500,1257,1500,1000,0,0,0
1704703687397064,1499,1500,1257,1500,1000,0,0,0
1704703687403355,1499,1500,1256,1500,1000,0,0,0
1704703687409718,1499,1499,1256,1500,1000,0,0,0
1704703687416024,1499,1499,1256,1500,1000,0,0,0
1704703687422341,1500,1499,1256,1500,1000,0,0,0
1704703687428718,1500,1499,1256,1500,1000,0,0,0
1704703687434944,1500,1499,1256,1500,1000,0,0,0
1704703687441273,1500,1499,1257,1500,1000,0,0,0
1704703687447595,1501,1500,1257,1500,1000,0,0,0
1704703687453881,1501,1500,1257,1500,1000,0,0,0
1704703687460278,1501,1500,1258,1500,1000,0,0,0
1704703687466477,1501,1501,1259,1500,1000,0,0,0
1704703687472848,1501,1501,1259,1500,1000,0,0,0
1704703687479201,1501,1501,1260,1500,1000,0,0,0
1704703687485467,1501,1501,1261,1500,1000,0,0,0
1704703687491755,1501,1501,1262,1500,1000,0,0,0
1704703687498023,1501,1501,1263,1500,1000,0,0,0
1704703687504290,1501,1502,1264,1500,1000,0,0,0
1704703687510657,1501,1502,1265,1500,1000,0,0,0
1704703687516933,1501,1502,1266,1500,1000,0,0,0
1704703687523211,1501,1502,1267,1500,1000,0,0,0
1704703687529480,1501,1502,1267,1500,1000,0,0,0
1704703687535913,1501,1502,1267,1500,1000,0,0,0
1704703687542260,1501,1501,1268,1500,1000,0,0,0
1704703687548435,1501,1501,1268,1500,1000,0,0,0
1704703687554782,1501,1501,1268,1500,1000,0,0,0
1704703687561085,1501,1501,1268,1500,1000,0,0,0
1704703687567384,1501,1501,1268,1500,1000,0,0,0
1704703687573678,1501,1501,1267,1500,1000,0,0,0
1704703687580092,1501,1501,1267,1500,1000,0,0,0
1704703687586267,1501,1501,1267,1500,1000,0,0,0
1704703687592584,1501,1501,1267,1500,1000,0,0,0
1704703687598845,1501,1501,1267,1500,1000,0,0,0
1704703687605203,1501,1501,1266,1500,1000,0,0,0
1704703687611577,1501,1501,1266,1500,1000,0,0,0
1704703687617802,1501,1502,1266,1500,1000,0,0,0
1704703687624156,1501,1502,1266,1500,1000,0,0,0
1704703687630491,1501,1502,1265,1500,1000,0,0,0
1704703687636770,1501,1501,1265,1500,1000,0,0,0
1704703687643153,1501,1501,1265,1500,1000,0,0,0
1704703687649424,1501,1501,1265,1500,1000,0,0,0
1704703687655856,1501,1501,1265,1500,1000,0,0,0
1704703687662245,1501,1501,1265,1500,1000,0,0,0
1704703687668340,1501,1500,1265,1500,1000,0,0,0
1704703687674671,1501,1500,1265,1500,1000,0,0,0
1704703687681038,1501,1500,1265,1500,1000,0,0,0
1704703687687326,1501,1499,1265,1500,1000,0,0,0
1704703687693609,1501,1499,1265,1500,1000,0,0,0
1704703687700010,1501,1499,1265,1500,1000,0,0,0
1704703687706272,1501,1499,1266,1500,1000,0,0,0
1704703687712591,1501,1499,1266,1500,1000,0,0,0
1704703687718834,1501,1498,1266,1500,1000,0,0,0
1704703687725198,1501,1499,1266,1500,1000,0,0,0
1704703687731499,1501,1499,1267,1500,1000,0,0,0
1704703687737877,1501,1499,1267,1500,1000,0,0,0
1704703687744270,1501,1499,1267,1500,1000,0,0,0
1704703687750658,1501,1499,1267,1500,1000,0,0,0
1704703687756901,1501,1499,1267,1500,1000,0,0,0
1704703687763329,1501,1500,1268,1500,1000,0,0,0
1704703687769632,1502,1500,1268,1500,1000,0,0,0
1704703687776007,1502,1500,1268,1500,1000,0,0,0
1704703687782354,1501,1500,1268,1500,1000,0,0,0
1704703687788550,1501,1500,1268,1500,1000,0,0,0
1704703687794895,1501,1500,1268,1500,1000,0,0,0
1704703687801113,1501,1500,1268,1500,1000,0,0,0
1704703687807616,1500,1500,1268,1500,1000,0,0,0
1704703687813851,1500,1500,1268,1500,1000,0,0,0
1704703687820260,1500,1500,1268,1500,1000,0,0,0
1704703687826617,1499,1499,1268,1500,1000,0,0,0
1704703687832887,1499,1499,1268,1500,1000,0,0,0
1704703687839163,1499,1499,1267,1500,1000,0,0,0
1704703687845414,1498,1498,1267,1500,1000,0,0,0
1704703687851660,1498,1498,1267,1500,1000,0,0,0
1704703687857963,1498,1498,1266,1500,1000,0,0,0
1704703687864254,1498,1498,1266,1500,1000,0,0,0
1704703687870765,1498,1498,1266,1500,1000,0,0,0
1704703687876813,1498,1499,1265,1500,1000,0,0,0
1704703687883869,1498,1499,1265,1500,1000,0,0,0
1704703687889460,1498,1499,1265,1500,1000,0,0,0
1704703687895815,1498,1499,1265,1500,1000,0,0,0
1704703687901913,1498,1499,1265,1500,1000,0,0,0
1704703687908234,1498,1499,1265,1500,1000,0,0,0
1704703687914567,1498,1499,1265,1500,1000,0,0,0
1704703687920776,1498,1499,1265,1500,1000,0,0,0
1704703687927081,1498,1499,1265,1500,1000,0,0,0
1704703687933438,1498,1499,1265,1500,1000,0,0,0
1704703687939819,1498,1499,1265,1500,1000,0,0,0
1704703687945953,1498,1499,1266,1500,1000,0,0,0
1704703687952273,1498,1499,1266,1500,1000,0,0,0
1704703687958562,1498,1499,1267,1500,1000,0,0,0
1704703687964869,1498,1499,1267,1500,1000,0,0,0
1704703687971156,1498,1499,1267,1500,1000,0,0,0
1704703687977490,1498,1499,1268,1500,1000,0,0,0
1704703687983822,1498,1499,1268,1500,1000,0,0,0
1704703687990374,1498,1499,1268,1500,1000,0,0,0
1704703687996389,1498,1499,1269,1500,1000,0,0,0
1704703688002660,1498,1499,1269,1500,1000,0,0,0
1704703688009018,1499,1499,1269,1500,1000,0,0,0
1704703688015242,1499,1499,1269,1500,1000,0,0,0
1704703688021515,1499,1499,1269,1500,1000,0,0,0
1704703688027740,1499,1499,1268,1500,1000,0,0,0
1704703688034056,1499,1499,1268,1500,1000,0,0,0
1704703688040314,1499,1499,1268,1500,1000,0,0,0
1704703688046617,1499,1499,1267,1500,1000,0,0,0
1704703688052889,1499,1499,1267,1500,1000,0,0,0
1704703688059364,1499,1499,1267,1500,1000,0,0,0
1704703688065879,1499,1499,1266,1500,1000,0,0,0
1704703688072132,1500,1499,1266,1500,1000,0,0,0
1704703688078229,1500,1499,1265,1500,1000,0,0,0
1704703688084688,1500,1499,1265,1500,1000,0,0,0
1704703688090930,1500,1499,1265,1500,1000,0,0,0
1704703688097267,1500,1499,1264,1500,1000,0,0,0
1704703688103553,1501,1499,1264,1500,1000,0,0,0
1704703688109869,1501,1499,1264,1500,1000,0,0,0
1704703688116248,1501,1499,1263,1500,1000,0,0,0
1704703688122558,1501,1499,1263,1500,1000,0,0,0
1704703688128906,1501,1499,1262,1500,1000,0,0,0
1704703688135195,1500,1499,1262,1500,1000,0,0,0
1704703688141477,1500,1499,1262,1500,1000,0,0,0
1704703688147743,1500,1499,1262,1500,1000,0,0,0
1704703688153989,1500,1499,1262,1500,1000,0,0,0
1704703688160313,1500,1500,1262,1500,1000,0,0,0
1704703688166713,1500,1500,1262,1500,1000,0,0,0
1704703688172969,1500,1500,1262,1500,1000,0,0,0
1704703688179385,1500,1500,1262,1500,1000,0,0,0
1704703688185541,1500,1500,1262,1500,1000,0,0,0
1704703688191830,1500,1500,1262,1500,1000,0,0,0
1704703688198263,1500,1500,1263,1500,1000,0,0,0
1704703688204398,1500,1500,1263,1500,1000,0,0,0
1704703688210832,1500,1500,1263,1500,1000,0,0,0
1704703688217123,1500,1500,1264,1500,1000,0,0,0
1704703688223627,1500,1500,1264,1500,1000,0,0,0
1704703688229654,1500,1500,1264,1500,1000,0,0,0
1704703688236014,1500,1500,1264,1500,1000,0,0,0
1704703688242350,1500,1500,1265,1500,1000,0,0,0
1704703688248546,1500,1500,1265,1500,1000,0,0,0
1704703688254871,1500,1500,1265,1500,1000,0,0,0
1704703688261135,1500,1500,1265,1500,1000,0,0,0
1704703688267290,1500,1500,1265,1500,1000,0,0,0
1704703688273632,1500,1500,1265,1500,1000,0,0,0
1704703688279781,1500,1500,1264,1500,1000,0,0,0
1704703688286257,1501,1500,1264,1500,1000,0,0,0
1704703688292452,1501,1500,1264,1500,1000,0,0,0
1704703688298802,1501,1500,1264,1500,1000,0,0,0
1704703688305103,1501,1500,1263,1500,1000,0,0,0
1704703688311337,1501,1500,1263,1500,1000,0,0,0
1704703688317750,1501,1500,1262,1500,1000,0,0,0
1704703688324227,1501,1500,1262,1500,1000,0,0,0
1704703688330286,1500,1500,1262,1500,1000,0,0,0
1704703688336658,1500,1500,1262,1500,1000,0,0,0
1704703688342909,1500,1499,1261,1500,1000,0,0,0
1704703688350363,1500,1499,1261,1500,1000,0,0,0
1704703688355385,1500,1499,1261,1500,1000,0,0,0
1704703688361729,1499,1499,1260,1500,1000,0,0,0
1704703688367964,1499,1499,1260,1500,1000,0,0,0
1704703688374213,1499,1500,1260,1500,1000,0,0,0
1704703688380475,1500,1500,1260,1500,1000,0,0,0
1704703688386873,1500,1500,1260,1500,1000,0,0,0
1704703688393122,1500,1500,1260,1500,1000,0,0,0
1704703688399375,1500,1500,1260,1500,1000,0,0,0
1704703688405581,1500,1500,1260,1500,1000,0,0,0
1704703688412003,1500,1500,1261,1500,1000,0,0,0
1704703688418387,1500,1500,1261,1500,1000,0,0,0
1704703688424385,1500,1500,1261,1500,1000,0,0,0
1704703688430608,1499,1500,1261,1499,1000,0,0,0
1704703688436925,1499,1500,1261,1499,1000,0,0,0
1704703688443103,1499,1500,1261,1499,1000,0,0,0
1704703688449304,1499,1499,1261,1499,1000,0,0,0
1704703688455725,1499,1499,1261,1500,1000,0,0,0
1704703688461885,1499,1499,1261,1500,1000,0,0,0
1704703688468269,1499,1499,1261,1500,1000,0,0,0
1704703688474421,1499,1500,1261,1500,1000,0,0,0
1704703688480675,1499,1500,1261,1500,1000,0,0,0
1704703688486995,1499,1500,1261,1500,1000,0,0,0
1704703688493523,1499,1500,1261,1499,1000,0,0,0
1704703688499581,1499,1500,1261,1500,1000,0,0,0
1704703688505804,1499,1500,1261,1500,1000,0,0,0
1704703688512428,1499,1500,1260,1499,1000,0,0,0
1704703688518311,1499,1500,1260,1500,1000,0,0,0
1704703688524637,1499,1500,1260,1500,1000,0,0,0
1704703688530899,1499,1500,1260,1500,1000,0,0,0
1704703688537360,1499,1500,1260,1500,1000,0,0,0
1704703688543530,1499,1500,1260,1500,1000,0,0,0
1704703688549818,1499,1499,1260,1500,1000,0,0,0
1704703688556249,1499,1499,1260,1500,1000,0,0,0
1704703688562436,1499,1499,1260,1500,1000,0,0,0
1704703688568771,1499,1499,1260,1499,1000,0,0,0
1704703688574984,1499,1499,1260,1499,1000,0,0,0
1704703688581239,1499,1499,1260,1499,1000,0,0,0
1704703688587648,1499,1499,1259,1500,1000,0,0,0
1704703688594420,1499,1499,1259,1500,1000,0,0,0
1704703688600214,1499,1499,1259,1500,1000,0,0,0
1704703688606369,1499,1499,1259,1500,1000,0,0,0
1704703688612727,1499,1499,1259,1500,1000,0,0,0
1704703688619114,1499,1499,1259,1500,1000,0,0,0
1704703688625226,1500,1499,1259,1500,1000,0,0,0
1704703688631507,1500,1499,1259,1500,1000,0,0,0
1704703688637899,1500,1499,1258,1500,1000,0,0,0
1704703688644403,1500,1499,1258,1500,1000,0,0,0
1704703688650506,1500,1499,1258,1500,1000,0,0,0
1704703688656633,1500,1499,1258,1500,1000,0,0,0
1704703688663032,1500,1500,1258,1500,1000,0,0,0
1704703688671005,1500,1500,1258,1500,1000,0,0,0
1704703688675366,1500,1500,1258,1500,1000,0,0,0
1704703688681625,1500,1500,1258,1500,1000,0,0,0
1704703688688009,1500,1500,1258,1500,1000,0,0,0
1704703688694514,1500,1501,1258,1500,1000,0,0,0
1704703688700528,1500,1501,1259,1500,1000,0,0,0
1704703688706796,1500,1501,1259,1500,1000,0,0,0
1704703688713186,1500,1501,1259,1500,1000,0,0,0
1704703688719544,1500,1501,1259,1500,1000,0,0,0
1704703688725882,1500,1501,1259,1500,1000,0,0,0
1704703688732171,1500,1501,1259,1500,1000,0,0,0
1704703688738264,1500,1500,1259,1500,1000,0,0,0
1704703688744602,1500,1500,1259,1500,1000,0,0,0
1704703688750901,1500,1500,1259,1500,1000,0,0,0
1704703688757201,1500,1499,1259,1500,1000,0,0,0
1704703688763469,1499,1499,1259,1500,1000,0,0,0
1704703688769786,1499,1499,1259,1500,1000,0,0,0
1704703688776021,1499,1499,1259,1500,1000,0,0,0
1704703688782331,1499,1499,1259,1500,1000,0,0,0
1704703688788576,1499,1499,1258,1500,1000,0,0,0
1704703688794956,1499,1499,1258,1500,1000,0,0,0
1704703688801087,1499,1499,1258,1500,1000,0,0,0
1704703688807395,1499,1499,1257,1500,1000,0,0,0
1704703688813630,1499,1499,1257,1500,1000,0,0,0
1704703688820576,1499,1500,1256,1500,1000,0,0,0
1704703688826227,1499,1500,1256,1500,1000,0,0,0
1704703688832460,1499,1500,1256,1500,1000,0,0,0
1704703688838769,1499,1500,1256,1500,1000,0,0,0
1704703688845617,1499,1500,1255,1500,1000,0,0,0
1704703688851270,1499,1500,1255,1500,1000,0,0,0
1704703688857577,1499,1500,1255,1500,1000,0,0,0
1704703688864805,1499,1500,1255,1500,1000,0,0,0
1704703688870709,1499,1500,1255,1500,1000,0,0,0
1704703688876369,1499,1500,1256,1500,1000,0,0,0
1704703688882640,1499,1499,1256,1500,1000,0,0,0
1704703688888939,1499,1499,1256,1500,1000,0,0,0
1704703688896007,1499,1499,1257,1500,1000,0,0,0
1704703688901418,1499,1499,1257,1500,1000,0,0,0
1704703688907736,1499,1499,1258,1500,1000,0,0,0
1704703688914017,1499,1499,1258,1500,1000,0,0,0
1704703688920495,1499,1499,1259,1500,1000,0,0,0
1704703688926561,1499,1499,1259,1500,1000,0,0,0
1704703688932973,1499,1499,1259,1500,1000,0,0,0
1704703688939128,1499,1499,1260,1500,1000,0,0,0
1704703688946386,1499,1499,1261,1500,1000,0,0,0
1704703688951701,1499,1499,1261,1500,1000,0,0,0
1704703688957987,1499,1499,1261,1500,1000,0,0,0
1704703688964274,1499,1499,1262,1500,1000,0,0,0
1704703688970623,1499,1499,1262,1500,1000,0,0,0
1704703688976823,1499,1499,1262,1500,1000,0,0,0
1704703688983112,1499,1499,1261,1500,1000,0,0,0
1704703688989435,1499,1499,1261,1500,1000,0,0,0
1704703688996780,1499,1499,1261,1500,1000,0,0,0
1704703689001935,1499,1499,1260,1500,1000,0,0,0
1704703689008228,1500,1500,1260,1500,1000,0,0,0
1704703689014470,1499,1499,1259,1500,1000,0,0,0
1704703689021357,1499,1500,1259,1500,1000,0,0,0
1704703689027043,1499,1500,1259,1500,1000,0,0,0
1704703689033392,1499,1500,1258,1500,1000,0,0,0
1704703689039657,1499,1500,1258,1500,1000,0,0,0
1704703689047105,1499,1500,1257,1500,1000,0,0,0
1704703689052386,1500,1500,1257,1500,1000,0,0,0
1704703689058803,1500,1501,1256,1500,1000,0,0,0
1704703689065069,1500,1501,1256,1500,1000,0,0,0
1704703689071506,1501,1501,1256,1500,1000,0,0,0
1704703689077818,1501,1501,1256,1500,1000,0,0,0
1704703689084304,1501,1501,1255,1500,1000,0,0,0
1704703689090452,1501,1501,1255,1500,1000,0,0,0
1704703689096683,1500,1500,1255,1500,1000,0,0,0
1704703689102933,1500,1500,1255,1500,1000,0,0,0
1704703689109201,1500,1500,1255,1500,1000,0,0,0
1704703689115529,1500,1499,1255,1500,1000,0,0,0
1704703689122601,1500,1499,1255,1500,1000,0,0,0
1704703689128234,1499,1498,1256,1500,1000,0,0,0
1704703689134393,1499,1498,1256,1500,1000,0,0,0
1704703689140724,1499,1498,1257,1500,1000,0,0,0
1704703689147148,1499,1498,1257,1500,1000,0,0,0
1704703689153286,1499,1498,1258,1500,1000,0,0,0
1704703689159589,1499,1499,1258,1500,1000,0,0,0
1704703689165920,1499,1499,1258,1500,1000,0,0,0
1704703689172592,1499,1499,1259,1500,1000,0,0,0
1704703689178447,1499,1499,1259,1500,1000,0,0,0
1704703689184888,1500,1500,1260,1500,1000,0,0,0
1704703689191094,1500,1500,1260,1500,1000,0,0,0
1704703689197423,1500,1500,1260,1500,1000,0,0,0
1704703689203704,1500,1500,1260,1500,1000,0,0,0
1704703689209892,1499,1500,1260,1500,1000,0,0,0
1704703689216258,1499,1500,1260,1500,1000,0,0,0
1704703689222474,1499,1500,1260,1500,1000,0,0,0
1704703689228743,1499,1499,1259,1500,1000,0,0,0
1704703689234971,1499,1499,1259,1500,1000,0,0,0
1704703689241262,1499,1499,1259,1500,1000,0,0,0
1704703689247682,1499,1498,1258,1500,1000,0,0,0
1704703689253873,1499,1498,1258,1500,1000,0,0,0
1704703689260336,1499,1498,1258,1500,1000,0,0,0
1704703689266366,1499,1498,1257,1500,1000,0,0,0
1704703689272760,1499,1498,1257,1500,1000,0,0,0
1704703689278999,1499,1498,1257,1500,1000,0,0,0
1704703689285624,1499,1498,1257,1500,1000,0,0,0
1704703689291664,1499,1498,1257,1500,1000,0,0,0
1704703689297961,1499,1498,1257,1500,1000,0,0,0
1704703689304221,1499,1498,1257,1500,1000,0,0,0
1704703689310636,1499,1499,1257,1500,1000,0,0,0
1704703689316984,1499,1499,1257,1500,1000,0,0,0
1704703689323168,1499,1499,1257,1500,1000,0,0,0
1704703689329421,1499,1499,1257,1499,1000,0,0,0
1704703689335781,1499,1499,1258,1499,1000,0,0,0
1704703689342355,1499,1499,1258,1499,1000,0,0,0
1704703689348380,1499,1499,1258,1499,1000,0,0,0
1704703689354684,1499,1499,1258,1499,1000,0,0,0
1704703689360937,1499,1499,1259,1499,1000,0,0,0
1704703689367213,1499,1499,1259,1499,1000,0,0,0
1704703689373557,1499,1499,1259,1499,1000,0,0,0
1704703689379752,1499,1499,1259,1499,1000,0,0,0
1704703689385981,1499,1499,1259,1499,1000,0,0,0
1704703689392244,1499,1498,1259,1499,1000,0,0,0
1704703689398367,1499,1498,1259,1499,1000,0,0,0
1704703689404579,1499,1498,1259,1499,1000,0,0,0
1704703689410857,1499,1498,1259,1499,1000,0,0,0
1704703689417217,1499,1497,1258,1499,1000,0,0,0
1704703689423338,1499,1498,1258,1499,1000,0,0,0
1704703689429420,1500,1498,1258,1499,1000,0,0,0
1704703689435700,1500,1498,1258,1499,1000,0,0,0
1704703689441894,1500,1498,1257,1499,1000,0,0,0
1704703689448262,1500,1499,1257,1499,1000,0,0,0
1704703689454351,1500,1499,1257,1499,1000,0,0,0
1704703689460867,1500,1499,1257,1499,1000,0,0,0
1704703689466899,1500,1500,1256,1499,1000,0,0,0
1704703689473010,1500,1500,1256,1499,1000,0,0,0
1704703689479175,1500,1500,1256,1499,1000,0,0,0
1704703689485423,1500,1500,1256,1499,1000,0,0,0
1704703689491717,1500,1500,1256,1499,1000,0,0,0
1704703689497885,1500,1500,1256,1499,1000,0,0,0
1704703689504232,1500,1500,1257,1499,1000,0,0,0
1704703689510309,1500,1500,1257,1499,1000,0,0,0
1704703689516549,1499,1500,1257,1499,1000,0,0,0
1704703689522809,1499,1499,1257,1499,1000,0,0,0
1704703689529070,1499,1499,1258,1499,1000,0,0,0
1704703689535211,1499,1499,1258,1499,1000,0,0,0
1704703689541411,1499,1499,1258,1499,1000,0,0,0
1704703689547613,1500,1498,1258,1499,1000,0,0,0
1704703689553811,1500,1499,1259,1499,1000,0,0,0
1704703689560042,1500,1499,1259,1499,1000,0,0,0
1704703689566291,1500,1499,1259,1499,1000,0,0,0
1704703689572323,1500,1499,1259,1499,1000,0,0,0
1704703689578547,1500,1499,1260,1499,1000,0,0,0
1704703689584703,1500,1500,1260,1499,1000,0,0,0
1704703689590948,1500,1500,1260,1499,1000,0,0,0
1704703689596950,1500,1500,1260,1499,1000,0,0,0
1704703689603229,1500,1501,1260,1499,1000,0,0,0
1704703689609332,1500,1501,1260,1499,1000,0,0,0
1704703689615439,1501,1501,1260,1499,1000,0,0,0
1704703689621716,1501,1501,1260,1499,1000,0,0,0
1704703689627864,1501,1501,1260,1499,1000,0,0,0
1704703689634117,1501,1500,1260,1499,1000,0,0,0
1704703689640213,1501,1500,1260,1499,1000,0,0,0
1704703689646520,1501,1500,1260,1499,1000,0,0,0
1704703689652721,1501,1500,1259,1499,1000,0,0,0
1704703689658877,1501,1499,1259,1499,1000,0,0,0
1704703689665001,1501,1499,1259,1499,1000,0,0,0
1704703689671110,1501,1499,1259,1499,1000,0,0,0
1704703689677377,1500,1499,1259,1499,1000,0,0,0
1704703689683540,1500,1499,1259,1499,1000,0,0,0
1704703689689561,1500,1499,1259,1499,1000,0,0,0
1704703689695774,1500,1500,1259,1499,1000,0,0,0
1704703689701928,1500,1500,1259,1499,1000,0,0,0
1704703689708089,1500,1500,1259,1499,1000,0,0,0
1704703689714262,1500,1500,1259,1499,1000,0,0,0
1704703689720361,1500,1500,1259,1499,1000,0,0,0
1704703689726550,1500,1500,1259,1499,1000,0,0,0
1704703689732645,1500,1500,1259,1499,1000,0,0,0
1704703689738799,1500,1500,1259,1499,1000,0,0,0
1704703689744940,1500,1500,1259,1499,1000,0,0,0
1704703689751219,1500,1500,1259,1499,1000,0,0,0
1704703689757140,1500,1500,1259,1499,1000,0,0,0
1704703689763403,1500,1500,1259,1499,1000,0,0,0
1704703689769488,1500,1500,1260,1499,1000,0,0,0
1704703689775687,1500,1500,1260,1499,1000,0,0,0
1704703689781793,1500,1500,1260,1499,1000,0,0,0
1704703689787961,1500,1500,1260,1499,1000,0,0,0
1704703689794213,1500,1499,1260,1499,1000,0,0,0
1704703689800235,1500,1499,1260,1499,1000,0,0,0
1704703689806360,1500,1499,1260,1499,1000,0,0,0
1704703689812488,1500,1499,1260,1499,1000,0,0,0
1704703689818765,1500,1499,1260,1499,1000,0,0,0
1704703689824719,1500,1499,1260,1499,1000,0,0,0
1704703689830840,1500,1499,1260,1499,1000,0,0,0
1704703689837033,1500,1499,1260,1499,1000,0,0,0
1704703689843055,1500,1499,1260,1499,1000,0,0,0
1704703689849172,1499,1499,1260,1499,1000,0,0,0
1704703689855273,1499,1500,1260,1499,1000,0,0,0
1704703689861451,1499,1500,1260,1500,1000,0,0,0
1704703689867478,1499,1500,1260,1500,1000,0,0,0
1704703689873578,1499,1500,1260,1500,1000,0,0,0
1704703689879686,1500,1500,1260,1500,1000,0,0,0
1704703689885800,1500,1500,1259,1500,1000,0,0,0
1704703689891797,1500,1500,1259,1500,1000,0,0,0
1704703689897899,1500,1500,1259,1500,1000,0,0,0
1704703689904010,1500,1501,1259,1500,1000,0,0,0
1704703689910095,1500,1501,1259,1500,1000,0,0,0
1704703689916271,1500,1501,1259,1500,1000,0,0,0
1704703689922427,1500,1501,1259,1500,1000,0,0,0
1704703689928602,1500,1500,1259,1500,1000,0,0,0
1704703689934919,1500,1500,1259,1500,1000,0,0,0
1704703689940689,1500,1500,1259,1500,1000,0,0,0
1704703689946791,1500,1500,1259,1500,1000,0,0,0
1704703689952952,1500,1500,1259,1500,1000,0,0,0
1704703689959020,1500,1500,1260,1500,1000,0,0,0
1704703689965183,1500,1499,1260,1500,1000,0,0,0
1704703689971199,1500,1499,1260,1500,1000,0,0,0
1704703689977252,1500,1499,1260,1500,1000,0,0,0
1704703689983406,1500,1500,1260,1500,1000,0,0,0
1704703689989457,1500,1500,1260,1500,1000,0,0,0
1704703689995590,1500,1500,1260,1500,1000,0,0,0
1704703690001638,1500,1500,1260,1500,1000,0,0,0
1704703690007713,1500,1499,1261,1500,1000,0,0,0
1704703690013739,1500,1499,1261,1500,1000,0,0,0
1704703690019790,1499,1499,1261,1500,1000,0,0,0
1704703690025848,1499,1499,1261,1500,1000,0,0,0
1704703690032173,1499,1499,1261,1500,1000,0,0,0
1704703690038064,1499,1499,1261,1500,1000,0,0,0
1704703690044075,1499,1499,1261,1500,1000,0,0,0
1704703690050264,1499,1499,1261,1500,1000,0,0,0
1704703690056285,1499,1499,1261,1500,1000,0,0,0
1704703690062439,1499,1499,1261,1500,1000,0,0,0
1704703690068333,1499,1499,1261,1500,1000,0,0,0
1704703690074563,1499,1499,1261,1500,1000,0,0,0
1704703690080587,1499,1499,1261,1500,1000,0,0,0
1704703690086658,1499,1499,1261,1500,1000,0,0,0
1704703690092695,1499,1499,1261,1500,1000,0,0,0
1704703690098696,1499,1499,1261,1500,1000,0,0,0
1704703690104890,1499,1499,1261,1500,1000,0,0,0
1704703690110890,1499,1499,1261,1500,1000,0,0,0
1704703690116930,1499,1499,1261,1500,1000,0,0,0
1704703690123083,1499,1499,1261,1500,1000,0,0,0
1704703690129000,1499,1500,1261,1500,1000,0,0,0
1704703690135061,1499,1500,1261,1500,1000,0,0,0
1704703690141169,1499,1500,1261,1500,1000,0,0,0
1704703690147219,1499,1500,1261,1500,1000,0,0,0
1704703690153260,1499,1500,1261,1500,1000,0,0,0
1704703690159392,1499,1500,1261,1500,1000,0,0,0
1704703690165478,1499,1500,1262,1500,1000,0,0,0
1704703690171666,1499,1500,1261,1500,1000,0,0,0
1704703690177665,1499,1500,1261,1500,1000,0,0,0
1704703690183784,1499,1500,1262,1500,1000,0,0,0
1704703690189874,1499,1500,1261,1500,1000,0,0,0
1704703690195975,1499,1500,1261,1500,1000,0,0,0
1704703690201950,1499,1500,1261,1500,1000,0,0,0
1704703690208063,1499,1500,1261,1500,1000,0,0,0
1704703690214150,1499,1500,1261,1500,1000,0,0,0
1704703690220308,1499,1499,1261,1500,1000,0,0,0
1704703690226295,1499,1499,1262,1500,1000,0,0,0
1704703690232393,1499,1499,1262,1500,1000,0,0,0
1704703690238441,1499,1499,1262,1500,1000,0,0,0
1704703690244466,1499,1499,1262,1500,1000,0,0,0
1704703690250554,1499,1499,1262,1500,1000,0,0,0
1704703690256731,1500,1499,1262,1500,1000,0,0,0
1704703690262649,1500,1499,1262,1500,1000,0,0,0
1704703690268658,1499,1499,1262,1500,1000,0,0,0
1704703690274819,1499,1499,1263,1500,1000,0,0,0
1704703690280960,1499,1499,1263,1500,1000,0,0,0
1704703690286873,1499,1499,1263,1500,1000,0,0,0
1704703690292969,1499,1499,1263,1500,1000,0,0,0
1704703690299016,1499,1499,1263,1500,1000,0,0,0
1704703690304982,1499,1499,1263,1500,1000,0,0,0
1704703690311039,1499,1500,1263,1500,1000,0,0,0
1704703690317058,1499,1500,1264,1500,1000,0,0,0
1704703690323208,1499,1500,1264,1500,1000,0,0,0
1704703690329154,1499,1500,1264,1500,1000,0,0,0
1704703690335238,1499,1500,1264,1500,1000,0,0,0
1704703690341304,1499,1500,1264,1500,1000,0,0,0
1704703690347376,1499,1500,1264,1500,1000,0,0,0
1704703690353356,1499,1500,1264,1500,1000,0,0,0
1704703690359451,1499,1500,1264,1500,1000,0,0,0
1704703690365534,1499,1500,1263,1500,1000,0,0,0
1704703690371574,1499,1499,1263,1500,1000,0,0,0
1704703690377631,1499,1499,1263,1500,1000,0,0,0
1704703690383806,1500,1499,1263,1500,1000,0,0,0
1704703690389803,1500,1499,1263,1500,1000,0,0,0
1704703690395871,1500,1499,1262,1500,1000,0,0,0
1704703690401881,1500,1499,1262,1500,1000,0,0,0
1704703690407990,1500,1499,1262,1500,1000,0,0,0
1704703690413949,1500,1499,1262,1500,1000,0,0,0
1704703690420366,1500,1499,1261,1500,1000,0,0,0
1704703690426374,1500,1499,1261,1500,1000,0,0,0
1704703690432441,1500,1499,1261,1500,1000,0,0,0
1704703690438335,1500,1499,1261,1500,1000,0,0,0
1704703690444432,1500,1499,1261,1500,1000,0,0,0
1704703690450551,1500,1499,1261,1500,1000,0,0,0
1704703690456586,1500,1499,1261,1500,1000,0,0,0
1704703690462481,1500,1499,1261,1500,1000,0,0,0
1704703690468524,1500,1500,1261,1500,1000,0,0,0
1704703690474717,1499,1500,1261,1500,1000,0,0,0
1704703690480591,1499,1500,1262,1500,1000,0,0,0
1704703690486662,1499,1500,1262,1500,1000,0,0,0
1704703690492862,1499,1500,1262,1500,1000,0,0,0
1704703690498809,1499,1500,1262,1500,1000,0,0,0
1704703690504772,1499,1500,1262,1500,1000,0,0,0
1704703690511469,1499,1500,1262,1500,1000,0,0,0
1704703690517491,1499,1500,1262,1500,1000,0,0,0
1704703690523628,1499,1500,1262,1500,1000,0,0,0
1704703690529577,1499,1500,1262,1500,1000,0,0,0
1704703690535814,1500,1500,1262,1500,1000,0,0,0
1704703690541749,1500,1500,1262,1500,1000,0,0,0
1704703690548037,1500,1500,1262,1500,1000,0,0,0
1704703690553818,1500,1500,1262,1500,1000,0,0,0
1704703690559979,1500,1500,1262,1500,1000,0,0,0
1704703690566406,1500,1500,1262,1500,1000,0,0,0
1704703690572280,1500,1500,1262,1500,1000,0,0,0
1704703690578290,1500,1500,1262,1500,1000,0,0,0
1704703690584499,1500,1500,1262,1500,1000,0,0,0
1704703690590401,1500,1500,1262,1500,1000,0,0,0
1704703690596419,1500,1500,1262,1500,1000,0,0,0
1704703690602497,1500,1500,1262,1500,1000,0,0,0
1704703690608602,1500,1500,1262,1500,1000,0,0,0
1704703690614602,1500,1500,1262,1500,1000,0,0,0
1704703690620659,1500,1500,1262,1500,1000,0,0,0
1704703690627082,1500,1500,1262,1500,1000,0,0,0
1704703690632914,1500,1500,1261,1500,1000,0,0,0
1704703690638883,1500,1500,1261,1500,1000,0,0,0
1704703690644999,1500,1500,1261,1500,1000,0,0,0
1704703690651022,1500,1500,1261,1500,1000,0,0,0
1704703690657018,1500,1500,1261,1500,1000,0,0,0
1704703690663063,1500,1500,1261,1500,1000,0,0,0
1704703690669184,1500,1500,1261,1500,1000,0,0,0
1704703690675431,1500,1500,1261,1500,1000,0,0,0
1704703690681182,1500,1501,1261,1500,1000,0,0,0
1704703690687262,1500,1501,1261,1500,1000,0,0,0
1704703690693261,1500,1501,1261,1500,1000,0,0,0
1704703690699355,1500,1501,1261,1500,1000,0,0,0
1704703690705246,1500,1501,1261,1500,1000,0,0,0
1704703690711364,1500,1500,1261,1500,1000,0,0,0
1704703690717307,1500,1500,1261,1500,1000,0,0,0
1704703690723354,1501,1500,1261,1500,1000,0,0,0
1704703690729372,1501,1500,1261,1500,1000,0,0,0
1704703690735468,1501,1499,1261,1500,1000,0,0,0
1704703690741435,1501,1499,1261,1500,1000,0,0,0
1704703690747480,1501,1499,1261,1500,1000,0,0,0
1704703690753536,1500,1499,1261,1500,1000,0,0,0
1704703690759614,1500,1499,1261,1500,1000,0,0,0
1704703690766677,1500,1499,1262,1500,1000,0,0,0
1704703690775317,1500,1499,1262,1500,1000,0,0,0
1704703690784533,1500,1499,1262,1500,1000,0,0,0
1704703690792396,1500,1499,1262,1500,1000,0,0,0
1704703690798366,1500,1499,1262,1500,1000,0,0,0
1704703690804546,1500,1500,1262,1500,1000,0,0,0
1704703690810697,1500,1500,1263,1500,1000,0,0,0
1704703690816650,1500,1500,1263,1500,1000,0,0,0
1704703690822966,1499,1500,1263,1500,1000,0,0,0
1704703690828867,1499,1500,1262,1500,1000,0,0,0
1704703690834888,1499,1500,1262,1500,1000,0,0,0
1704703690841002,1500,1500,1262,1500,1000,0,0,0
1704703690846956,1500,1500,1262,1500,1000,0,0,0
1704703690853047,1500,1500,1262,1500,1000,0,0,0
1704703690859014,1500,1500,1262,1500,1000,0,0,0
1704703690865075,1500,1500,1261,1500,1000,0,0,0
1704703690871159,1500,1499,1261,1500,1000,0,0,0
1704703690877253,1500,1499,1261,1500,1000,0,0,0
1704703690883284,1500,1499,1261,1500,1000,0,0,0
1704703690889290,1500,1499,1261,1500,1000,0,0,0
1704703690895369,1500,1499,1260,1500,1000,0,0,0
1704703690901537,1500,1499,1260,1500,1000,0,0,0
1704703690907491,1500,1499,1260,1500,1000,0,0,0
1704703690913677,1500,1499,1260,1500,1000,0,0,0
1704703690919660,1499,1499,1260,1500,1000,0,0,0
1704703690925684,1499,1499,1260,1500,1000,0,0,0
1704703690931668,1499,1499,1260,1500,1000,0,0,0
1704703690937741,1499,1499,1260,1500,1000,0,0,0
1704703690943855,1499,1499,1260,1500,1000,0,0,0
1704703690949794,1499,1499,1260,1500,1000,0,0,0
1704703690955884,1499,1499,1260,1500,1000,0,0,0
1704703690961952,1499,1499,1260,1500,1000,0,0,0
1704703690967976,1499,1499,1260,1500,1000,0,0,0
1704703690974060,1499,1499,1260,1500,1000,0,0,0
1704703690980561,1499,1499,1261,1500,1000,0,0,0
1704703690986333,1499,1499,1261,1500,1000,0,0,0
1704703690992367,1499,1499,1261,1500,1000,0,0,0
1704703690998401,1499,1499,1261,1500,1000,0,0,0
1704703691004460,1499,1499,1262,1500,1000,0,0,0
1704703691010676,1499,1499,1262,1500,1000,0,0,0
1704703691016607,1499,1499,1262,1500,1000,0,0,0
1704703691022902,1499,1499,1263,1500,1000,0,0,0
1704703691028887,1499,1499,1263,1500,1000,0,0,0
1704703691034932,1499,1499,1263,1500,1000,0,0,0
1704703691040997,1499,1499,1263,1500,1000,0,0,0
1704703691047091,1499,1499,1263,1500,1000,0,0,0
1704703691053240,1499,1499,1263,1500,1000,0,0,0
1704703691059133,1499,1499,1263,1500,1000,0,0,0
1704703691065214,1499,1499,1263,1500,1000,0,0,0
1704703691071272,1499,1499,1263,1500,1000,0,0,0
1704703691077432,1499,1499,1263,1500,1000,0,0,0
1704703691083541,1499,1499,1263,1500,1000,0,0,0
1704703691089721,1499,1499,1263,1500,1000,0,0,0
1704703691095798,1499,1499,1263,1500,1000,0,0,0
1704703691101704,1499,1499,1263,1500,1000,0,0,0
1704703691107790,1499,1499,1263,1500,1000,0,0,0
1704703691113911,1499,1499,1263,1500,1000,0,0,0
1704703691119967,1499,1499,1262,1500,1000,0,0,0
1704703691125941,1500,1499,1262,1500,1000,0,0,0
1704703691132310,1500,1499,1262,1500,1000,0,0,0
1704703691138452,1500,1499,1262,1500,1000,0,0,0
1704703691144287,1500,1499,1262,1500,1000,0,0,0
1704703691150311,1500,1499,1262,1500,1000,0,0,0
1704703691156993,1500,1499,1262,1500,1000,0,0,0
1704703691162450,1500,1499,1262,1500,1000,0,0,0
1704703691168422,1500,1499,1262,1500,1000,0,0,0
1704703691174480,1500,1499,1262,1500,1000,0,0,0
1704703691180513,1500,1499,1262,1500,1000,0,0,0
1704703691186635,1500,1499,1262,1500,1000,0,0,0
1704703691192568,1500,1499,1262,1500,1000,0,0,0
1704703691198633,1500,1499,1262,1500,1000,0,0,0
1704703691204689,1500,1499,1262,1500,1000,0,0,0
1704703691210764,1500,1499,1262,1500,1000,0,0,0
1704703691216851,1500,1498,1262,1500,1000,0,0,0
1704703691222976,1500,1498,1262,1500,1000,0,0,0
1704703691229088,1500,1498,1262,1500,1000,0,0,0
1704703691235038,1500,1498,1262,1500,1000,0,0,0
1704703691241305,1500,1499,1262,1500,1000,0,0,0
1704703691247335,1500,1499,1262,1500,1000,0,0,0
1704703691253273,1500,1499,1262,1500,1000,0,0,0
1704703691259346,1500,1499,1262,1500,1000,0,0,0
1704703691265475,1500,1499,1262,1500,1000,0,0,0
1704703691271588,1500,1499,1262,1500,1000,0,0,0
1704703691277555,1500,1499,1262,1500,1000,0,0,0
1704703691283675,1500,1499,1262,1500,1000,0,0,0
1704703691289745,1500,1499,1262,1500,1000,0,0,0
1704703691295790,1500,1499,1262,1500,1000,0,0,0
1704703691301766,1500,1499,1262,1500,1000,0,0,0
1704703691307986,1500,1499,1262,1500,1000,0,0,0
1704703691313988,1500,1499,1262,1500,1000,0,0,0
1704703691319997,1500,1499,1262,1500,1000,0,0,0
1704703691326131,1500,1499,1262,1500,1000,0,0,0
1704703691332490,1500,1499,1262,1500,1000,0,0,0
1704703691338389,1500,1499,1262,1500,1000,0,0,0
1704703691344385,1500,1499,1262,1500,1000,0,0,0
1704703691350399,1500,1499,1262,1500,1000,0,0,0
1704703691356444,1500,1499,1262,1500,1000,0,0,0
1704703691362511,1500,1499,1262,1500,1000,0,0,0
1704703691368752,1500,1499,1261,1500,1000,0,0,0
1704703691375272,1500,1499,1261,1500,1000,0,0,0
1704703691381681,1500,1499,1261,1500,1000,0,0,0
1704703691386712,1500,1499,1261,1499,1000,0,0,0
1704703691392790,1500,1499,1261,1499,1000,0,0,0
1704703691398850,1499,1500,1261,1499,1000,0,0,0
1704703691405137,1499,1500,1261,1500,1000,0,0,0
1704703691410978,1499,1500,1262,1500,1000,0,0,0
1704703691417211,1499,1500,1262,1500,1000,0,0,0
1704703691423080,1499,1500,1262,1500,1000,0,0,0
1704703691429166,1499,1500,1262,1499,1000,0,0,0
1704703691435127,1499,1500,1262,1499,1000,0,0,0
1704703691441195,1499,1500,1262,1499,1000,0,0,0
1704703691447378,1499,1500,1262,1499,1000,0,0,0
1704703691453396,1499,1500,1262,1499,1000,0,0,0
1704703691459444,1499,1500,1262,1499,1000,0,0,0
1704703691465535,1499,1500,1262,1499,1000,0,0,0
1704703691471574,1500,1500,1262,1499,1000,0,0,0
1704703691477621,1500,1500,1262,1499,1000,0,0,0
1704703691483845,1500,1500,1262,1499,1000,0,0,0
1704703691490097,1500,1500,1262,1499,1000,0,0,0
1704703691495936,1500,1500,1262,1499,1000,0,0,0
1704703691502388,1500,1500,1262,1499,1000,0,0,0
1704703691510776,1500,1500,1262,1499,1000,0,0,0
1704703691518395,1500,1500,1262,1499,1000,0,0,0
1704703691526733,1500,1500,1262,1499,1000,0,0,0
1704703691534651,1500,1500,1262,1499,1000,0,0,0
1704703691542712,1500,1500,1262,1499,1000,0,0,0
1704703691551748,1500,1500,1263,1499,1000,0,0,0
1704703691561280,1500,1500,1263,1499,1000,0,0,0
1704703691570461,1500,1499,1263,1499,1000,0,0,0
1704703691578723,1500,1499,1263,1499,1000,0,0,0
1704703691585967,1500,1499,1263,1499,1000,0,0,0
1704703691592340,1500,1499,1263,1499,1000,0,0,0
1704703691598369,1500,1499,1264,1499,1000,0,0,0
1704703691604418,1500,1499,1264,1499,1000,0,0,0
1704703691610516,1499,1499,1264,1499,1000,0,0,0
1704703691617144,1499,1499,1264,1499,1000,0,0,0
1704703691622902,1499,1499,1264,1499,1000,0,0,0
1704703691628968,1499,1499,1264,1499,1000,0,0,0
1704703691635281,1499,1500,1264,1499,1000,0,0,0
1704703691641322,1499,1500,1264,1499,1000,0,0,0
1704703691647509,1499,1500,1264,1499,1000,0,0,0
1704703691653682,1499,1500,1264,1499,1000,0,0,0
1704703691659876,1499,1501,1264,1499,1000,0,0,0
1704703691667036,1499,1501,1264,1499,1000,0,0,0
1704703691672256,1499,1501,1264,1499,1000,0,0,0
1704703691678477,1499,1501,1264,1499,1000,0,0,0
1704703691684505,1500,1501,1264,1499,1000,0,0,0
1704703691690648,1500,1501,1263,1499,1000,0,0,0
1704703691696671,1500,1501,1263,1499,1000,0,0,0
1704703691703030,1500,1501,1263,1499,1000,0,0,0
1704703691708991,1500,1501,1263,1499,1000,0,0,0
1704703691715142,1500,1501,1263,1499,1000,0,0,0
1704703691721189,1500,1500,1263,1499,1000,0,0,0
1704703691727350,1500,1500,1263,1499,1000,0,0,0
1704703691733614,1500,1500,1263,1499,1000,0,0,0
1704703691739556,1500,1500,1263,1499,1000,0,0,0
1704703691745715,1499,1499,1263,1499,1000,0,0,0
1704703691751854,1499,1499,1263,1499,1000,0,0,0
1704703691758082,1499,1499,1263,1499,1000,0,0,0
1704703691763993,1499,1499,1263,1499,1000,0,0,0
1704703691770375,1499,1499,1263,1499,1000,0,0,0
1704703691776481,1499,1499,1263,1499,1000,0,0,0
1704703691782563,1499,1499,1262,1499,1000,0,0,0
1704703691788708,1499,1499,1262,1499,1000,0,0,0
1704703691795062,1499,1499,1262,1499,1000,0,0,0
1704703691801107,1499,1499,1262,1499,1000,0,0,0
1704703691807179,1499,1500,1262,1500,1000,0,0,0
1704703691813177,1499,1500,1262,1500,1000,0,0,0
1704703691819265,1499,1500,1262,1500,1000,0,0,0
1704703691825319,1499,1500,1261,1500,1000,0,0,0
1704703691831443,1500,1500,1261,1500,1000,0,0,0
1704703691837559,1500,1500,1261,1500,1000,0,0,0
1704703691843857,1500,1500,1261,1500,1000,0,0,0
1704703691849747,1500,1500,1261,1500,1000,0,0,0
1704703691855971,1500,1500,1261,1500,1000,0,0,0
1704703691862353,1500,1500,1261,1500,1000,0,0,0
1704703691868560,1500,1499,1261,1500,1000,0,0,0
1704703691874585,1500,1499,1261,1500,1000,0,0,0
1704703691880407,1500,1499,1261,1500,1000,0,0,0
1704703691886719,1500,1499,1261,1500,1000,0,0,0
1704703691892735,1499,1499,1261,1500,1000,0,0,0
1704703691898823,1499,1499,1262,1500,1000,0,0,0
1704703691905005,1499,1498,1262,1500,1000,0,0,0
1704703691911144,1499,1499,1262,1500,1000,0,0,0
1704703691917180,1499,1499,1262,1500,1000,0,0,0
1704703691923330,1499,1499,1262,1500,1000,0,0,0
1704703691929491,1499,1499,1262,1500,1000,0,0,0
1704703691935734,1499,1499,1262,1500,1000,0,0,0
1704703691941737,1499,1500,1262,1500,1000,0,0,0
1704703691947842,1499,1500,1262,1500,1000,0,0,0
1704703691953910,1499,1500,1262,1500,1000,0,0,0
1704703691960061,1499,1500,1262,1500,1000,0,0,0
1704703691966081,1499,1500,1262,1500,1000,0,0,0
1704703691972389,1499,1500,1262,1500,1000,0,0,0
1704703691978378,1499,1500,1262,1500,1000,0,0,0
1704703691984512,1499,1500,1262,1500,1000,0,0,0
1704703691990501,1500,1500,1262,1500,1000,0,0,0
1704703691996615,1500,1500,1262,1500,1000,0,0,0
1704703692002750,1500,1500,1262,1500,1000,0,0,0
1704703692008892,1500,1500,1261,1500,1000,0,0,0
1704703692015008,1500,1500,1261,1500,1000,0,0,0
1704703692021169,1500,1499,1261,1500,1000,0,0,0
1704703692027333,1500,1499,1261,1500,1000,0,0,0
1704703692033407,1500,1499,1261,1500,1000,0,0,0
1704703692039583,1500,1499,1261,1500,1000,0,0,0
1704703692045703,1499,1499,1260,1500,1000,0,0,0
1704703692052054,1499,1499,1260,1500,1000,0,0,0
1704703692057863,1499,1499,1260,1500,1000,0,0,0
1704703692063986,1499,1499,1260,1500,1000,0,0,0
1704703692070608,1499,1499,1261,1500,1000,0,0,0
1704703692076337,1499,1499,1261,1500,1000,0,0,0
1704703692082456,1499,1499,1261,1500,1000,0,0,0
1704703692088635,1499,1499,1261,1500,1000,0,0,0
1704703692095577,1499,1499,1261,1500,1000,0,0,0
1704703692101018,1499,1499,1261,1500,1000,0,0,0
1704703692107207,1499,1499,1261,1500,1000,0,0,0
1704703692113290,1499,1499,1261,1500,1000,0,0,0
1704703692119841,1499,1499,1262,1500,1000,0,0,0
1704703692125506,1499,1499,1262,1500,1000,0,0,0
1704703692131668,1499,1499,1262,1500,1000,0,0,0
1704703692137885,1499,1499,1262,1500,1000,0,0,0
1704703692143964,1499,1499,1262,1500,1000,0,0,0
1704703692150207,1499,1499,1262,1500,1000,0,0,0
1704703692156469,1499,1499,1262,1500,1000,0,0,0
1704703692162533,1499,1499,1262,1500,1000,0,0,0
1704703692168543,1499,1499,1262,1500,1000,0,0,0
1704703692174710,1499,1499,1262,1500,1000,0,0,0
1704703692180915,1499,1499,1262,1500,1000,0,0,0
1704703692187050,1499,1499,1262,1500,1000,0,0,0
1704703692193554,1499,1499,1262,1500,1000,0,0,0
1704703692199429,1499,1499,1262,1500,1000,0,0,0
1704703692205612,1499,1499,1262,1500,1000,0,0,0
1704703692212586,1500,1499,1261,1500,1000,0,0,0
1704703692217770,1500,1499,1261,1500,1000,0,0,0
1704703692223956,1500,1498,1261,1500,1000,0,0,0
1704703692230575,1500,1498,1261,1500,1000,0,0,0
1704703692236781,1500,1498,1261,1500,1000,0,0,0
1704703692242428,1500,1498,1261,1500,1000,0,0,0
1704703692248490,1500,1498,1260,1500,1000,0,0,0
1704703692254696,1500,1498,1260,1500,1000,0,0,0
1704703692260753,1500,1498,1260,1500,1000,0,0,0
1704703692266841,1500,1499,1260,1500,1000,0,0,0
1704703692273123,1500,1499,1260,1500,1000,0,0,0
1704703692279586,1500,1499,1260,1500,1000,0,0,0
1704703692285306,1499,1499,1260,1500,1000,0,0,0
1704703692291442,1499,1500,1260,1500,1000,0,0,0
1704703692297528,1499,1500,1260,1500,1000,0,0,0
1704703692303692,1499,1500,1260,1500,1000,0,0,0
1704703692309760,1499,1500,1260,1500,1000,0,0,0
1704703692315988,1499,1500,1260,1500,1000,0,0,0
1704703692322375,1499,1500,1260,1500,1000,0,0,0
1704703692328172,1499,1500,1260,1500,1000,0,0,0
1704703692334313,1499,1500,1260,1500,1000,0,0,0
1704703692340512,1499,1500,1260,1500,1000,0,0,0
1704703692346756,1499,1500,1260,1500,1000,0,0,0
1704703692352794,1499,1500,1260,1500,1000,0,0,0
1704703692358911,1499,1500,1261,1500,1000,0,0,0
1704703692365063,1499,1499,1261,1500,1000,0,0,0
1704703692371189,1499,1499,1261,1500,1000,0,0,0
1704703692377227,1499,1499,1261,1500,1000,0,0,0
1704703692383510,1499,1499,1261,1500,1000,0,0,0
1704703692389480,1500,1499,1261,1500,1000,0,0,0
1704703692395707,1500,1499,1261,1500,1000,0,0,0
1704703692401704,1500,1499,1261,1500,1000,0,0,0
1704703692407962,1500,1499,1261,1500,1000,0,0,0
1704703692414170,1500,1499,1261,1500,1000,0,0,0
1704703692420173,1500,1499,1261,1500,1000,0,0,0
1704703692426369,1500,1499,1261,1500,1000,0,0,0
1704703692432654,1500,1499,1261,1500,1000,0,0,0
1704703692438382,1500,1499,1261,1500,1000,0,0,0
1704703692444374,1500,1499,1261,1500,1000,0,0,0
1704703692450545,1500,1499,1261,1500,1000,0,0,0
1704703692456658,1500,1499,1261,1500,1000,0,0,0
1704703692462696,1500,1500,1261,1500,1000,0,0,0
1704703692468733,1500,1500,1262,1500,1000,0,0,0
1704703692475064,1499,1500,1262,1500,1000,0,0,0
1704703692481389,1499,1500,1262,1500,1000,0,0,0
1704703692486969,1499,1500,1262,1500,1000,0,0,0
1704703692493092,1499,1500,1262,1500,1000,0,0,0
1704703692499374,1499,1500,1262,1500,1000,0,0,0
1704703692505422,1499,1500,1262,1500,1000,0,0,0
1704703692511459,1499,1500,1262,1500,1000,0,0,0
1704703692517618,1499,1499,1262,1500,1000,0,0,0
1704703692523781,1499,1499,1262,1500,1000,0,0,0
1704703692529854,1499,1499,1262,1500,1000,0,0,0
1704703692536027,1499,1499,1262,1500,1000,0,0,0
1704703692542400,1499,1499,1262,1500,1000,0,0,0
1704703692548401,1499,1499,1262,1500,1000,0,0,0
1704703692554307,1499,1499,1262,1500,1000,0,0,0
1704703692560399,1499,1499,1262,1500,1000,0,0,0
1704703692566619,1499,1499,1262,1500,1000,0,0,0
1704703692572751,1499,1499,1262,1500,1000,0,0,0
1704703692578703,1499,1499,1262,1500,1000,0,0,0
1704703692584873,1499,1499,1262,1500,1000,0,0,0
1704703692591017,1499,1499,1262,1500,1000,0,0,0
1704703692596956,1499,1499,1261,1500,1000,0,0,0
1704703692603085,1499,1499,1261,1500,1000,0,0,0
1704703692609220,1499,1499,1261,1500,1000,0,0,0
1704703692615935,1499,1500,1261,1500,1000,0,0,0
1704703692621395,1499,1500,1261,1500,1000,0,0,0
1704703692627540,1499,1500,1261,1500,1000,0,0,0
1704703692633714,1499,1500,1261,1500,1000,0,0,0
1704703692639849,1499,1500,1261,1500,1000,0,0,0
1704703692645976,1499,1500,1261,1500,1000,0,0,0
1704703692652012,1499,1500,1261,1500,1000,0,0,0
1704703692658184,1499,1500,1261,1500,1000,0,0,0
1704703692664201,1499,1500,1261,1500,1000,0,0,0
1704703692670327,1499,1500,1261,1500,1000,0,0,0
1704703692676482,1499,1500,1261,1500,1000,0,0,0
1704703692682640,1499,1500,1261,1500,1000,0,0,0
1704703692688766,1499,1500,1261,1500,1000,0,0,0
1704703692694899,1499,1500,1260,1500,1000,0,0,0
1704703692701132,1500,1500,1260,1500,1000,0,0,0
1704703692707282,1500,1500,1260,1500,1000,0,0,0
1704703692713259,1500,1500,1261,1500,1000,0,0,0
1704703692719337,1500,1500,1261,1500,1000,0,0,0
1704703692725503,1500,1500,1261,1500,1000,0,0,0
1704703692731625,1500,1500,1261,1500,1000,0,0,0
1704703692737609,1500,1500,1261,1500,1000,0,0,0
1704703692743961,1500,1500,1261,1500,1000,0,0,0
1704703692749805,1500,1500,1261,1500,1000,0,0,0
1704703692755838,1500,1500,1261,1500,1000,0,0,0
1704703692761893,1500,1500,1260,1500,1000,0,0,0
1704703692768062,1500,1499,1260,1500,1000,0,0,0
1704703692774140,1500,1499,1260,1500,1000,0,0,0
1704703692780148,1500,1499,1260,1500,1000,0,0,0
1704703692786379,1500,1499,1260,1500,1000,0,0,0
1704703692792453,1499,1499,1260,1500,1000,0,0,0
1704703692798423,1499,1499,1260,1500,1000,0,0,0
1704703692804469,1499,1499,1260,1500,1000,0,0,0
1704703692810674,1499,1499,1260,1500,1000,0,0,0
1704703692816760,1499,1499,1260,1500,1000,0,0,0
1704703692822845,1499,1499,1260,1500,1000,0,0,0
1704703692828859,1499,1499,1260,1500,1000,0,0,0
1704703692835068,1499,1499,1260,1500,1000,0,0,0
1704703692841118,1499,1499,1260,1500,1000,0,0,0
1704703692847128,1499,1499,1260,1500,1000,0,0,0
1704703692853341,1499,1499,1260,1500,1000,0,0,0
1704703692859474,1499,1499,1260,1500,1000,0,0,0
1704703692865348,1500,1499,1260,1500,1000,0,0,0
1704703692871416,1500,1499,1260,1500,1000,0,0,0
1704703692877532,1500,1499,1260,1500,1000,0,0,0
1704703692885145,1500,1499,1260,1500,1000,0,0,0
1704703692889671,1500,1499,1260,1500,1000,0,0,0
1704703692895983,1500,1499,1260,1500,1000,0,0,0
1704703692902021,1500,1499,1260,1500,1000,0,0,0
1704703692908207,1500,1499,1260,1500,1000,0,0,0
1704703692914118,1500,1499,1260,1499,1000,0,0,0
1704703692920402,1500,1499,1260,1499,1000,0,0,0
1704703692926478,1500,1499,1260,1500,1000,0,0,0
1704703692932668,1500,1499,1260,1500,1000,0,0,0
1704703692938591,1500,1499,1260,1500,1000,0,0,0
1704703692944781,1500,1499,1260,1500,1000,0,0,0
1704703692951430,1500,1499,1260,1500,1000,0,0,0
1704703692957505,1500,1499,1260,1500,1000,0,0,0
1704703692963600,1499,1499,1260,1500,1000,0,0,0
1704703692969788,1499,1499,1260,1500,1000,0,0,0
1704703692976420,1499,1499,1260,1500,1000,0,0,0
1704703692981949,1499,1499,1260,1500,1000,0,0,0
1704703692988061,1499,1499,1260,1500,1000,0,0,0
1704703692994528,1499,1499,1260,1500,1000,0,0,0
1704703693000385,1499,1499,1260,1500,1000,0,0,0
1704703693006448,1499,1499,1260,1500,1000,0,0,0
1704703693012738,1499,1499,1260,1500,1000,0,0,0
1704703693018877,1499,1500,1260,1500,1000,0,0,0
1704703693024933,1499,1500,1260,1500,1000,0,0,0
1704703693031164,1499,1500,1260,1500,1000,0,0,0
1704703693037195,1499,1500,1260,1500,1000,0,0,0
1704703693043299,1499,1500,1260,1500,1000,0,0,0
1704703693049306,1500,1500,1260,1500,1000,0,0,0
1704703693055323,1500,1500,1260,1500,1000,0,0,0
1704703693062357,1500,1500,1259,1500,1000,0,0,0
1704703693067534,1500,1500,1259,1500,1000,0,0,0
1704703693073776,1500,1500,1259,1500,1000,0,0,0
1704703693079731,1500,1500,1259,1500,1000,0,0,0
1704703693086115,1500,1500,1259,1500,1000,0,0,0
1704703693092011,1500,1500,1259,1500,1000,0,0,0
1704703693102491,1500,1497,1259,1500,1000,0,0,0
1704703693108717,1500,1496,1259,1500,1000,0,0,0
1704703693115079,1499,1496,1259,1500,1000,0,0,0
1704703693121318,1499,1496,1259,1500,1000,0,0,0
1704703693127659,1499,1496,1259,1500,1000,0,0,0
1704703693133972,1499,1496,1259,1500,1000,0,0,0
1704703693140351,1499,1496,1259,1499,1000,0,0,0
1704703693146515,1499,1497,1259,1499,1000,0,0,0
1704703693152799,1499,1497,1259,1500,1000,0,0,0
1704703693159134,1499,1498,1259,1500,1000,0,0,0
1704703693165411,1499,1498,1259,1500,1000,0,0,0
1704703693171853,1499,1499,1259,1500,1000,0,0,0
1704703693178396,1500,1500,1259,1500,1000,0,0,0
1704703693184499,1500,1500,1259,1500,1000,0,0,0
1704703693190870,1500,1500,1259,1500,1000,0,0,0
1704703693197185,1500,1500,1259,1500,1000,0,0,0
1704703693203489,1500,1500,1259,1500,1000,0,0,0
1704703693209845,1500,1500,1259,1500,1000,0,0,0
1704703693216221,1500,1499,1259,1500,1000,0,0,0
1704703693222519,1500,1499,1259,1500,1000,0,0,0
1704703693228794,1500,1498,1259,1500,1000,0,0,0
1704703693235075,1500,1497,1259,1500,1000,0,0,0
1704703693241232,1500,1497,1259,1500,1000,0,0,0
1704703693247547,1500,1497,1259,1500,1000,0,0,0
1704703693253869,1500,1496,1259,1500,1000,0,0,0
1704703693260071,1500,1496,1259,1500,1000,0,0,0
1704703693266477,1500,1496,1260,1500,1000,0,0,0
1704703693272604,1500,1497,1260,1500,1000,0,0,0
1704703693278950,1500,1497,1260,1500,1000,0,0,0
1704703693285156,1500,1497,1260,1500,1000,0,0,0
1704703693291478,1500,1497,1261,1499,1000,0,0,0
1704703693297789,1500,1498,1261,1499,1000,0,0,0
1704703693304139,1499,1498,1261,1499,1000,0,0,0
1704703693310538,1499,1498,1261,1499,1000,0,0,0
1704703693316603,1499,1498,1262,1499,1000,0,0,0
1704703693323044,1499,1498,1262,1499,1000,0,0,0
1704703693329279,1499,1498,1262,1499,1000,0,0,0
1704703693335558,1499,1498,1262,1499,1000,0,0,0
1704703693341787,1499,1498,1262,1499,1000,0,0,0
1704703693348388,1499,1498,1262,1499,1000,0,0,0
1704703693354562,1499,1498,1262,1499,1000,0,0,0
1704703693360722,1499,1497,1262,1499,1000,0,0,0
1704703693367075,1499,1497,1262,1499,1000,0,0,0
1704703693373419,1499,1497,1262,1499,1000,0,0,0
1704703693379615,1499,1497,1262,1499,1000,0,0,0
1704703693385784,1499,1496,1262,1499,1000,0,0,0
1704703693392050,1499,1496,1262,1499,1000,0,0,0
1704703693398526,1499,1496,1262,1499,1000,0,0,0
1704703693404647,1499,1496,1262,1499,1000,0,0,0
1704703693410997,1499,1496,1262,1499,1000,0,0,0
1704703693417176,1499,1496,1261,1499,1000,0,0,0
1704703693423673,1498,1496,1261,1499,1000,0,0,0
1704703693429866,1498,1497,1261,1499,1000,0,0,0
1704703693436428,1498,1497,1261,1499,1000,0,0,0
1704703693442451,1498,1497,1261,1499,1000,0,0,0
1704703693448777,1498,1498,1260,1499,1000,0,0,0
1704703693454938,1498,1498,1260,1499,1000,0,0,0
1704703693461293,1498,1498,1260,1499,1000,0,0,0
1704703693467449,1498,1498,1260,1499,1000,0,0,0
1704703693473807,1499,1498,1260,1499,1000,0,0,0
1704703693480114,1499,1498,1260,1499,1000,0,0,0
1704703693486390,1499,1498,1260,1499,1000,0,0,0
1704703693492656,1499,1498,1260,1499,1000,0,0,0
1704703693499025,1499,1497,1260,1499,1000,0,0,0
1704703693505293,1499,1497,1260,1499,1000,0,0,0
1704703693511492,1499,1496,1260,1499,1000,0,0,0
1704703693517774,1499,1496,1260,1499,1000,0,0,0
1704703693524198,1499,1496,1260,1499,1000,0,0,0
1704703693530482,1499,1495,1260,1499,1000,0,0,0
1704703693536672,1499,1495,1260,1499,1000,0,0,0
1704703693542962,1499,1495,1260,1499,1000,0,0,0
1704703693549277,1499,1495,1260,1499,1000,0,0,0
1704703693555639,1499,1495,1261,1499,1000,0,0,0
1704703693562087,1499,1495,1261,1499,1000,0,0,0
1704703693568413,1499,1495,1261,1499,1000,0,0,0
1704703693575164,1499,1495,1261,1499,1000,0,0,0
1704703693581107,1499,1496,1261,1499,1000,0,0,0
1704703693587239,1499,1496,1261,1499,1000,0,0,0
1704703693593525,1499,1496,1261,1499,1000,0,0,0
