timestamp,roll,pitch,yaw,norm_thrust
1704703686048031,0.22390647,0.11370347,0.07759908,6.33600712
1704703686104009,-0.31240612,-0.32956970,0.06589843,10.83555603
1704703686109992,-0.32838118,-0.33079770,0.06514411,10.55222225
1704703686116067,-0.32560113,-0.32612562,0.06403428,10.26015759
1704703686122058,-0.30866045,-0.31166530,0.06049705,9.97724247
1704703686128059,-0.28176269,-0.29424912,0.05684473,9.69199467
1704703686134015,-0.25568607,-0.27011460,0.05166860,9.40138912
1704703686140049,-0.21880749,-0.22819214,0.04716673,9.11659241
1704703686148004,-0.15094773,-0.14658791,0.04576925,8.73439312
1704703686154074,-0.06902391,-0.06123238,0.04551370,8.44009209
1704703686161958,0.05544583,0.05732917,0.04625281,8.09170246
1704703686166150,0.12002943,0.12020794,0.04732735,7.93195438
1704703686170015,0.17643502,0.17523432,0.04814853,7.80162716
1704703686179976,0.29200816,0.29116693,0.04721893,7.55056190
1704703686184048,0.32544819,0.32125390,0.04575052,7.48008633
1704703686190008,0.35351050,0.34450182,0.04265191,7.42122841
1704703686197987,0.35721847,0.34438866,0.03798487,7.41000700
1704703686206004,0.32807282,0.30685055,0.03359856,7.47641325
1704703686211966,0.28509623,0.25532988,0.02991544,7.56569195
1704703686218010,0.22890329,0.18563554,0.02701172,7.65791750
1704703686223991,0.16283342,0.10828725,0.02527617,7.76208401
1704703686230041,0.08958130,0.02293304,0.02366837,7.86080217
1704703686236015,0.01512378,-0.05959322,0.02232361,7.91811609
1704703686242012,-0.06572727,-0.12868041,0.02170455,7.94159365
1704703686248011,-0.14615831,-0.18525936,0.02115230,7.92631054
1704703686253993,-0.21823888,-0.23921883,0.02062601,7.88513660
1704703686261980,-0.29753733,-0.29406366,0.02015110,7.82836628
1704703686266061,-0.33041295,-0.30681917,0.01996884,7.80787563
1704703686273990,-0.36086023,-0.30609876,0.01917062,7.76219273
1704703686281964,-0.34874505,-0.26368108,0.01839864,7.73338842
1704703686286008,-0.32580787,-0.22857237,0.01823126,7.72576666
1704703686293995,-0.24918593,-0.13387188,0.01771495,7.72198248
1704703686298018,-0.20078094,-0.08300161,0.01806327,7.72404146
1704703686304063,-0.11736665,-0.00955917,0.01872286,7.72139359
1704703686310465,-0.01432132,0.06956076,0.01913840,7.71564150
1704703686316023,0.07698326,0.12848160,0.01969757,7.70947647
1704703686326031,0.23370644,0.20379251,0.02087558,7.71618795
1704703686331961,0.31884140,0.23263824,0.02148719,7.72957373
1704703686338006,0.38866168,0.24012324,0.02191131,7.73831177
1704703686344031,0.43908563,0.22564864,0.02129878,7.76518583
1704703686350023,0.46587411,0.19260159,0.01957601,7.79920530
1704703686356105,0.46462217,0.14318360,0.01745224,7.82707500
1704703686362007,0.43289801,0.08632123,0.01561027,7.86789274
1704703686368086,0.37555563,0.02263176,0.01344737,7.91140175
1704703686373988,0.29900104,-0.04164728,0.01129856,7.94355297
1704703686379996,0.19905291,-0.10370172,0.00967263,7.98480844
1704703686386028,0.08532573,-0.15714514,0.00875245,8.02300167
1704703686396010,-0.11134645,-0.22774196,0.00712617,8.05959225
1704703686400080,-0.18695386,-0.24522009,0.00735631,8.06505966
1704703686408023,-0.31824088,-0.25802663,0.00603586,8.04797554
1704703686412099,-0.38226774,-0.24860367,0.00605413,8.04552746
1704703686420015,-0.47300917,-0.21339907,0.00539190,8.02365685
1704703686424009,-0.50097573,-0.18408069,0.00576925,8.01503944
1704703686430044,-0.51398659,-0.11978921,0.00528448,8.00982285
1704703686436075,-0.49627915,-0.05204649,0.00568090,8.00300217
1704703686446010,-0.40285146,0.05329301,0.00703031,8.00874329
1704703686452010,-0.30978772,0.11949861,0.00886460,8.01725101
1704703686454025,-0.27632982,0.13732658,0.01016793,8.01424694
1704703686463983,-0.07901606,0.21236588,0.01260508,8.04001331
1704703686466130,-0.03262979,0.22542033,0.01459405,8.05138111
1704703686476015,0.16983317,0.25167066,0.01489527,8.07249451
1704703686482042,0.28056917,0.25123429,0.01613260,8.10958672
1704703686488164,0.37659967,0.22656511,0.01661315,8.13608360
1704703686494038,0.45328227,0.19680385,0.01625822,8.17897224
1704703686500014,0.49859118,0.15860872,0.01581980,8.20511055
1704703686507986,0.51958436,0.09494336,0.01412327,8.24287891
1704703686516027,0.50296623,0.00910430,0.01175531,8.28052711
1704703686521970,0.45530313,-0.05131549,0.01064962,8.31945610
1704703686526041,0.40567064,-0.08934754,0.00999938,8.33878613
1704703686534041,0.26852989,-0.15708023,0.00783452,8.37714577
1704703686540026,0.14543217,-0.19473803,0.00794046,8.41890621
1704703686544056,0.06051382,-0.20968872,0.00865629,8.44252396
1704703686550027,-0.06680456,-0.21519017,0.00832577,8.47545528
1704703686557990,-0.21855080,-0.20323548,0.00675140,8.48617363
1704703686562028,-0.28507885,-0.18849717,0.00639377,8.47717476
1704703686571988,-0.41481477,-0.11419538,0.00325086,8.45615005
1704703686578025,-0.46498898,-0.06270090,0.00288839,8.43620110
1704703686584009,-0.48859781,-0.00198215,0.00222113,8.42723846
1704703686590079,-0.48248318,0.06271106,0.00197943,8.42325020
1704703686596019,-0.45034146,0.11635637,0.00184935,8.41493988
1704703686601979,-0.39081103,0.16112067,0.00204490,8.41349983
1704703686608030,-0.30051622,0.20835818,0.00231516,8.44777203
1704703686614041,-0.19700383,0.23217016,0.00358963,8.46370697
1704703686620081,-0.07779727,0.24472919,0.00453704,8.50354481
1704703686628008,0.08403381,0.23421808,0.00497923,8.55891895
1704703686634013,0.20120507,0.21592696,0.00544867,8.61553383
1704703686638073,0.27107513,0.19603117,0.00606468,8.65062904
1704703686648033,0.39817590,0.13614438,0.00515130,8.73140907
1704703686652003,0.42990580,0.10968443,0.00582275,8.74761486
1704703686660021,0.47066596,0.03953755,0.00368474,8.77008915
1704703686664087,0.48002666,-0.00318857,0.00354754,8.78431225
1704703686671977,0.46572900,-0.08096652,0.00127278,8.82486343
1704703686676049,0.44019786,-0.11567521,0.00106228,8.84743595
1704703686683992,0.35110989,-0.16670541,-0.00056895,8.88944435
1704703686688157,0.28660071,-0.18241321,-0.00032066,8.92846203
1704703686698020,0.11432558,-0.19857997,-0.00038519,8.99575329
1704703686704082,0.00187862,-0.18289608,0.00031232,9.04500103
1704703686706030,-0.03394163,-0.17311138,0.00065295,9.06198406
1704703686715986,-0.19187288,-0.12322459,-0.00107301,9.06768131
1704703686721976,-0.27734905,-0.07133935,-0.00118144,9.06460953
1704703686728181,-0.34887537,-0.01505271,-0.00162899,9.06479168
1704703686734003,-0.39060882,0.02728171,-0.00215384,9.05419731
1704703686740057,-0.41042516,0.07427348,-0.00255723,9.05789757
1704703686746056,-0.40883926,0.12311940,-0.00276362,9.07163334
1704703686752008,-0.38460875,0.16096352,-0.00306589,9.08138752
1704703686759986,-0.32107842,0.19607911,-0.00341932,9.11573792
1704703686767995,-0.22192079,0.21518569,-0.00281226,9.16585732
1704703686774000,-0.13267365,0.22178307,-0.00137542,9.22517204
1704703686778020,-0.07143298,0.21813133,-0.00029256,9.26389217
1704703686786029,0.04946512,0.19612949,-0.00011946,9.36526108
1704703686791973,0.12635465,0.16810724,-0.00036954,9.42229843
1704703686797992,0.19229585,0.13714553,-0.00127902,9.49684238
1704703686801985,0.22573896,0.11222868,-0.00186974,9.53986454
1704703686808020,0.26054212,0.07316556,-0.00296911,9.60989952
1704703686817994,0.27187529,0.01298466,-0.00488436,9.69308090
1704703686824009,0.25358307,-0.01266385,-0.00514323,9.74300385
1704703686830059,0.22024816,-0.03457403,-0.00516947,9.78314114
1704703686836011,0.17429930,-0.05539184,-0.00487851,9.80221176
1704703686841969,0.12260561,-0.07055199,-0.00435943,9.82594490
1704703686848341,0.06421913,-0.08228011,-0.00357710,9.84467697
1704703686854030,0.01213003,-0.08660064,-0.00266296,9.85053444
1704703686860060,-0.04103908,-0.07890301,-0.00225809,9.86758327
1704703686866024,-0.08784743,-0.06567340,-0.00236331,9.88528633
1704703686872024,-0.12482548,-0.05063199,-0.00279511,9.88986874
1704703686878030,-0.15321189,-0.02508292,-0.00349234,9.90614414
1704703686885999,-0.17141616,0.01464662,-0.00458136,9.91627216
1704703686894040,-0.16414839,0.05390867,-0.00499658,9.91956615
1704703686900010,-0.14602822,0.07963885,-0.00423655,9.92526627
1704703686906039,-0.11683558,0.09714952,-0.00324658,9.91184521
1704703686911976,-0.08057141,0.11218530,-0.00207746,9.91008377
1704703686918024,-0.03759496,0.12079097,-0.00112421,9.90376759
1704703686923994,0.00405695,0.11758105,-0.00073351,9.88180923
1704703686928018,0.03215588,0.11661224,-0.00073265,9.88597298
1704703686934011,0.07259589,0.10173198,-0.00072288,9.86261272
1704703686944004,0.12689064,0.07004102,-0.00205464,9.83935642
1704703686950027,0.14813241,0.04534935,-0.00303760,9.82573986
1704703686956076,0.16000034,0.01788802,-0.00395145,9.80023003
1704703686961976,0.16487165,-0.00650020,-0.00471141,9.79092598
1704703686967989,0.15960062,-0.02979423,-0.00560076,9.78244972
1704703686974125,0.14358005,-0.05056746,-0.00626056,9.76465988
1704703686980099,0.12395722,-0.05977909,-0.00628499,9.75782585
1704703686986029,0.10163696,-0.06309607,-0.00625276,9.75300980
1704703686992015,0.07882684,-0.06914400,-0.00582743,9.74448776
1704703686998070,0.05437811,-0.06321685,-0.00532569,9.74689198
1704703687005957,0.02071592,-0.05241091,-0.00501499,9.75189877
1704703687011949,-0.00404882,-0.04317535,-0.00517995,9.76448727
1704703687020058,-0.03180174,-0.03263873,-0.00548852,9.77560329
1704703687024061,-0.04102612,-0.02537911,-0.00539552,9.78241825
1704703687030094,-0.04601645,-0.01640376,-0.00499952,9.80217457
1704703687036034,-0.04768686,-0.00758758,-0.00467484,9.81171894
1704703687042034,-0.04518268,0.00175775,-0.00463015,9.83818150
1704703687049943,-0.03750687,0.00932561,-0.00504900,9.86235523
1704703687054031,-0.03170376,0.01145304,-0.00520194,9.87228584
1704703687064078,-0.01284582,0.01515159,-0.00567356,9.90263271
1704703687070035,0.00166912,0.01809967,-0.00594831,9.92387390
1704703687076071,0.01636733,0.01667175,-0.00606854,9.93186569
1704703687081956,0.03023621,0.01808696,-0.00653061,9.95450211
1704703687088001,0.04263057,0.01722049,-0.00705588,9.97811890
1704703687094051,0.05290764,0.00799618,-0.00722936,9.98842907
1704703687100108,0.05555790,0.00015747,-0.00763429,10.01661587
1704703687106062,0.05513338,-0.01271294,-0.00785187,10.04957199
1704703687112017,0.05619638,-0.02529686,-0.00777468,10.06473732
1704703687118042,0.05613710,-0.03888541,-0.00751122,10.09569454
1704703687124108,0.05479552,-0.05091077,-0.00718845,10.11010265
1704703687134054,0.04273730,-0.05793738,-0.00590209,10.15177441
1704703687138172,0.03456947,-0.05833339,-0.00516098,10.16383362
1704703687144049,0.02013446,-0.05704414,-0.00397758,10.19001102
1704703687151990,0.00061750,-0.06000502,-0.00243017,10.21371078
1704703687158057,-0.01252801,-0.06134865,-0.00200765,10.23535156
1704703687164017,-0.02552825,-0.06211561,-0.00199139,10.23494434
1704703687170001,-0.03695829,-0.06220657,-0.00244254,10.24937916
1704703687174071,-0.04294588,-0.06480588,-0.00265236,10.25132847
1704703687180061,-0.04895945,-0.07285839,-0.00273949,10.25824547
1704703687190046,-0.05788856,-0.07966225,-0.00264103,10.24573898
1704703687196006,-0.06440399,-0.07817408,-0.00261771,10.22008514
1704703687201994,-0.07131079,-0.07753395,-0.00277538,10.20635796
1704703687208048,-0.07541241,-0.08069263,-0.00282927,10.18941975
1704703687214089,-0.07417924,-0.08080882,-0.00291191,10.15851116
1704703687220004,-0.07126908,-0.07616608,-0.00272609,10.13899899
1704703687226230,-0.06554569,-0.07077269,-0.00248433,10.10894489
1704703687232106,-0.06005859,-0.06661791,-0.00244504,10.09776783
1704703687238039,-0.05684456,-0.06566736,-0.00239953,10.08762932
1704703687244151,-0.05132931,-0.06289747,-0.00230879,10.07740974
1704703687254059,-0.03659268,-0.05856921,-0.00211054,10.05441952
1704703687258046,-0.03095997,-0.05913728,-0.00208430,10.05287552
1704703687263950,-0.02439194,-0.06511819,-0.00222083,10.06225681
1704703687272022,-0.01678446,-0.07540018,-0.00221275,10.06612682
1704703687278031,-0.01575655,-0.08093485,-0.00216013,10.07803345
1704703687284054,-0.01533743,-0.08482292,-0.00171296,10.07901096
1704703687290046,-0.01734275,-0.08212445,-0.00136716,10.09568310
1704703687296013,-0.01963694,-0.07143385,-0.00123138,10.11854362
1704703687302018,-0.02438118,-0.06827823,-0.00093221,10.12971783
1704703687306046,-0.02806313,-0.06053171,-0.00072321,10.15976429
1704703687316085,-0.03402875,-0.05173311,-0.00028662,10.18374825
1704703687322000,-0.03490524,-0.04499477,-0.00014992,10.21027088
1704703687328024,-0.03615098,-0.03982240,-0.00001988,10.23809814
1704703687334033,-0.03499467,-0.03803065,-0.00013708,10.24835587
1704703687340053,-0.03419503,-0.03640029,-0.00050932,10.27683640
1704703687346165,-0.03331918,-0.03410476,-0.00103085,10.30298519
1704703687352033,-0.03158462,-0.03220884,-0.00147985,10.30999756
1704703687358075,-0.02617703,-0.02783489,-0.00183950,10.33152199
1704703687364023,-0.01944205,-0.02169757,-0.00200684,10.33194256
1704703687374045,-0.00857370,-0.00338792,-0.00192902,10.35152531
1704703687378039,-0.00648849,0.00206547,-0.00204879,10.35418892
1704703687386079,-0.00039207,0.01998047,-0.00253257,10.36643219
1704703687390046,0.00417388,0.02907093,-0.00261733,10.36174011
1704703687398016,0.01006286,0.04190369,-0.00275332,10.35322666
1704703687402043,0.01099289,0.04486416,-0.00296827,10.34916973
1704703687408093,0.00760528,0.04377155,-0.00331571,10.34968090
1704703687416023,0.00213985,0.03459579,-0.00358634,10.33622169
1704703687422066,-0.00071344,0.02559830,-0.00386199,10.31500244
1704703687426203,-0.00060282,0.02304699,-0.00403974,10.32001591
1704703687436068,-0.00172233,0.00594991,-0.00458629,10.29099464
1704703687442023,-0.00009474,0.00482538,-0.00504798,10.28249550
1704703687448121,-0.00153665,0.00393599,-0.00549663,10.27393055
1704703687454038,-0.00201679,-0.00295570,-0.00586741,10.25762558
1704703687460010,-0.00052885,-0.00862221,-0.00614819,10.25892258
1704703687466348,0.00553116,-0.01207867,-0.00652782,10.26046085
1704703687472031,0.01281741,-0.01317486,-0.00679222,10.25289059
1704703687478062,0.02052411,-0.01103913,-0.00711780,10.26548576
1704703687484113,0.02600041,-0.00901380,-0.00732767,10.28248215
1704703687494067,0.03321303,0.00244617,-0.00700819,10.29201031
1704703687498045,0.03658892,0.01218026,-0.00686736,10.30149746
1704703687504149,0.04128093,0.02754161,-0.00650415,10.33221722
1704703687512031,0.04692971,0.03681374,-0.00605425,10.36865234
1704703687516070,0.04854884,0.03917461,-0.00594110,10.38841820
1704703687522024,0.05011203,0.04293160,-0.00578046,10.42800045
1704703687528118,0.04709172,0.04958365,-0.00580066,10.47282410
1704703687534073,0.04612612,0.05109555,-0.00613324,10.49964237
1704703687541978,0.04662439,0.05927604,-0.00668117,10.54320431
1704703687546081,0.04926122,0.07139625,-0.00697557,10.57878876
1704703687556091,0.04654064,0.07262644,-0.00753012,10.62458992
1704703687562046,0.04571904,0.07129636,-0.00797157,10.66078186
1704703687568072,0.04664445,0.07520136,-0.00800396,10.68796253
1704703687574020,0.04314818,0.07006127,-0.00788075,10.69740009
1704703687580017,0.03978410,0.06433178,-0.00759301,10.72001743
1704703687586155,0.03954072,0.05652534,-0.00720037,10.73469067
1704703687592012,0.03702827,0.04746227,-0.00712136,10.73253536
1704703687598064,0.03466044,0.04549026,-0.00702704,10.73829269
1704703687604085,0.03542867,0.04474054,-0.00699414,10.74049091
1704703687610074,0.03628216,0.03751710,-0.00691599,10.72887325
1704703687618053,0.04219348,0.03413671,-0.00704824,10.71611309
1704703687624012,0.04556431,0.04119988,-0.00726973,10.71086407
1704703687632003,0.04942685,0.04176677,-0.00731402,10.69882870
1704703687636075,0.05163208,0.04304234,-0.00728326,10.69105625
1704703687642034,0.05199100,0.05188413,-0.00747421,10.68748379
1704703687650041,0.05310417,0.05635809,-0.00757259,10.67177773
1704703687654153,0.05366557,0.05901067,-0.00752710,10.66387653
1704703687660096,0.05487762,0.06366839,-0.00746026,10.65452576
1704703687666162,0.05354311,0.06886120,-0.00747021,10.64416599
1704703687674079,0.04776891,0.06444199,-0.00765853,10.63141823
1704703687682004,0.04435575,0.05986943,-0.00755569,10.61805725
1704703687688096,0.04278778,0.05575573,-0.00737263,10.61731815
1704703687694053,0.04162263,0.04579743,-0.00715914,10.60723019
1704703687700071,0.04318607,0.04088355,-0.00687797,10.60714531
1704703687706131,0.04418469,0.03286353,-0.00670624,10.60949802
1704703687712033,0.04374136,0.02060392,-0.00638417,10.60335064
1704703687718075,0.04205709,0.00947534,-0.00618343,10.60980988
1704703687724067,0.04236962,0.00055791,-0.00598386,10.61486340
1704703687730070,0.04089084,-0.01022751,-0.00575997,10.61407661
1704703687738054,0.04114144,-0.02228221,-0.00557000,10.62049007
1704703687744061,0.04332626,-0.02353442,-0.00570524,10.63105869
1704703687750323,0.04466389,-0.02710521,-0.00601874,10.64584160
1704703687756112,0.04588605,-0.03186182,-0.00627729,10.64951134
1704703687760079,0.04624842,-0.03343657,-0.00653862,10.65625286
1704703687768208,0.04634764,-0.02830887,-0.00695652,10.67543030
1704703687776049,0.04586195,-0.02738081,-0.00719049,10.68637085
1704703687780121,0.04564447,-0.02586388,-0.00739440,10.68886185
1704703687786249,0.04772372,-0.02064276,-0.00737803,10.69853401
1704703687792060,0.04992997,-0.01642586,-0.00702021,10.69762135
1704703687802041,0.05607337,-0.00453956,-0.00645909,10.71144009
1704703687808160,0.06269742,0.00363483,-0.00616601,10.72222900
1704703687814101,0.06575311,0.01106115,-0.00609317,10.72273540
1704703687820108,0.06512096,0.01833035,-0.00566145,10.73328495
1704703687826230,0.06240233,0.02471480,-0.00528743,10.73887634
1704703687832073,0.05522570,0.02279399,-0.00520445,10.73650169
1704703687838092,0.04935208,0.01915136,-0.00554903,10.74290180
1704703687844179,0.04282655,0.01861577,-0.00578786,10.74636936
1704703687854074,0.02821880,0.00655766,-0.00602769,10.73963642
1704703687858026,0.02107710,0.00676672,-0.00614193,10.73619270
1704703687864125,0.00853929,0.00152310,-0.00602247,10.73763657
1704703687870112,-0.00294539,-0.00674218,-0.00605086,10.73637009
1704703687878066,-0.01943269,-0.02150272,-0.00611995,10.72311306
1704703687884032,-0.02813087,-0.03073223,-0.00620113,10.70653057
1704703687888258,-0.03601962,-0.03682080,-0.00630655,10.70557880
1704703687894106,-0.04445639,-0.04132723,-0.00649612,10.68630505
1704703687900076,-0.05208721,-0.04431528,-0.00670581,10.67791939
1704703687906103,-0.05585565,-0.04289620,-0.00681925,10.66733551
1704703687914076,-0.05835820,-0.03559133,-0.00679988,10.65069771
1704703687922060,-0.06205597,-0.03040154,-0.00649801,10.63762760
1704703687928032,-0.06226169,-0.02304301,-0.00615807,10.63017178
1704703687934138,-0.05771032,-0.01976343,-0.00589325,10.61597347
1704703687940136,-0.05380759,-0.01876569,-0.00562186,10.61315155
1704703687946073,-0.04981538,-0.01424590,-0.00517512,10.61111069
1704703687952135,-0.04576831,-0.01461099,-0.00467867,10.60304451
1704703687958077,-0.04378407,-0.01298344,-0.00453289,10.60583878
1704703687964128,-0.04353864,-0.01054914,-0.00478572,10.61453152
1704703687970073,-0.04139568,-0.00931414,-0.00514985,10.61527157
1704703687976112,-0.04379283,-0.00861565,-0.00521058,10.62874413
1704703687984032,-0.04824635,-0.00899329,-0.00517780,10.63964939
1704703687990074,-0.05198724,-0.01150785,-0.00530313,10.65639305
1704703687996198,-0.05418484,-0.01524786,-0.00540196,10.66488075
1704703688002036,-0.05606920,-0.01872590,-0.00562415,10.68322468
1704703688010074,-0.05669815,-0.02784541,-0.00580597,10.70581436
1704703688014071,-0.05571160,-0.03076819,-0.00584787,10.71486950
1704703688022030,-0.05139247,-0.02685585,-0.00617180,10.73052025
1704703688028025,-0.04875647,-0.02639910,-0.00650681,10.74698067
1704703688034099,-0.04584303,-0.01481403,-0.00658563,10.75800228
1704703688038075,-0.04262815,-0.01110533,-0.00650248,10.76110172
1704703688044052,-0.03819055,-0.00572558,-0.00662905,10.77172947
1704703688054075,-0.02972627,-0.00416311,-0.00699002,10.76836300
1704703688060035,-0.02549724,-0.00117143,-0.00674568,10.77020264
1704703688066070,-0.02171435,-0.00117583,-0.00634049,10.76649475
1704703688072057,-0.01781669,-0.00365157,-0.00579281,10.75255775
1704703688078047,-0.01590388,-0.00868907,-0.00534683,10.74541855
1704703688084287,-0.01621023,-0.01471390,-0.00500756,10.73362064
1704703688090117,-0.01526129,-0.02233017,-0.00453037,10.71605492
1704703688096090,-0.01449231,-0.02134517,-0.00437202,10.70028782
1704703688102051,-0.01055244,-0.02162556,-0.00451129,10.67917252
1704703688112054,-0.00037357,-0.01893966,-0.00496623,10.65158939
1704703688116158,0.00523644,-0.01861179,-0.00513234,10.64059830
1704703688121979,0.01219639,-0.01896065,-0.00532927,10.62923908
1704703688128070,0.01757585,-0.01979828,-0.00511813,10.61997986
1704703688136065,0.02689053,-0.01899695,-0.00525692,10.60066986
1704703688140114,0.03085003,-0.01696704,-0.00525122,10.59137917
1704703688146118,0.03507537,-0.00693172,-0.00522854,10.57686138
1704703688154035,0.03972796,-0.00497165,-0.00507494,10.55925465
1704703688158098,0.04119822,-0.00430146,-0.00500903,10.54927063
1704703688166079,0.03829520,-0.00604534,-0.00487968,10.53205681
1704703688174154,0.03337582,-0.01105518,-0.00507464,10.51593113
1704703688180067,0.02951867,-0.00364928,-0.00530035,10.50671387
1704703688186146,0.02705109,-0.00404671,-0.00550246,10.50083828
1704703688192119,0.02468293,-0.00214464,-0.00545152,10.48829651
1704703688198073,0.02314978,-0.00015407,-0.00527806,10.48664284
1704703688204211,0.02434395,0.00517054,-0.00501662,10.48530865
1704703688210081,0.02123500,0.00628798,-0.00489670,10.48138237
1704703688216119,0.02299720,0.01094400,-0.00465075,10.48626995
1704703688222044,0.02363948,0.01134248,-0.00436729,10.48660278
1704703688230121,0.02516015,0.01221768,-0.00427363,10.50751209
1704703688234055,0.02721090,0.01195498,-0.00431039,10.51291656
1704703688244083,0.02628253,0.00139205,-0.00380688,10.53016090
1704703688248128,0.02671544,0.00530123,-0.00358432,10.54508877
1704703688254051,0.02429000,0.00450358,-0.00326342,10.55307293
1704703688260098,0.02360891,0.00561514,-0.00304959,10.57010174
1704703688268069,0.02281457,0.00859271,-0.00272096,10.58263874
1704703688272063,0.02238734,0.01035270,-0.00253975,10.58846188
1704703688280046,0.01860769,0.01032884,-0.00222088,10.59493446
1704703688284179,0.01486082,0.00840430,-0.00205174,10.61105537
1704703688290129,0.01260071,0.00764960,-0.00222805,10.60946941
1704703688300097,0.01603863,0.00689053,-0.00252360,10.61272907
1704703688304058,0.01761426,0.00455823,-0.00265256,10.61158276
1704703688312021,0.02011376,0.00981843,-0.00265007,10.60341167
1704703688318078,0.02339325,0.01524288,-0.00264661,10.60171890
1704703688324083,0.02975451,0.01878387,-0.00270471,10.59697437
1704703688330011,0.03241709,0.01919114,-0.00271717,10.58451748
1704703688336118,0.03603276,0.02054007,-0.00257782,10.57776642
1704703688340107,0.03713066,0.02199540,-0.00261444,10.57011318
1704703688348119,0.03918300,0.02189266,-0.00309300,10.55612659
1704703688354052,0.04135579,0.02370602,-0.00302478,10.54354191
1704703688364074,0.03711581,0.01787647,-0.00252850,10.51613998
1704703688370079,0.03345011,0.01649182,-0.00226937,10.50101948
1704703688374095,0.02872020,0.01330052,-0.00212260,10.49159241
1704703688380093,0.02075487,0.00418625,-0.00203421,10.48151970
1704703688388078,0.01129348,-0.00444710,-0.00182734,10.46433544
1704703688392077,0.00702970,-0.00772136,-0.00164160,10.45695972
1704703688398098,0.00276994,-0.00816879,-0.00135648,10.44821072
1704703688406034,-0.00088898,-0.00769799,-0.00132120,10.43891239
1704703688410090,-0.00175253,-0.00729530,-0.00112542,10.43385220
1704703688416115,-0.00050509,0.00838488,-0.00111891,10.42470551
1704703688422050,0.00240379,0.01314837,-0.00108256,10.41859818
1704703688432069,0.01229770,0.02281623,-0.00100494,10.42113876
1704703688438064,0.01478042,0.02331501,-0.00086869,10.42848492
1704703688444109,0.01596323,0.02183772,-0.00070025,10.43405151
1704703688450091,0.01458646,0.01876138,-0.00064526,10.43624306
1704703688456080,0.01139325,0.01882596,-0.00047124,10.44444942
1704703688462215,0.00768634,0.02641886,-0.00031682,10.44634247
1704703688468111,0.00254537,0.02196839,-0.00017517,10.44665718
1704703688474099,-0.00219885,0.01308513,0.00015171,10.45202541
1704703688480094,-0.00792121,0.00520710,0.00022715,10.44776249
1704703688486086,-0.01285207,0.00327600,0.00019526,10.44874382
1704703688492075,-0.01587495,-0.00355208,0.00009334,10.45214653
1704703688498081,-0.01505098,-0.01043038,-0.00005884,10.44784451
1704703688504096,-0.01584237,-0.01272092,-0.00025677,10.45239258
1704703688510098,-0.01440058,-0.00545473,-0.00040259,10.45136356
1704703688518183,-0.01207197,0.00295174,-0.00019035,10.44629002
1704703688524094,-0.00882801,0.00695524,-0.00013306,10.44769573
1704703688532027,-0.00289124,0.01565214,-0.00017488,10.44428444
1704703688538059,-0.00216769,0.01689274,0.00004256,10.43954372
1704703688544118,-0.00066566,0.01834958,-0.00010428,10.44051933
1704703688550081,-0.00180147,0.02070843,-0.00003781,10.44005966
1704703688556019,-0.00755623,0.01894377,0.00004325,10.43549061
1704703688560099,-0.01104745,0.02177141,-0.00018412,10.43317032
1704703688570154,-0.01112975,0.02275423,-0.00050459,10.43112087
1704703688572076,-0.01182735,0.01926976,-0.00052925,10.43427086
1704703688582036,-0.01552238,0.00729470,-0.00039992,10.42703152
1704703688588132,-0.01934130,0.00376948,-0.00045931,10.42827415
1704703688594137,-0.02209453,-0.00202782,-0.00050112,10.42828083
1704703688600057,-0.02432842,-0.00737869,-0.00041968,10.41953087
1704703688606090,-0.02695603,-0.00720045,-0.00019969,10.41785526
1704703688612081,-0.02470442,-0.00632255,0.00010521,10.41386890
1704703688618110,-0.02321152,-0.00935533,0.00017631,10.40651417
1704703688624089,-0.02204192,-0.01289227,0.00016435,10.40495682
1704703688632067,-0.02021006,-0.01138674,-0.00007763,10.39490032
1704703688638076,-0.01837378,-0.00897322,-0.00036698,10.39098740
1704703688646067,-0.01136393,-0.00740132,-0.00044874,10.37971878
1704703688650096,-0.00782037,-0.00551836,-0.00048336,10.37540436
1704703688656105,-0.00591209,-0.00288316,-0.00041922,10.37196445
1704703688664067,-0.00007323,-0.00112311,-0.00053173,10.36363697
1704703688670056,0.00334684,-0.00215702,-0.00055772,10.36354923
1704703688674106,0.00566122,-0.00480597,-0.00055579,10.36077118
1704703688682048,0.00847704,-0.00166265,-0.00056392,10.35267067
1704703688686095,0.00797482,-0.00015791,-0.00043753,10.35114956
1704703688692075,0.00601117,-0.00305425,-0.00039234,10.35398483
1704703688702086,0.00785073,-0.00165218,-0.00036947,10.34721565
1704703688708101,0.00825068,0.00557231,-0.00034750,10.35043716
1704703688714070,0.01026144,0.00946002,-0.00041327,10.35410690
1704703688716104,0.01053369,0.00913180,-0.00037140,10.35183144
1704703688726075,0.01256473,0.01801790,-0.00031513,10.35815048
1704703688732188,0.01333849,0.02991284,-0.00053980,10.35978413
1704703688738315,0.01276551,0.03547790,-0.00050795,10.35981178
1704703688744149,0.01115124,0.04130400,-0.00061125,10.36721992
1704703688750091,0.01052580,0.04687651,-0.00067719,10.37209415
1704703688756113,0.01043214,0.04976175,-0.00082943,10.36879158
1704703688762089,0.01041162,0.05009276,-0.00103028,10.37602806
1704703688768122,0.00906841,0.04295009,-0.00123791,10.38227081
1704703688776120,0.00988703,0.03335101,-0.00142421,10.38244534
1704703688780108,0.00926605,0.02615888,-0.00148865,10.38377190
1704703688790074,0.00725319,0.00775694,-0.00148809,10.38921356
1704703688794123,0.00442652,0.00255601,-0.00144652,10.38903141
1704703688802088,0.00031707,-0.00661927,-0.00159029,10.38758659
1704703688808092,-0.00229341,-0.01028579,-0.00142215,10.38733864
1704703688814093,-0.00243681,-0.01441870,-0.00121398,10.38035488
1704703688820114,-0.00420690,-0.01360652,-0.00097796,10.37416267
1704703688824104,-0.00673630,-0.01083690,-0.00084779,10.36648464
1704703688832056,-0.01029746,-0.00815280,-0.00088222,10.35395241
1704703688840102,-0.00839448,-0.00667011,-0.00091667,10.33581448
1704703688846097,-0.00973438,-0.00099558,-0.00093576,10.32334518
1704703688852080,-0.01248571,-0.00175526,-0.00112595,10.31024647
1704703688858079,-0.01238600,-0.00088826,-0.00136214,10.28992176
1704703688864064,-0.01439581,0.00298407,-0.00160318,10.27602959
1704703688870241,-0.01374828,0.00730827,-0.00203157,10.26318264
1704703688876108,-0.01223872,0.00748728,-0.00225408,10.24816322
1704703688882051,-0.01266285,0.00902118,-0.00240774,10.24164486
1704703688888126,-0.01381651,0.01456296,-0.00259657,10.23287010
1704703688894109,-0.01316945,0.01321422,-0.00299735,10.22472954
1704703688902105,-0.01167025,0.00695085,-0.00335812,10.22565651
1704703688908101,-0.01040534,0.00122066,-0.00359415,10.23098946
1704703688916093,-0.00961176,0.00325907,-0.00377578,10.23606968
1704703688922061,-0.00852322,0.00094431,-0.00400304,10.25067520
1704703688926086,-0.00786726,-0.00202291,-0.00406454,10.25856495
1704703688934130,-0.00826635,-0.00506106,-0.00435905,10.27624798
1704703688940095,-0.01022668,-0.00957916,-0.00481423,10.29743195
1704703688944119,-0.01032346,-0.01265311,-0.00506784,10.30901718
1704703688952101,-0.01048046,-0.01609129,-0.00554319,10.33149338
1704703688958080,-0.01211064,-0.01566988,-0.00581404,10.35410309
1704703688962094,-0.01307693,-0.01541403,-0.00596325,10.36418819
1704703688968106,-0.01431549,-0.01592303,-0.00602225,10.38494015
1704703688978115,-0.01737513,-0.02112125,-0.00601401,10.40080643
1704703688984097,-0.01948079,-0.02064745,-0.00588517,10.43591309
1704703688990084,-0.01964131,-0.02174322,-0.00604654,10.45574760
1704703688996167,-0.01934549,-0.02503885,-0.00624974,10.46468830
1704703689002051,-0.01964636,-0.02452949,-0.00626694,10.47687149
1704703689008210,-0.02020891,-0.02219605,-0.00622921,10.48565578
1704703689014099,-0.01826918,-0.02302961,-0.00607981,10.48416042
1704703689020139,-0.01115161,-0.02043002,-0.00621578,10.48095226
1704703689026103,-0.00681058,-0.01565331,-0.00617790,10.47560787
1704703689032087,-0.00367737,-0.01375219,-0.00616142,10.46255779
1704703689038146,-0.00179690,-0.01099724,-0.00635038,10.45300961
1704703689048096,0.00002380,-0.00345166,-0.00659142,10.42257214
1704703689052166,0.00040305,0.00107279,-0.00664087,10.41870117
1704703689060080,-0.00319299,-0.00010228,-0.00646098,10.39535999
1704703689066084,-0.00561547,0.00516574,-0.00616972,10.37958336
1704703689072114,-0.00839459,0.00817366,-0.00602009,10.36550903
1704703689078084,-0.00978773,0.01127970,-0.00576902,10.34733582
1704703689084074,-0.00996203,0.01074906,-0.00548311,10.32783794
1704703689088173,-0.00545798,0.01500103,-0.00545391,10.31879807
1704703689094079,0.00342263,0.02125777,-0.00556822,10.30015469
1704703689104130,0.02040450,0.03569390,-0.00587190,10.27695560
1704703689110080,0.02802959,0.04372567,-0.00619144,10.26461697
1704703689116135,0.03291260,0.04622712,-0.00646067,10.25107193
1704703689122071,0.03644448,0.04717141,-0.00688311,10.24178505
1704703689128059,0.03577098,0.04437388,-0.00694291,10.23257732
1704703689134103,0.03326091,0.03790634,-0.00688356,10.22389793
1704703689140133,0.02859866,0.02923900,-0.00694371,10.21905899
1704703689146128,0.02259880,0.01790048,-0.00674671,10.21732521
1704703689152088,0.01514973,0.00616772,-0.00635577,10.21746349
1704703689158102,0.00746766,-0.00600219,-0.00584080,10.22341251
1704703689164139,-0.00068182,-0.02108307,-0.00527429,10.23724270
1704703689172145,-0.01151774,-0.03732666,-0.00458131,10.25372982
1704703689178101,-0.01680117,-0.04264559,-0.00417276,10.26405621
1704703689186094,-0.01982508,-0.04564194,-0.00366164,10.28654861
1704703689192082,-0.02081618,-0.04397126,-0.00338043,10.30636215
1704703689198084,-0.02078385,-0.03350902,-0.00335417,10.32709503
1704703689202075,-0.01927483,-0.02883458,-0.00334598,10.33849525
1704703689210093,-0.01339081,-0.01787315,-0.00367446,10.35923004
1704703689214163,-0.01039150,-0.01234927,-0.00378982,10.36854649
1704703689220146,-0.00376662,-0.00087234,-0.00377304,10.38377380
1704703689230126,0.00478908,0.01354214,-0.00338682,10.40237236
1704703689236116,0.00754405,0.01564158,-0.00307621,10.40597057
1704703689242095,0.00538077,0.01887362,-0.00294436,10.41276360
1704703689248139,0.00181528,0.01722498,-0.00301214,10.41884613
1704703689254080,-0.00095580,0.01081473,-0.00277686,10.41416359
1704703689260133,-0.00381148,0.00726768,-0.00245275,10.41002464
1704703689266127,-0.00380708,0.00006547,-0.00238613,10.40431976
1704703689272106,-0.00312966,-0.00960815,-0.00244416,10.39128971
1704703689278099,-0.00298595,-0.01806466,-0.00248738,10.38002491
1704703689284113,-0.00271323,-0.02715270,-0.00230934,10.36922836
1704703689294089,-0.00216086,-0.04345521,-0.00207429,10.34580803
1704703689298092,-0.00303481,-0.04900393,-0.00194747,10.33797932
1704703689304108,-0.00398156,-0.05353607,-0.00187919,10.32714176
1704703689312067,-0.00621823,-0.05819513,-0.00159125,10.31582355
1704703689316148,-0.00777585,-0.06034024,-0.00149169,10.31014442
1704703689324114,-0.00942823,-0.05834596,-0.00131459,10.29781914
1704703689330072,-0.00971305,-0.05465028,-0.00117364,10.29150391
1704703689336110,-0.00854104,-0.05029406,-0.00103009,10.28650665
1704703689342077,-0.00764620,-0.04503212,-0.00087174,10.28314686
1704703689346111,-0.00929618,-0.03891408,-0.00082497,10.28700161
1704703689356180,-0.01214190,-0.02874902,-0.00069304,10.29096603
1704703689362061,-0.01369059,-0.02431418,-0.00053741,10.30199051
1704703689368114,-0.01351240,-0.01879357,-0.00010905,10.31285381
1704703689374165,-0.01353659,-0.01536663,0.00039043,10.31861973
1704703689380089,-0.01444706,-0.01309396,0.00070698,10.32995319
1704703689386019,-0.01390777,-0.01401637,0.00077011,10.34016323
1704703689392166,-0.01412565,-0.01333242,0.00088988,10.34629822
1704703689398138,-0.01510231,-0.01368443,0.00119729,10.35301781
1704703689404109,-0.01721544,-0.01257868,0.00152250,10.36521530
1704703689410101,-0.01834049,-0.01446438,0.00171925,10.37263012
1704703689418124,-0.01800715,-0.01575232,0.00195483,10.38154221
1704703689422089,-0.01761542,-0.01886628,0.00195304,10.38452816
1704703689430095,-0.01814390,-0.03020279,0.00223618,10.38905525
1704703689434155,-0.01813925,-0.03603684,0.00244353,10.38776493
1704703689444105,-0.01639632,-0.04814416,0.00277323,10.37899113
1704703689448106,-0.01592187,-0.05334963,0.00281777,10.37586975
1704703689456116,-0.01103639,-0.06166814,0.00304275,10.36443043
1704703689462051,-0.00647972,-0.06380758,0.00318327,10.35298538
1704703689468124,-0.00110148,-0.06197407,0.00338112,10.34059811
1704703689472092,0.00238227,-0.05938953,0.00347981,10.33303642
1704703689480081,0.01062314,-0.05315571,0.00338759,10.31952286
1704703689484134,0.01373021,-0.04255664,0.00338378,10.31407356
1704703689492126,0.01640953,-0.02718835,0.00341526,10.30170441
1704703689498117,0.01801667,-0.01884273,0.00351229,10.29180813
1704703689504101,0.01959749,-0.00745711,0.00366616,10.28199577
1704703689512079,0.02023252,0.00526073,0.00367922,10.27179718
1704703689518096,0.01901762,0.01156060,0.00389121,10.26915646
1704703689524157,0.01844776,0.01568817,0.00402978,10.26878738
1704703689530122,0.01487754,0.01665485,0.00414638,10.26849842
1704703689536223,0.01080415,0.02049420,0.00416874,10.27285671
1704703689542073,0.00721645,0.01553718,0.00423448,10.27617455
1704703689548173,0.00485933,0.01091728,0.00439017,10.28334522
1704703689554116,0.00149759,0.00751879,0.00458794,10.29261494
1704703689560140,-0.00250008,0.00093469,0.00488676,10.29981899
1704703689566157,-0.00452121,-0.00713836,0.00511992,10.31027317
1704703689572099,-0.00564239,-0.01616885,0.00541602,10.32146645
1704703689578120,-0.00378819,-0.02467676,0.00578228,10.32973003
1704703689584175,-0.00080464,-0.03000741,0.00579639,10.34053326
1704703689592117,0.00178501,-0.03247721,0.00568525,10.35146523
1704703689598110,0.00267736,-0.03075832,0.00579829,10.36319637
1704703689606109,0.00391527,-0.02774379,0.00604853,10.37730980
1704703689610278,0.00541144,-0.02435661,0.00609026,10.38420296
1704703689616160,0.00780550,-0.01333645,0.00621976,10.39596844
1704703689624130,0.01063068,-0.00172318,0.00596814,10.40556908
1704703689630088,0.01515621,0.00982990,0.00581551,10.41179466
1704703689634123,0.01792293,0.01655806,0.00586071,10.41398811
1704703689642112,0.02284829,0.02971018,0.00570701,10.41812897
1704703689646121,0.02541925,0.03382131,0.00546469,10.41950226
1704703689654115,0.03155522,0.03905524,0.00534681,10.41926956
1704703689658138,0.03495362,0.04052947,0.00533617,10.41807747
1704703689664128,0.03936524,0.04177506,0.00537701,10.41736984
1704703689672101,0.04207817,0.03633010,0.00528662,10.41200256
1704703689678131,0.04221995,0.02943755,0.00519143,10.40970516
1704703689682116,0.04142944,0.02419298,0.00532402,10.40724850
1704703689690094,0.03852308,0.01457448,0.00525396,10.40182877
1704703689698084,0.03480231,0.00456711,0.00509395,10.39780331
1704703689704156,0.03343850,-0.00297096,0.00503011,10.39677429
1704703689710125,0.03316593,-0.00727186,0.00484145,10.39434338
1704703689716142,0.03162601,-0.01119052,0.00444876,10.39017200
1704703689722060,0.02920457,-0.01111572,0.00435327,10.38804054
1704703689728138,0.02867655,-0.00805439,0.00418957,10.38327312
1704703689734233,0.02756795,-0.00577345,0.00419301,10.37587929
1704703689740128,0.02535136,0.00114813,0.00411523,10.37087440
1704703689746110,0.02457113,0.00607745,0.00398971,10.36591816
1704703689752171,0.02307440,0.00678646,0.00384361,10.36102390
1704703689758302,0.01994608,0.01219299,0.00357892,10.35992432
1704703689764131,0.01773538,0.01545893,0.00358478,10.36179066
1704703689770165,0.01538838,0.01640510,0.00354744,10.36257267
1704703689776160,0.01293495,0.01940825,0.00340661,10.36818027
1704703689782081,0.00998822,0.01940943,0.00325338,10.37087727
1704703689788138,0.00604558,0.02193401,0.00303566,10.37675858
1704703689794250,0.00479406,0.02353316,0.00255930,10.38428116
1704703689800195,0.00416930,0.02180059,0.00224223,10.38875771
1704703689806102,0.00533174,0.02244120,0.00207382,10.39505768
1704703689812206,0.00711951,0.02013825,0.00197814,10.40106010
1704703689820141,0.01059511,0.01386826,0.00183170,10.40668011
1704703689826117,0.01362330,0.01029439,0.00178902,10.41131401
1704703689830121,0.01545722,0.00643412,0.00163273,10.41408157
1704703689840108,0.01779311,-0.00567895,0.00144068,10.41855526
1704703689844439,0.01866514,-0.00739140,0.00133730,10.42237949
1704703689850114,0.02150597,-0.01189413,0.00129239,10.42335796
1704703689858135,0.02467098,-0.01597021,0.00124161,10.42566109
1704703689864107,0.02333519,-0.01586606,0.00119343,10.42831707
1704703689868168,0.02088304,-0.01626599,0.00113994,10.42873764
1704703689874123,0.01602449,-0.01493209,0.00106039,10.43024254
1704703689882098,0.00607136,-0.01264491,0.00066768,10.42874146
1704703689886143,0.00175466,-0.00989671,0.00064714,10.42745495
1704703689892109,-0.00092347,-0.00365971,0.00036760,10.42637920
1704703689900146,-0.00381987,0.00551581,0.00011281,10.42170334
1704703689906127,-0.00485437,0.01265476,-0.00020320,10.41904068
1704703689910144,-0.00469141,0.01572693,-0.00054143,10.41570663
1704703689918129,-0.00091712,0.02033497,-0.00108176,10.40971088
1704703689922101,0.00236367,0.02266228,-0.00125616,10.40602493
1704703689930083,0.00813015,0.02734648,-0.00164153,10.39870548
1704703689936084,0.01097286,0.02979208,-0.00169854,10.39555454
1704703689942000,0.01355100,0.03007396,-0.00193612,10.38987350
1704703689948161,0.01530992,0.03371145,-0.00192354,10.38671684
1704703689952123,0.01554265,0.03265274,-0.00189257,10.38515854
1704703689958134,0.01569069,0.03318608,-0.00180469,10.38421154
1704703689964225,0.01546939,0.03340165,-0.00184305,10.38475609
1704703689972125,0.01434958,0.02737880,-0.00196780,10.38644028
1704703689980139,0.01372605,0.02015426,-0.00210797,10.38808155
1704703689986131,0.01338650,0.01244078,-0.00219903,10.38867378
1704703689992085,0.01371550,0.00906778,-0.00249993,10.39314842
1704703689998113,0.01411136,0.00625550,-0.00266633,10.39735222
1704703690004253,0.01456613,0.00335705,-0.00273880,10.40275192
1704703690010136,0.01620322,-0.00054057,-0.00268875,10.40515137
1704703690016110,0.01744752,-0.00001211,-0.00262891,10.41113663
1704703690022094,0.01832855,-0.00073420,-0.00247366,10.41401005
1704703690028156,0.01755448,0.00147980,-0.00250991,10.42052460
1704703690034095,0.01623305,0.00337955,-0.00266836,10.42724609
1704703690040256,0.01468077,0.00138537,-0.00268206,10.43048382
1704703690046130,0.01097826,0.00141782,-0.00279946,10.43641949
1704703690052090,0.00530301,-0.00035028,-0.00289669,10.44125366
1704703690058088,0.00067143,-0.00390171,-0.00296842,10.44132996
1704703690064108,-0.00338054,-0.00382207,-0.00302001,10.44392014
1704703690070053,-0.00562859,-0.00406781,-0.00328561,10.44664097
1704703690076082,-0.00778664,-0.00784944,-0.00331353,10.44500065
1704703690082034,-0.01113869,-0.00890187,-0.00326834,10.44641972
1704703690088420,-0.01543362,-0.01085599,-0.00331260,10.44713783
1704703690094274,-0.01813931,-0.01427801,-0.00348589,10.44518757
1704703690100135,-0.02101078,-0.01453933,-0.00373610,10.44708538
1704703690106150,-0.02124058,-0.01414373,-0.00393794,10.44903278
1704703690112149,-0.01882723,-0.01716708,-0.00401675,10.44827366
1704703690118130,-0.01748059,-0.01655952,-0.00414807,10.45125961
1704703690124181,-0.01505822,-0.01633390,-0.00422375,10.45436668
1704703690130160,-0.01290450,-0.01794739,-0.00425468,10.45406342
1704703690136150,-0.00948835,-0.01426925,-0.00423729,10.45670795
1704703690140179,-0.00734941,-0.01230279,-0.00432767,10.45751095
1704703690148168,-0.00614622,-0.00874991,-0.00439865,10.46002960
1704703690154152,-0.00591494,-0.00387641,-0.00440150,10.46400070
1704703690160270,-0.00719814,-0.00213301,-0.00436359,10.46428967
1704703690166152,-0.00849109,-0.00039874,-0.00462222,10.46791267
1704703690172123,-0.00968654,0.00304625,-0.00481342,10.47139645
1704703690178149,-0.01146651,0.00115751,-0.00468461,10.47191906
1704703690184165,-0.01278547,0.00362533,-0.00446985,10.47543144
1704703690190176,-0.01279298,0.00665360,-0.00454053,10.47819042
1704703690196174,-0.01360603,0.00389445,-0.00443676,10.47761250
1704703690202093,-0.01676132,0.00593891,-0.00454116,10.48012829
1704703690208158,-0.01815585,0.00697238,-0.00472366,10.48233223
1704703690218117,-0.02049477,0.00406043,-0.00498346,10.47969723
1704703690224172,-0.02393506,0.00615867,-0.00496759,10.47940922
1704703690226133,-0.02520791,0.00751335,-0.00497979,10.48037815
1704703690234089,-0.02831352,0.00865600,-0.00512393,10.47881603
1704703690238167,-0.02878758,0.00784193,-0.00518722,10.47808456
1704703690246242,-0.02836638,0.00821465,-0.00527449,10.47656059
1704703690254098,-0.02416519,0.00308279,-0.00540587,10.47699642
1704703690256191,-0.02273021,0.00235839,-0.00561219,10.47914314
1704703690266142,-0.01576959,-0.00498092,-0.00622137,10.47862530
1704703690270140,-0.01339870,-0.00718638,-0.00636000,10.48439598
1704703690276164,-0.00970507,-0.00965718,-0.00647584,10.48400879
1704703690284120,-0.00656273,-0.01329647,-0.00685336,10.49300671
1704703690288174,-0.00471543,-0.01567625,-0.00688732,10.49529934
1704703690294128,-0.00062005,-0.01835335,-0.00671902,10.49734974
1704703690302110,0.00196416,-0.02290110,-0.00611066,10.50457001
1704703690308120,0.00123896,-0.02529145,-0.00579913,10.51219654
1704703690312121,-0.00102071,-0.02654870,-0.00534737,10.51568794
1704703690320136,-0.00603856,-0.02628866,-0.00473426,10.52280903
1704703690326124,-0.00987814,-0.02357968,-0.00478212,10.53067589
1704703690332111,-0.01219941,-0.01970766,-0.00500396,10.53812218
1704703690338133,-0.01368587,-0.01599743,-0.00502767,10.54062939
1704703690344113,-0.01589283,-0.00847770,-0.00515176,10.54753208
1704703690350132,-0.01736165,-0.00055046,-0.00524443,10.55375290
1704703690354130,-0.01874534,0.00318673,-0.00531147,10.55685043
1704703690362075,-0.02257732,0.01123560,-0.00561594,10.56234837
1704703690368115,-0.02227937,0.01400814,-0.00613551,10.56426048
1704703690374120,-0.02259234,0.01592205,-0.00653805,10.56919003
1704703690378138,-0.02030938,0.01590968,-0.00651933,10.56963730
1704703690386113,-0.01584614,0.01415015,-0.00680927,10.56985664
1704703690392116,-0.01509070,0.01373725,-0.00695964,10.56969929
1704703690396193,-0.01346610,0.00992091,-0.00695068,10.56761646
1704703690402109,-0.01206526,0.00680648,-0.00676467,10.56532001
1704703690410092,-0.00637746,0.00107255,-0.00622706,10.55764961
1704703690416134,-0.00362874,-0.00389616,-0.00593911,10.55198479
1704703690422075,0.00034423,-0.00784393,-0.00552295,10.54024506
1704703690426163,0.00101308,-0.01029743,-0.00528246,10.53822803
1704703690434082,0.00453405,-0.01253896,-0.00470692,10.52438736
1704703690440072,0.00930018,-0.01455891,-0.00465187,10.51148129
1704703690446110,0.01421664,-0.01579671,-0.00482381,10.50158024
1704703690452113,0.01926966,-0.01749875,-0.00501094,10.49236202
1704703690456163,0.02209901,-0.01776722,-0.00501381,10.48503017
1704703690462112,0.02540122,-0.01967805,-0.00487577,10.47364426
1704703690468183,0.02641926,-0.02076468,-0.00497501,10.46922493
1704703690476159,0.02962788,-0.02026098,-0.00514426,10.46348572
1704703690484149,0.02936555,-0.01778021,-0.00520225,10.46646881
1704703690490167,0.02619980,-0.01533558,-0.00531195,10.46406269
1704703690496146,0.01945352,-0.01104419,-0.00539636,10.46800423
1704703690502113,0.01600522,-0.00607130,-0.00541724,10.46723080
1704703690508155,0.01073238,-0.00053401,-0.00538620,10.47225380
1704703690514154,0.00403381,0.00305046,-0.00538518,10.47754860
1704703690520156,-0.00197457,0.00590350,-0.00535547,10.47766304
1704703690526142,-0.00911632,0.00817673,-0.00531272,10.48360062
1704703690530143,-0.01211002,0.00920855,-0.00540301,10.48521614
1704703690538107,-0.01456080,0.01070121,-0.00546323,10.48828220
1704703690544133,-0.01448935,0.01105912,-0.00554376,10.49177074
1704703690546127,-0.01464132,0.01247182,-0.00554951,10.49420738
1704703690556166,-0.00970502,0.01336028,-0.00557328,10.49101162
1704703690562102,-0.00676670,0.01512550,-0.00534378,10.49314404
1704703690568159,-0.00403564,0.01623992,-0.00517243,10.49579048
1704703690574162,-0.00047467,0.01561392,-0.00494722,10.49503708
1704703690580146,0.00361722,0.01792288,-0.00500449,10.49929523
1704703690586041,0.00743570,0.01816581,-0.00496500,10.50373745
1704703690592142,0.00974754,0.01672790,-0.00496170,10.50331306
1704703690598241,0.01286010,0.01631044,-0.00507310,10.50729752
1704703690604056,0.01505671,0.01746888,-0.00506238,10.51013374
1704703690610245,0.01672013,0.01481794,-0.00499374,10.50847626
1704703690616187,0.01787299,0.01439999,-0.00492978,10.51070023
1704703690622152,0.01994999,0.01088299,-0.00470452,10.50864601
1704703690628169,0.02300817,0.01016817,-0.00454988,10.50924397
1704703690634147,0.02449667,0.01054551,-0.00461693,10.50920486
1704703690640288,0.02620184,0.00853438,-0.00464095,10.50462818
1704703690646139,0.02686518,0.01010533,-0.00480483,10.50208092
1704703690652144,0.02673194,0.01235480,-0.00473363,10.49771214
1704703690658190,0.02547778,0.01261897,-0.00476816,10.49022198
1704703690664154,0.02269145,0.01521749,-0.00465189,10.48585987
1704703690670160,0.01826966,0.01799176,-0.00445573,10.48194790
1704703690676201,0.01393250,0.01790592,-0.00456371,10.47666264
1704703690682139,0.01219444,0.02101194,-0.00473360,10.47575283
1704703690688156,0.01099251,0.02453377,-0.00492143,10.47574806
1704703690694135,0.00924351,0.02351025,-0.00479736,10.47309017
1704703690700216,0.00651764,0.02791973,-0.00484387,10.47260952
1704703690706142,0.00635563,0.02949269,-0.00489474,10.47230721
1704703690712128,0.00696953,0.02758583,-0.00493031,10.46828175
1704703690718168,0.00815028,0.03113852,-0.00505461,10.46708584
1704703690724145,0.00966067,0.03451732,-0.00517715,10.46519756
1704703690730140,0.01130534,0.03273371,-0.00523773,10.46008015
1704703690736170,0.01596399,0.03428640,-0.00525346,10.45812416
1704703690742157,0.02020061,0.03663683,-0.00516350,10.45622921
1704703690748162,0.02211545,0.03142524,-0.00547776,10.45217323
1704703690756158,0.02523907,0.02450527,-0.00557177,10.44995213
1704703690760199,0.02714741,0.02028226,-0.00562316,10.44919968
1704703690770146,0.03196555,0.00799326,-0.00552296,10.45109367
1704703690774204,0.03278418,0.00229242,-0.00549971,10.45204258
1704703690780160,0.03432688,-0.00471006,-0.00549156,10.45601654
1704703690788143,0.03365197,-0.01405926,-0.00551104,10.46045589
1704703690792123,0.03263894,-0.01804152,-0.00548181,10.46308136
1704703690798145,0.02990830,-0.02302682,-0.00538698,10.46940613
1704703690806134,0.02463943,-0.02602327,-0.00545071,10.47728729
1704703690810147,0.02290398,-0.02557990,-0.00553611,10.48195934
1704703690816156,0.02125629,-0.02351111,-0.00530923,10.49130154
1704703690826199,0.01750777,-0.01423298,-0.00515168,10.50551605
1704703690836151,0.00920747,-0.00628616,-0.00502208,10.51290226
1704703690840300,0.00661537,-0.00297123,-0.00499684,10.51588440
1704703690846163,0.00346243,0.00336427,-0.00501195,10.52027702
1704703690856153,0.00044360,0.01355371,-0.00510218,10.52394581
1704703690862125,0.00012373,0.01732115,-0.00528087,10.52546692
1704703690868190,-0.00138108,0.01816389,-0.00547413,10.52164459
1704703690874188,-0.00118891,0.01879995,-0.00546903,10.51947784
1704703690880255,0.00003817,0.01646211,-0.00526921,10.51213360
1704703690886151,0.00328963,0.01312610,-0.00492465,10.50717545
1704703690892127,0.00855468,0.01072220,-0.00481071,10.50081635
1704703690898139,0.01291015,0.00416447,-0.00481341,10.49031734
1704703690904245,0.01531689,0.00122029,-0.00500974,10.48267937
1704703690910226,0.01709839,0.00056820,-0.00474704,10.47502995
1704703690916133,0.01975445,-0.00331067,-0.00450369,10.46467972
1704703690922125,0.02243678,-0.00171988,-0.00441103,10.45772743
1704703690928311,0.02450388,-0.00275719,-0.00430007,10.45120525
1704703690934183,0.02464943,-0.00794227,-0.00432281,10.44221306
1704703690940189,0.02154359,-0.00989596,-0.00444923,10.43666744
1704703690946251,0.01469357,-0.01197074,-0.00440560,10.43051910
1704703690952192,0.00743667,-0.01585031,-0.00455799,10.42171383
1704703690958186,-0.00073232,-0.01673936,-0.00452416,10.41771889
1704703690964205,-0.01022480,-0.01658159,-0.00472523,10.41503811
1704703690970173,-0.01779106,-0.01996255,-0.00472903,10.41067505
1704703690976163,-0.02355457,-0.01988606,-0.00462413,10.41078472
1704703690982104,-0.02721622,-0.02032214,-0.00447183,10.40902805
1704703690988139,-0.02857479,-0.02037921,-0.00416282,10.41181374
1704703690994160,-0.02961173,-0.01969512,-0.00371769,10.41515732
1704703691000216,-0.02923616,-0.02000923,-0.00341945,10.41654110
1704703691006127,-0.02691334,-0.01899350,-0.00339892,10.42260742
1704703691012209,-0.02366911,-0.01799525,-0.00318932,10.43040180
1704703691018235,-0.01947894,-0.01850340,-0.00292334,10.43531990
1704703691024269,-0.01645533,-0.01775302,-0.00266848,10.44491863
1704703691030195,-0.01305189,-0.01684460,-0.00247080,10.45590782
1704703691036199,-0.00914142,-0.01753212,-0.00243403,10.46507072
1704703691042134,-0.00692379,-0.01677862,-0.00232391,10.47765064
1704703691048230,-0.00594239,-0.01656150,-0.00227132,10.49071312
1704703691052159,-0.00401107,-0.01681058,-0.00199820,10.49799633
1704703691060172,-0.00460094,-0.01799406,-0.00184078,10.51212978
1704703691066168,-0.00643278,-0.01983555,-0.00181601,10.52246666
1704703691072147,-0.00843108,-0.02278000,-0.00176073,10.53066540
1704703691078182,-0.01271210,-0.02416174,-0.00174569,10.53927135
1704703691084314,-0.01697085,-0.02566252,-0.00174532,10.54637051
1704703691090188,-0.01940293,-0.02765346,-0.00190348,10.54992104
1704703691096181,-0.02230390,-0.02795780,-0.00187942,10.55318069
1704703691102289,-0.02473341,-0.02808723,-0.00171815,10.55486774
1704703691108166,-0.02600580,-0.02858812,-0.00155739,10.55473995
1704703691114154,-0.02818807,-0.02875143,-0.00156036,10.55469036
1704703691122160,-0.02659433,-0.02921516,-0.00167837,10.55158138
1704703691130168,-0.02326572,-0.02951356,-0.00170852,10.54562759
1704703691134183,-0.02134620,-0.02943649,-0.00175303,10.54199123
1704703691138182,-0.01966172,-0.02881582,-0.00169268,10.53819561
1704703691144821,-0.01673238,-0.02730910,-0.00176681,10.53154755
1704703691152135,-0.01186561,-0.02573297,-0.00179618,10.52474022
1704703691158140,-0.00767795,-0.02304181,-0.00183992,10.52051449
1704703691164153,-0.00060619,-0.02014538,-0.00186239,10.51788902
1704703691168181,0.00410122,-0.01930672,-0.00196265,10.51633739
1704703691176188,0.01147602,-0.01868333,-0.00205960,10.51510048
1704703691182181,0.01413151,-0.01584121,-0.00213679,10.51546574
1704703691186184,0.01471846,-0.01465859,-0.00214809,10.51520824
1704703691194206,0.01463389,-0.01145359,-0.00232858,10.51466751
1704703691200191,0.01476905,-0.01096340,-0.00224645,10.51289749
1704703691206181,0.01457824,-0.00825296,-0.00224436,10.51142216
1704703691212179,0.01484966,-0.00652017,-0.00216065,10.50959301
1704703691218274,0.01600411,-0.00760349,-0.00224497,10.50623989
1704703691226125,0.01452570,-0.01020714,-0.00232516,10.50262833
1704703691230176,0.01277160,-0.01192526,-0.00238886,10.50281143
1704703691236184,0.01277773,-0.01665342,-0.00255022,10.50018692
1704703691242141,0.01114176,-0.02027292,-0.00251871,10.50047302
1704703691250164,0.00950930,-0.02715218,-0.00227463,10.50070000
1704703691256174,0.00752897,-0.03016796,-0.00189599,10.50267506
1704703691260182,0.00550596,-0.03248680,-0.00175477,10.50275517
1704703691266190,0.00548829,-0.03277164,-0.00158874,10.50319290
1704703691274150,0.00589897,-0.03301020,-0.00141475,10.50107574
1704703691278176,0.00608802,-0.03248578,-0.00139234,10.49992275
1704703691284173,0.00565121,-0.02995172,-0.00145939,10.49887371
1704703691292121,0.00635811,-0.02474154,-0.00142402,10.49517155
1704703691296197,0.00692542,-0.02195480,-0.00141903,10.49356461
1704703691302153,0.00726916,-0.01713904,-0.00133697,10.49179935
1704703691310122,0.00668864,-0.01389148,-0.00121817,10.48858452
1704703691314173,0.00812961,-0.01253639,-0.00114760,10.48761368
1704703691320190,0.01002138,-0.01031023,-0.00102137,10.48581982
1704703691326171,0.00894683,-0.00867473,-0.00116025,10.48703289
1704703691334136,0.00883009,-0.00654347,-0.00114912,10.48811626
1704703691338291,0.00906403,-0.00572769,-0.00110388,10.48840237
1704703691344180,0.00882794,-0.00363334,-0.00090900,10.49027538
1704703691352125,0.01079231,-0.00355719,-0.00070911,10.49144840
1704703691356195,0.01166970,-0.00437503,-0.00067747,10.49201488
1704703691362141,0.01141195,-0.00405645,-0.00071742,10.49370384
1704703691368192,0.01282014,-0.00553321,-0.00064586,10.49504948
1704703691374239,0.01513011,-0.00952996,-0.00054390,10.49373150
1704703691382155,0.01724363,-0.01306652,-0.00061586,10.49361897
1704703691386176,0.01851852,-0.01531142,-0.00070975,10.49217606
1704703691394150,0.01923076,-0.01840029,-0.00075563,10.48798752
1704703691398237,0.01843980,-0.01960103,-0.00075628,10.48534584
1704703691408200,0.01642490,-0.01946031,-0.00059963,10.47993755
1704703691414262,0.01577613,-0.02001392,-0.00039455,10.47554207
1704703691420189,0.01200209,-0.01645198,-0.00028857,10.47365093
1704703691424176,0.00981933,-0.01421847,-0.00014271,10.47230053
1704703691432133,0.00560407,-0.00870949,0.00003965,10.47128201
1704703691438186,0.00207819,-0.00161564,0.00012084,10.47300529
1704703691444156,-0.00164047,0.00513814,0.00012189,10.47679901
1704703691450190,-0.00592866,0.00773145,-0.00010954,10.47993088
1704703691456224,-0.00917694,0.01155064,-0.00025817,10.48565865
1704703691462145,-0.01036428,0.01319725,-0.00027029,10.49104309
1704703691468219,-0.00953866,0.01176138,-0.00005398,10.49454117
1704703691474190,-0.00967784,0.01164343,0.00020203,10.49942684
1704703691478170,-0.00908453,0.01122812,0.00036814,10.50193882
1704703691486213,-0.00725544,0.00981387,0.00057373,10.50722885
1704703691492235,-0.00743319,0.01111021,0.00069703,10.51095486
1704703691498403,-0.00539957,0.00953628,0.00102171,10.51226997
1704703691504241,-0.00419044,0.01271608,0.00101195,10.51436710
1704703691510208,-0.00153498,0.01634604,0.00091937,10.51619816
1704703691516242,0.00136511,0.01453749,0.00079918,10.51617622
1704703691522177,0.00289166,0.01797667,0.00065847,10.51714897
1704703691528174,0.00461474,0.02261766,0.00061901,10.51798439
1704703691534125,0.00450065,0.02309991,0.00061457,10.51701164
1704703691540380,0.00488284,0.02758560,0.00075101,10.51624775
1704703691546173,0.00507854,0.03135655,0.00100178,10.51515484
1704703691554191,0.00646608,0.03018304,0.00122859,10.51332951
1704703691562123,0.00852915,0.02679917,0.00123755,10.51252747
1704703691570155,0.01264725,0.02389140,0.00113653,10.51282787
1704703691578158,0.01604316,0.01921729,0.00111748,10.51502419
1704703691584199,0.01821811,0.01673792,0.00111475,10.51832199
1704703691594196,0.02275259,0.01041102,0.00121395,10.52446175
1704703691604158,0.02650858,0.00111769,0.00108509,10.52995491
1704703691612140,0.02808719,-0.00264763,0.00100671,10.53717136
1704703691620212,0.02809177,-0.01001969,0.00091389,10.54435730
1704703691630187,0.02211531,-0.01480765,0.00094581,10.55534744
1704703691636240,0.01753664,-0.01808962,0.00100431,10.56040478
1704703691642193,0.01123622,-0.01790479,0.00090416,10.56596088
1704703691648209,0.00456716,-0.01653073,0.00102379,10.57051277
1704703691654182,-0.00250730,-0.01643519,0.00100833,10.57232857
1704703691660236,-0.00894935,-0.01272596,0.00089029,10.57491970
1704703691666222,-0.01484173,-0.00815873,0.00077409,10.57658577
1704703691672146,-0.01841757,-0.00543186,0.00094745,10.57582569
1704703691678196,-0.02083652,0.00065864,0.00100505,10.57562733
1704703691684198,-0.02143981,0.00929640,0.00089947,10.57441616
1704703691690220,-0.02220121,0.01494480,0.00084906,10.57187271
1704703691698166,-0.01965186,0.02379688,0.00068220,10.56917667
1704703691702174,-0.01574988,0.03403085,0.00065144,10.56924534
1704703691712158,-0.00893823,0.04148870,0.00075775,10.56481075
1704703691714197,-0.00713856,0.04581359,0.00076189,10.56509304
1704703691722126,-0.00081279,0.04974513,0.00072758,10.56209850
1704703691728201,0.00647645,0.05238487,0.00068232,10.56127262
1704703691734229,0.01363052,0.04782490,0.00077835,10.55823517
1704703691740206,0.01840407,0.04510208,0.00072056,10.55794239
1704703691746182,0.02176212,0.04158753,0.00081962,10.55809212
1704703691754186,0.02455372,0.03526409,0.00088633,10.55697918
1704703691758221,0.02429755,0.03164879,0.00080968,10.55617428
1704703691764181,0.02288776,0.02788872,0.00054729,10.55590343
1704703691770213,0.01637129,0.01812731,0.00049547,10.55307007
1704703691776234,0.00985901,0.01220840,0.00050684,10.55216312
1704703691784179,0.00187158,0.00138711,0.00043502,10.54943371
1704703691788200,-0.00049945,-0.00333245,0.00033159,10.54806042
1704703691796151,-0.00883135,-0.01373988,0.00019955,10.54469204
1704703691802093,-0.01397419,-0.01909743,0.00025344,10.54232597
1704703691806196,-0.01737066,-0.02169209,0.00020832,10.53928185
1704703691814211,-0.02019526,-0.02616896,0.00025446,10.53245449
1704703691818351,-0.02151038,-0.02667594,0.00015068,10.52825832
1704703691828226,-0.02117847,-0.02410903,0.00014041,10.51824570
1704703691834291,-0.02008242,-0.02164593,0.00017172,10.50994968
1704703691840229,-0.01661705,-0.01151857,0.00022702,10.50418282
1704703691846170,-0.01240734,-0.00017489,0.00004956,10.49857235
1704703691852159,-0.00702806,0.01142380,-0.00017403,10.49344254
1704703691858331,-0.00225614,0.01733143,-0.00034401,10.48574257
1704703691864164,-0.00050354,0.02292962,-0.00044845,10.48223209
1704703691870242,-0.00050067,0.02725488,-0.00063831,10.47885990
1704703691876260,0.00026996,0.02579788,-0.00056627,10.47315025
1704703691882190,0.00259224,0.02665739,-0.00065851,10.47131252
1704703691888192,0.00392890,0.02376334,-0.00066983,10.47020054
1704703691894172,0.00533563,0.01527285,-0.00056687,10.46664715
1704703691900149,0.00510064,0.00881924,-0.00049752,10.46659088
1704703691906195,0.00484345,0.00138759,-0.00048950,10.46745777
1704703691912107,0.00370549,-0.00823028,-0.00045584,10.46578598
1704703691918275,0.00265802,-0.01469237,-0.00040586,10.46808815
1704703691924201,0.00118682,-0.01922813,-0.00047481,10.47151947
1704703691930215,-0.00011497,-0.02577604,-0.00046233,10.47364521
1704703691936182,-0.00296926,-0.02808609,-0.00055198,10.47857475
1704703691942172,-0.00298766,-0.02953725,-0.00049157,10.48459244
1704703691948185,-0.00425888,-0.03271244,-0.00064818,10.48895931
1704703691954183,-0.00507555,-0.02849337,-0.00082813,10.49503422
1704703691960345,-0.00623391,-0.02354042,-0.00087128,10.50095272
1704703691966206,-0.00861794,-0.02088051,-0.00083147,10.50414944
1704703691972172,-0.01252184,-0.01398411,-0.00108673,10.50839806
1704703691980199,-0.01831393,-0.00671964,-0.00135975,10.51287651
