timestamp,roll,pitch,thrust,yaw,aux1,aux2,aux3,aux4
1691765277731098,1500,1500,1000,1500,1000,0,0,0
1691765277741178,1500,1500,1000,1500,1000,0,0,0
1691765277751108,1500,1500,1000,1500,1000,0,0,0
1691765277761279,1500,1500,1000,1500,1000,0,0,0
1691765277771083,1500,1500,1000,1500,1000,0,0,0
1691765277781096,1500,1500,1000,1500,1000,0,0,0
1691765277791192,1500,1500,1000,1500,1000,0,0,0
1691765277801102,1500,1500,1000,1500,1000,0,0,0
1691765277811095,1500,1500,1000,1500,1000,0,0,0
1691765277821071,1500,1500,1000,1500,1000,0,0,0
1691765277831116,1500,1500,1000,1500,1000,0,0,0
1691765277841118,1500,1500,1000,1500,1000,0,0,0
1691765277851086,1500,1500,1000,1500,1000,0,0,0
1691765277861120,1500,1500,1000,1500,1000,0,0,0
1691765277871225,1500,1500,1000,1500,1000,0,0,0
1691765277881091,1500,1500,1000,1500,1000,0,0,0
1691765277891104,1500,1500,1000,1500,1000,0,0,0
1691765277901655,1488,1529,1252,1492,1000,0,0,0
1691765277904246,1487,1533,1277,1491,1000,0,0,0
1691765277908400,1487,1533,1280,1491,1000,0,0,0
1691765277912282,1487,1532,1281,1491,1000,0,0,0
1691765277915971,1487,1532,1281,1491,1000,0,0,0
1691765277918707,1487,1536,1281,1491,1000,0,0,0
1691765277922949,1487,1533,1282,1491,1000,0,0,0
1691765277927049,1486,1536,1281,1491,1000,0,0,0
1691765277929722,1487,1533,1282,1491,1000,0,0,0
1691765277935064,1487,1532,1283,1491,1000,0,0,0
1691765277937806,1486,1531,1283,1491,1000,0,0,0
1691765277940498,1487,1531,1283,1491,1000,0,0,0
1691765277944100,1486,1532,1284,1491,1000,0,0,0
1691765277947891,1487,1531,1284,1491,1000,0,0,0
1691765277952028,1487,1530,1285,1491,1000,0,0,0
1691765277956010,1487,1529,1285,1491,1000,0,0,0
1691765277958917,1488,1527,1285,1491,1000,0,0,0
1691765277963087,1488,1526,1285,1491,1000,0,0,0
1691765277966986,1489,1524,1285,1491,1000,0,0,0
1691765277969654,1489,1523,1284,1491,1000,0,0,0
1691765277973235,1489,1523,1284,1492,1000,0,0,0
1691765277977063,1490,1520,1284,1492,1000,0,0,0
1691765277981036,1492,1518,1282,1492,1000,0,0,0
1691765277986021,1491,1519,1279,1493,1000,0,0,0
1691765277988824,1492,1517,1276,1494,1000,0,0,0
1691765277991482,1493,1510,1279,1494,1000,0,0,0
1691765277995166,1492,1508,1276,1494,1000,0,0,0
1691765277999037,1489,1503,1278,1494,1000,0,0,0
1691765278003005,1489,1509,1287,1495,1000,0,0,0
1691765278007102,1488,1510,1286,1496,1000,0,0,0
1691765278009745,1488,1507,1284,1496,1000,0,0,0
1691765278013667,1491,1499,1285,1497,1000,0,0,0
1691765278017083,1491,1496,1278,1497,1000,0,0,0
1691765278021233,1492,1491,1271,1497,1000,0,0,0
1691765278024885,1498,1486,1267,1498,1000,0,0,0
1691765278028860,1498,1490,1257,1498,1000,0,0,0
1691765278031473,1498,1492,1253,1498,1000,0,0,0
1691765278035378,1504,1479,1259,1498,1000,0,0,0
1691765278039351,1504,1482,1251,1498,1000,0,0,0
1691765278043322,1507,1482,1248,1499,1000,0,0,0
1691765278046248,1506,1482,1246,1499,1000,0,0,0
1691765278050187,1506,1484,1240,1499,1000,0,0,0
1691765278054225,1508,1474,1251,1499,1000,0,0,0
1691765278058943,1509,1472,1246,1499,1000,0,0,0
1691765278060545,1517,1467,1245,1499,1000,0,0,0
1691765278064329,1514,1473,1236,1499,1000,0,0,0
1691765278070879,1511,1483,1237,1499,1000,0,0,0
1691765278072407,1512,1482,1237,1500,1000,0,0,0
1691765278076425,1512,1480,1239,1500,1000,0,0,0
1691765278081075,1513,1478,1240,1500,1000,0,0,0
1691765278082290,1514,1476,1242,1500,1000,0,0,0
1691765278086443,1515,1473,1242,1500,1000,0,0,0
1691765278090045,1513,1475,1241,1500,1000,0,0,0
1691765278095796,1514,1472,1242,1500,1000,0,0,0
1691765278097711,1512,1467,1245,1501,1000,0,0,0
1691765278106408,1515,1466,1239,1501,1000,0,0,0
1691765278106798,1514,1464,1246,1501,1000,0,0,0
1691765278108648,1514,1465,1247,1501,1000,0,0,0
1691765278112129,1514,1466,1245,1501,1000,0,0,0
1691765278115416,1502,1460,1256,1501,1000,0,0,0
1691765278118895,1502,1425,1231,1501,1000,0,0,0
1691765278122408,1512,1481,1244,1500,1000,0,0,0
1691765278126075,1549,1460,1207,1499,1000,0,0,0
1691765278130143,1566,1476,1196,1499,1000,0,0,0
1691765278134342,1539,1486,1226,1500,1000,0,0,0
1691765278137950,1527,1492,1233,1500,1000,0,0,0
1691765278142440,1521,1493,1241,1501,1000,0,0,0
1691765278144136,1514,1493,1246,1501,1000,0,0,0
1691765278148155,1509,1493,1242,1501,1000,0,0,0
1691765278152131,1502,1493,1250,1501,1000,0,0,0
1691765278155312,1501,1489,1250,1501,1000,0,0,0
1691765278159198,1501,1485,1247,1500,1000,0,0,0
1691765278163178,1477,1481,1269,1501,1000,0,0,0
1691765278166927,1495,1493,1268,1500,1000,0,0,0
1691765278169698,1517,1486,1234,1500,1000,0,0,0
1691765278173248,1507,1495,1244,1500,1000,0,0,0
1691765278177223,1500,1500,1250,1500,1000,0,0,0
1691765278181317,1499,1498,1255,1500,1000,0,0,0
1691765278184097,1499,1504,1249,1500,1000,0,0,0
1691765278188255,1499,1504,1249,1500,1000,0,0,0
1691765278192234,1498,1503,1253,1500,1000,0,0,0
1691765278195270,1493,1498,1256,1500,1000,0,0,0
1691765278198698,1492,1493,1255,1500,1000,0,0,0
1691765278202345,1497,1491,1254,1500,1000,0,0,0
1691765278206261,1498,1495,1250,1500,1000,0,0,0
1691765278210242,1495,1498,1250,1500,1000,0,0,0
1691765278214172,1496,1504,1255,1500,1000,0,0,0
1691765278217220,1494,1503,1253,1500,1000,0,0,0
1691765278220917,1490,1507,1251,1500,1000,0,0,0
1691765278224104,1488,1505,1254,1500,1000,0,0,0
1691765278228309,1494,1502,1251,1500,1000,0,0,0
1691765278232155,1495,1500,1252,1500,1000,0,0,0
1691765278235883,1494,1502,1253,1500,1000,0,0,0
1691765278238697,1493,1498,1256,1500,1000,0,0,0
1691765278246407,1496,1490,1256,1500,1000,0,0,0
1691765278246791,1495,1494,1255,1500,1000,0,0,0
1691765278254310,1495,1494,1256,1500,1000,0,0,0
1691765278254799,1493,1496,1255,1500,1000,0,0,0
1691765278260927,1491,1499,1252,1500,1000,0,0,0
1691765278262271,1496,1497,1250,1500,1000,0,0,0
1691765278264391,1497,1498,1250,1500,1000,0,0,0
1691765278269023,1496,1501,1250,1500,1000,0,0,0
1691765278272177,1495,1510,1245,1500,1000,0,0,0
1691765278276125,1496,1503,1251,1499,1000,0,0,0
1691765278279378,1490,1507,1252,1499,1000,0,0,0
1691765278283044,1489,1505,1258,1499,1000,0,0,0
1691765278286294,1491,1499,1253,1499,1000,0,0,0
1691765278290127,1494,1494,1255,1499,1000,0,0,0
1691765278294749,1491,1487,1257,1499,1000,0,0,0
1691765278296953,1492,1490,1255,1499,1000,0,0,0
1691765278300572,1494,1491,1251,1499,1000,0,0,0
1691765278304572,1494,1501,1254,1499,1000,0,0,0
1691765278308323,1495,1501,1254,1499,1000,0,0,0
1691765278312281,1498,1499,1246,1499,1000,0,0,0
1691765278316076,1499,1500,1246,1499,1000,0,0,0
1691765278319005,1495,1506,1247,1499,1000,0,0,0
1691765278323115,1497,1495,1253,1499,1000,0,0,0
1691765278326096,1496,1499,1252,1499,1000,0,0,0
1691765278329745,1501,1492,1250,1499,1000,0,0,0
1691765278333296,1502,1501,1250,1499,1000,0,0,0
1691765278337314,1504,1494,1248,1499,1000,0,0,0
1691765278341411,1502,1496,1248,1499,1000,0,0,0
1691765278345221,1497,1502,1245,1499,1000,0,0,0
1691765278348838,1495,1503,1252,1499,1000,0,0,0
1691765278351658,1496,1502,1252,1499,1000,0,0,0
1691765278355249,1496,1504,1247,1499,1000,0,0,0
1691765278359800,1496,1496,1256,1499,1000,0,0,0
1691765278363410,1503,1486,1255,1499,1000,0,0,0
1691765278366408,1505,1494,1248,1499,1000,0,0,0
1691765278369705,1507,1494,1246,1499,1000,0,0,0
1691765278373305,1510,1493,1251,1499,1000,0,0,0
1691765278377895,1503,1496,1254,1499,1000,0,0,0
1691765278381391,1502,1499,1247,1499,1000,0,0,0
1691765278386294,1502,1498,1249,1499,1000,0,0,0
1691765278389524,1504,1500,1250,1499,1000,0,0,0
1691765278391394,1506,1498,1249,1498,1000,0,0,0
1691765278395758,1468,1485,1274,1498,1000,0,0,0
1691765278399735,1473,1490,1274,1498,1000,0,0,0
1691765278402274,1479,1492,1271,1497,1000,0,0,0
1691765278405953,1487,1491,1265,1497,1000,0,0,0
1691765278409757,1493,1487,1263,1497,1000,0,0,0
1691765278413819,1495,1488,1259,1497,1000,0,0,0
1691765278418322,1502,1487,1254,1497,1000,0,0,0
1691765278421720,1511,1492,1250,1496,1000,0,0,0
1691765278423964,1512,1488,1251,1496,1000,0,0,0
1691765278428369,1512,1486,1251,1496,1000,0,0,0
1691765278432398,1515,1487,1250,1496,1000,0,0,0
1691765278435097,1517,1489,1251,1496,1000,0,0,0
1691765278439341,1522,1490,1248,1496,1000,0,0,0
1691765278442260,1520,1494,1246,1496,1000,0,0,0
1691765278446819,1517,1502,1247,1496,1000,0,0,0
1691765278450541,1514,1499,1253,1496,1000,0,0,0
1691765278454185,1517,1492,1253,1496,1000,0,0,0
1691765278456869,1520,1488,1250,1496,1000,0,0,0
1691765278464388,1522,1493,1248,1496,1000,0,0,0
1691765278464829,1518,1501,1246,1496,1000,0,0,0
1691765278468388,1515,1502,1248,1496,1000,0,0,0
1691765278472649,1512,1499,1256,1496,1000,0,0,0
1691765278475087,1516,1493,1253,1496,1000,0,0,0
1691765278478706,1517,1491,1252,1496,1000,0,0,0
1691765278483152,1516,1492,1252,1496,1000,0,0,0
1691765278486236,1516,1495,1251,1497,1000,0,0,0
1691765278490434,1518,1496,1248,1497,1000,0,0,0
1691765278494679,1518,1499,1248,1497,1000,0,0,0
1691765278496907,1642,1552,1175,1507,1000,0,0,0
1691765278500619,1557,1532,1224,1502,1000,0,0,0
1691765278504572,1527,1522,1245,1501,1000,0,0,0
1691765278508431,1517,1513,1255,1501,1000,0,0,0
1691765278511426,1513,1510,1254,1501,1000,0,0,0
1691765278515502,1513,1503,1251,1501,1000,0,0,0
1691765278519478,1504,1508,1254,1501,1000,0,0,0
1691765278523523,1501,1506,1253,1501,1000,0,0,0
1691765278526139,1497,1501,1252,1501,1000,0,0,0
1691765278529669,1495,1501,1252,1502,1000,0,0,0
1691765278533468,1492,1509,1248,1503,1000,0,0,0
1691765278537451,1494,1499,1247,1502,1000,0,0,0
1691765278541435,1489,1502,1257,1503,1000,0,0,0
1691765278544223,1487,1503,1259,1503,1000,0,0,0
1691765278547985,1490,1503,1252,1503,1000,0,0,0
1691765278552148,1491,1510,1252,1503,1000,0,0,0
1691765278555481,1486,1510,1251,1503,1000,0,0,0
1691765278559610,1484,1511,1251,1503,1000,0,0,0
1691765278563302,1483,1506,1258,1503,1000,0,0,0
1691765278565966,1484,1493,1258,1503,1000,0,0,0
1691765278569618,1483,1495,1260,1503,1000,0,0,0
1691765278573458,1486,1495,1258,1503,1000,0,0,0
1691765278577538,1486,1495,1254,1503,1000,0,0,0
1691765278581490,1485,1505,1257,1503,1000,0,0,0
1691765278584082,1484,1509,1254,1503,1000,0,0,0
1691765278587817,1481,1506,1253,1503,1000,0,0,0
1691765278591576,1482,1504,1254,1503,1000,0,0,0
1691765278595611,1482,1494,1261,1502,1000,0,0,0
1691765278600539,1485,1494,1261,1502,1000,0,0,0
1691765278605467,1484,1493,1260,1502,1000,0,0,0
1691765278610894,1484,1499,1254,1502,1000,0,0,0
1691765278611274,1486,1508,1261,1502,1000,0,0,0
1691765278613288,1486,1505,1257,1502,1000,0,0,0
1691765278617955,1484,1506,1254,1502,1000,0,0,0
1691765278620923,1487,1499,1260,1501,1000,0,0,0
1691765278624349,1484,1497,1263,1501,1000,0,0,0
1691765278627781,1487,1495,1263,1500,1000,0,0,0
1691765278631486,1490,1497,1259,1500,1000,0,0,0
1691765278635574,1495,1504,1252,1500,1000,0,0,0
1691765278639698,1490,1505,1258,1500,1000,0,0,0
1691765278643376,1488,1503,1259,1500,1000,0,0,0
1691765278646220,1492,1496,1263,1500,1000,0,0,0
1691765278649622,1491,1500,1259,1500,1000,0,0,0
1691765278653740,1491,1507,1254,1499,1000,0,0,0
1691765278657426,1490,1512,1256,1499,1000,0,0,0
1691765278663411,1494,1514,1254,1499,1000,0,0,0
1691765278663985,1492,1500,1265,1499,1000,0,0,0
1691765278667893,1496,1498,1261,1498,1000,0,0,0
1691765278673458,1494,1499,1261,1498,1000,0,0,0
1691765278675811,1479,1498,1276,1498,1000,0,0,0
1691765278679719,1479,1498,1277,1498,1000,0,0,0
1691765278682309,1482,1496,1274,1497,1000,0,0,0
1691765278686594,1515,1496,1235,1497,1000,0,0,0
1691765278689535,1513,1500,1246,1497,1000,0,0,0
1691765278693617,1513,1502,1253,1497,1000,0,0,0
1691765278697763,1507,1509,1252,1497,1000,0,0,0
1691765278702568,1505,1509,1255,1497,1000,0,0,0
1691765278704138,1501,1505,1261,1497,1000,0,0,0
1691765278711117,1501,1503,1260,1497,1000,0,0,0
1691765278711816,1502,1502,1258,1497,1000,0,0,0
1691765278715546,1503,1506,1257,1497,1000,0,0,0
1691765278719604,1501,1506,1257,1498,1000,0,0,0
1691765278722352,1499,1502,1261,1498,1000,0,0,0
1691765278727029,1501,1504,1263,1498,1000,0,0,0
1691765278730532,1503,1505,1259,1498,1000,0,0,0
1691765278733228,1504,1507,1259,1498,1000,0,0,0
1691765278737035,1503,1504,1261,1498,1000,0,0,0
1691765278741328,1505,1501,1259,1498,1000,0,0,0
1691765278744034,1504,1504,1259,1498,1000,0,0,0
1691765278747819,1505,1506,1253,1498,1000,0,0,0
1691765278751615,1501,1503,1265,1498,1000,0,0,0
1691765278755588,1499,1501,1265,1498,1000,0,0,0
1691765278759722,1501,1499,1260,1498,1000,0,0,0
1691765278762240,1499,1511,1270,1498,1000,0,0,0
1691765278765901,1507,1502,1254,1498,1000,0,0,0
1691765278769625,1504,1499,1261,1498,1000,0,0,0
1691765278773575,1502,1499,1259,1498,1000,0,0,0
1691765278777670,1502,1505,1262,1499,1000,0,0,0
1691765278781420,1507,1507,1258,1499,1000,0,0,0
1691765278785380,1505,1507,1259,1499,1000,0,0,0
1691765278787783,1504,1503,1256,1499,1000,0,0,0
1691765278791692,1502,1502,1258,1499,1000,0,0,0
1691765278795815,1500,1501,1262,1499,1000,0,0,0
1691765278801955,1504,1499,1260,1499,1000,0,0,0
1691765278802447,1489,1501,1274,1499,1000,0,0,0
1691765278806045,1485,1500,1272,1499,1000,0,0,0
1691765278809958,1483,1495,1269,1499,1000,0,0,0
1691765278813774,1514,1495,1239,1499,1000,0,0,0
1691765278817941,1518,1507,1238,1499,1000,0,0,0
1691765278821379,1517,1510,1247,1499,1000,0,0,0
1691765278824929,1506,1517,1265,1499,1000,0,0,0
1691765278828240,1511,1510,1251,1499,1000,0,0,0
1691765278831626,1508,1508,1255,1499,1000,0,0,0
1691765278835731,1505,1499,1260,1499,1000,0,0,0
1691765278838591,1504,1496,1264,1499,1000,0,0,0
1691765278842917,1504,1499,1264,1499,1000,0,0,0
1691765278846940,1504,1499,1257,1499,1000,0,0,0
1691765278850712,1502,1501,1261,1499,1000,0,0,0
1691765278853248,1504,1497,1259,1499,1000,0,0,0
1691765278856908,1501,1498,1264,1499,1000,0,0,0
1691765278860916,1501,1502,1261,1499,1000,0,0,0
1691765278864677,1501,1499,1263,1499,1000,0,0,0
1691765278868749,1504,1498,1261,1499,1000,0,0,0
1691765278871361,1503,1501,1262,1500,1000,0,0,0
1691765278875031,1501,1505,1261,1500,1000,0,0,0
1691765278879214,1500,1505,1255,1500,1000,0,0,0
1691765278882877,1498,1498,1265,1500,1000,0,0,0
1691765278887027,1500,1497,1266,1500,1000,0,0,0
1691765278890505,1501,1498,1263,1500,1000,0,0,0
1691765278893419,1500,1502,1261,1500,1000,0,0,0
1691765278896978,1502,1506,1255,1500,1000,0,0,0
1691765278900978,1499,1497,1266,1500,1000,0,0,0
1691765278905262,1499,1501,1265,1500,1000,0,0,0
1691765278907705,1499,1494,1261,1500,1000,0,0,0
1691765278911931,1501,1499,1260,1500,1000,0,0,0
1691765278915929,1502,1498,1258,1500,1000,0,0,0
1691765278919598,1499,1494,1263,1500,1000,0,0,0
1691765278922321,1501,1498,1262,1500,1000,0,0,0
1691765278926073,1501,1497,1260,1500,1000,0,0,0
1691765278930139,1499,1501,1258,1500,1000,0,0,0
1691765278933823,1498,1499,1257,1500,1000,0,0,0
1691765278937835,1494,1498,1263,1500,1000,0,0,0
1691765278940633,1496,1495,1262,1500,1000,0,0,0
1691765278944913,1499,1496,1262,1500,1000,0,0,0
1691765278947776,1485,1499,1275,1500,1000,0,0,0
1691765278951570,1483,1497,1273,1500,1000,0,0,0
1691765278955824,1481,1489,1271,1500,1000,0,0,0
1691765278958999,1513,1489,1236,1499,1000,0,0,0
1691765278962292,1513,1497,1246,1500,1000,0,0,0
1691765278965902,1492,1498,1271,1500,1000,0,0,0
1691765278969623,1489,1498,1270,1500,1000,0,0,0
1691765278973883,1498,1507,1256,1500,1000,0,0,0
1691765278977834,1510,1491,1245,1499,1000,0,0,0
1691765278980565,1511,1493,1252,1499,1000,0,0,0
1691765278984290,1510,1495,1254,1499,1000,0,0,0
1691765278987794,1505,1501,1254,1500,1000,0,0,0
1691765278991358,1501,1500,1256,1500,1000,0,0,0
1691765278995200,1502,1496,1258,1499,1000,0,0,0
1691765278998878,1499,1494,1263,1499,1000,0,0,0
1691765279002966,1501,1497,1258,1499,1000,0,0,0
1691765279006129,1485,1496,1276,1499,1000,0,0,0
1691765279009747,1484,1494,1274,1499,1000,0,0,0
1691765279013923,1481,1489,1272,1499,1000,0,0,0
1691765279017903,1508,1492,1239,1499,1000,0,0,0
1691765279020702,1510,1496,1251,1499,1000,0,0,0
1691765279024146,1508,1499,1257,1499,1000,0,0,0
1691765279028045,1504,1501,1257,1499,1000,0,0,0
1691765279032131,1504,1501,1258,1499,1000,0,0,0
1691765279035867,1503,1502,1258,1499,1000,0,0,0
1691765279038662,1501,1497,1256,1499,1000,0,0,0
1691765279042986,1497,1499,1258,1499,1000,0,0,0
1691765279046927,1498,1496,1264,1499,1000,0,0,0
1691765279049603,1502,1501,1260,1499,1000,0,0,0
1691765279053259,1499,1500,1262,1499,1000,0,0,0
1691765279056927,1494,1494,1264,1499,1000,0,0,0
1691765279061095,1495,1494,1264,1499,1000,0,0,0
1691765279064833,1497,1496,1265,1499,1000,0,0,0
1691765279068402,1498,1497,1263,1499,1000,0,0,0
1691765279071547,1499,1500,1260,1499,1000,0,0,0
1691765279077190,1486,1498,1277,1499,1000,0,0,0
1691765279079032,1481,1495,1274,1499,1000,0,0,0
1691765279082933,1480,1491,1272,1499,1000,0,0,0
1691765279087220,1517,1496,1237,1499,1000,0,0,0
1691765279089534,1510,1497,1253,1499,1000,0,0,0
1691765279093319,1506,1503,1257,1499,1000,0,0,0
1691765279097077,1504,1505,1257,1499,1000,0,0,0
1691765279100983,1503,1502,1258,1499,1000,0,0,0
1691765279105772,1497,1496,1265,1499,1000,0,0,0
1691765279108701,1496,1498,1266,1499,1000,0,0,0
1691765279111461,1501,1497,1262,1499,1000,0,0,0
1691765279115509,1502,1502,1258,1499,1000,0,0,0
1691765279119798,1499,1500,1259,1499,1000,0,0,0
1691765279122899,1497,1504,1261,1499,1000,0,0,0
1691765279126139,1498,1497,1258,1499,1000,0,0,0
1691765279130103,1500,1501,1256,1499,1000,0,0,0
1691765279134458,1498,1500,1257,1499,1000,0,0,0
1691765279137695,1494,1497,1262,1499,1000,0,0,0
1691765279140470,1496,1497,1262,1499,1000,0,0,0
1691765279144217,1499,1496,1259,1499,1000,0,0,0
1691765279148034,1484,1497,1277,1499,1000,0,0,0
1691765279151942,1482,1496,1273,1499,1000,0,0,0
1691765279155897,1482,1491,1272,1499,1000,0,0,0
1691765279158692,1515,1493,1237,1499,1000,0,0,0
1691765279162384,1510,1501,1252,1499,1000,0,0,0
1691765279166025,1510,1502,1256,1499,1000,0,0,0
1691765279170112,1493,1501,1275,1499,1000,0,0,0
1691765279173927,1491,1505,1270,1499,1000,0,0,0
1691765279177009,1500,1511,1259,1499,1000,0,0,0
1691765279181058,1512,1497,1242,1499,1000,0,0,0
1691765279185198,1516,1502,1247,1499,1000,0,0,0
1691765279188283,1504,1512,1268,1499,1000,0,0,0
1691765279196472,1506,1496,1251,1499,1000,0,0,0
1691765279196793,1502,1491,1260,1499,1000,0,0,0
1691765279201050,1501,1493,1261,1499,1000,0,0,0
1691765279203106,1501,1498,1259,1499,1000,0,0,0
1691765279206980,1496,1509,1270,1499,1000,0,0,0
1691765279209648,1503,1497,1253,1499,1000,0,0,0
1691765279213309,1503,1493,1261,1499,1000,0,0,0
1691765279217136,1500,1497,1260,1499,1000,0,0,0
1691765279221186,1500,1498,1260,1499,1000,0,0,0
1691765279226053,1503,1499,1261,1499,1000,0,0,0
1691765279227830,1501,1499,1261,1499,1000,0,0,0
1691765279231772,1502,1501,1261,1499,1000,0,0,0
1691765279235465,1502,1501,1258,1499,1000,0,0,0
1691765279239158,1504,1509,1255,1499,1000,0,0,0
1691765279243240,1501,1507,1258,1499,1000,0,0,0
1691765279246987,1496,1497,1263,1499,1000,0,0,0
1691765279249580,1499,1495,1262,1499,1000,0,0,0
1691765279253257,1500,1502,1263,1499,1000,0,0,0
1691765279257176,1500,1502,1259,1499,1000,0,0,0
1691765279261156,1497,1498,1262,1499,1000,0,0,0
1691765279265897,1498,1498,1264,1499,1000,0,0,0
1691765279268075,1500,1499,1263,1499,1000,0,0,0
1691765279271478,1500,1501,1260,1499,1000,0,0,0
1691765279274978,1501,1505,1260,1499,1000,0,0,0
1691765279279543,1500,1504,1258,1499,1000,0,0,0
1691765279285250,1494,1498,1264,1499,1000,0,0,0
1691765279286924,1497,1500,1260,1499,1000,0,0,0
1691765279290108,1500,1502,1261,1499,1000,0,0,0
1691765279293340,1500,1499,1261,1499,1000,0,0,0
1691765279297237,1484,1500,1277,1499,1000,0,0,0
1691765279301267,1482,1499,1274,1499,1000,0,0,0
1691765279305285,1495,1505,1264,1499,1000,0,0,0
1691765279307874,1506,1492,1244,1499,1000,0,0,0
1691765279311488,1504,1499,1257,1499,1000,0,0,0
1691765279315896,1507,1498,1257,1499,1000,0,0,0
1691765279318741,1501,1510,1269,1499,1000,0,0,0
1691765279322243,1499,1511,1266,1499,1000,0,0,0
1691765279326379,1501,1499,1249,1499,1000,0,0,0
1691765279330113,1500,1494,1255,1499,1000,0,0,0
1691765279333237,1502,1497,1256,1499,1000,0,0,0
1691765279338113,1502,1501,1257,1499,1000,0,0,0
1691765279341168,1497,1494,1260,1499,1000,0,0,0
1691765279344157,1499,1494,1261,1499,1000,0,0,0
1691765279347938,1499,1506,1267,1499,1000,0,0,0
1691765279352244,1498,1501,1255,1499,1000,0,0,0
1691765279355930,1484,1496,1275,1499,1000,0,0,0
1691765279358603,1483,1494,1271,1499,1000,0,0,0
1691765279362399,1482,1495,1267,1499,1000,0,0,0
1691765279366210,1488,1506,1281,1499,1000,0,0,0
1691765279370275,1487,1487,1256,1499,1000,0,0,0
1691765279373071,1529,1490,1228,1498,1000,0,0,0
1691765279377274,1521,1498,1242,1499,1000,0,0,0
1691765279381892,1495,1500,1272,1499,1000,0,0,0
1691765279385758,1496,1517,1276,1499,1000,0,0,0
1691765279388257,1496,1514,1276,1499,1000,0,0,0
1691765279392409,1508,1497,1249,1499,1000,0,0,0
1691765279396009,1494,1490,1257,1499,1000,0,0,0
1691765279398632,1518,1488,1232,1499,1000,0,0,0
1691765279402467,1508,1492,1252,1499,1000,0,0,0
1691765279406232,1511,1501,1253,1499,1000,0,0,0
1691765279412245,1504,1494,1263,1499,1000,0,0,0
1691765279415717,1501,1496,1266,1499,1000,0,0,0
1691765279416985,1499,1496,1264,1499,1000,0,0,0
1691765279420701,1499,1497,1262,1499,1000,0,0,0
1691765279426188,1501,1498,1260,1499,1000,0,0,0
1691765279427941,1500,1500,1263,1499,1000,0,0,0
1691765279431398,1494,1510,1273,1499,1000,0,0,0
1691765279435440,1491,1513,1283,1499,1000,0,0,0
1691765279439714,1497,1511,1263,1499,1000,0,0,0
1691765279443551,1494,1482,1251,1499,1000,0,0,0
1691765279446073,1496,1483,1258,1499,1000,0,0,0
1691765279449738,1498,1493,1262,1499,1000,0,0,0
1691765279453196,1501,1496,1264,1499,1000,0,0,0
1691765279457594,1499,1503,1263,1499,1000,0,0,0
1691765279461317,1496,1501,1261,1499,1000,0,0,0
1691765279465167,1493,1497,1268,1499,1000,0,0,0
1691765279467944,1494,1495,1269,1499,1000,0,0,0
1691765279471563,1495,1497,1266,1499,1000,0,0,0
1691765279475419,1494,1498,1266,1499,1000,0,0,0
1691765279479572,1491,1508,1274,1499,1000,0,0,0
1691765279482969,1481,1502,1277,1499,1000,0,0,0
1691765279486454,1483,1506,1289,1499,1000,0,0,0
1691765279489677,1484,1504,1283,1499,1000,0,0,0
1691765279493435,1503,1497,1247,1499,1000,0,0,0
1691765279497357,1513,1485,1235,1499,1000,0,0,0
1691765279501377,1506,1498,1249,1499,1000,0,0,0
1691765279505131,1498,1494,1262,1499,1000,0,0,0
1691765279507796,1498,1497,1265,1499,1000,0,0,0
1691765279511683,1499,1503,1269,1499,1000,0,0,0
1691765279515204,1497,1510,1264,1499,1000,0,0,0
1691765279519405,1496,1504,1265,1499,1000,0,0,0
1691765279522201,1493,1492,1258,1499,1000,0,0,0
1691765279526478,1490,1501,1271,1499,1000,0,0,0
1691765279530412,1498,1502,1259,1499,1000,0,0,0
1691765279534317,1499,1504,1259,1499,1000,0,0,0
1691765279537119,1489,1509,1283,1500,1000,0,0,0
1691765279540919,1486,1506,1277,1500,1000,0,0,0
1691765279544366,1494,1489,1248,1499,1000,0,0,0
1691765279548327,1488,1497,1274,1499,1000,0,0,0
1691765279551539,1494,1506,1261,1500,1000,0,0,0
1691765279555489,1492,1504,1267,1500,1000,0,0,0
1691765279559490,1493,1500,1260,1500,1000,0,0,0
1691765279563056,1492,1490,1268,1500,1000,0,0,0
1691765279566067,1504,1497,1252,1500,1000,0,0,0
1691765279569708,1502,1504,1254,1500,1000,0,0,0
1691765279573494,1497,1500,1264,1500,1000,0,0,0
1691765279577428,1498,1498,1263,1500,1000,0,0,0
1691765279581317,1502,1493,1256,1500,1000,0,0,0
1691765279584159,1503,1498,1254,1500,1000,0,0,0
1691765279588323,1502,1501,1256,1500,1000,0,0,0
1691765279591357,1494,1490,1270,1500,1000,0,0,0
1691765279595235,1494,1493,1266,1500,1000,0,0,0
1691765279599452,1503,1501,1249,1500,1000,0,0,0
1691765279603342,1499,1487,1265,1499,1000,0,0,0
1691765279605957,1500,1486,1260,1499,1000,0,0,0
1691765279610640,1509,1500,1249,1499,1000,0,0,0
1691765279613399,1508,1503,1252,1500,1000,0,0,0
1691765279617395,1502,1498,1263,1499,1000,0,0,0
1691765279621381,1496,1489,1269,1499,1000,0,0,0
1691765279624099,1503,1494,1256,1499,1000,0,0,0
1691765279627771,1508,1496,1256,1499,1000,0,0,0
1691765279631484,1511,1498,1258,1499,1000,0,0,0
1691765279635510,1507,1502,1257,1499,1000,0,0,0
1691765279639485,1501,1499,1263,1499,1000,0,0,0
1691765279643545,1503,1496,1264,1499,1000,0,0,0
1691765279647170,1507,1492,1256,1499,1000,0,0,0
1691765279649719,1506,1497,1253,1499,1000,0,0,0
1691765279653433,1507,1498,1256,1500,1000,0,0,0
1691765279657404,1505,1498,1257,1500,1000,0,0,0
1691765279661528,1501,1500,1263,1500,1000,0,0,0
1691765279664043,1499,1496,1262,1500,1000,0,0,0
1691765279668444,1504,1491,1260,1499,1000,0,0,0
1691765279672172,1508,1491,1256,1499,1000,0,0,0
1691765279675578,1503,1499,1256,1500,1000,0,0,0
1691765279678645,1501,1500,1258,1500,1000,0,0,0
1691765279682373,1495,1490,1272,1500,1000,0,0,0
1691765279686534,1504,1494,1258,1500,1000,0,0,0
1691765279690449,1507,1494,1255,1500,1000,0,0,0
1691765279693110,1506,1495,1255,1500,1000,0,0,0
1691765279697010,1507,1497,1255,1500,1000,0,0,0
1691765279700535,1505,1499,1256,1500,1000,0,0,0
1691765279704897,1501,1502,1261,1500,1000,0,0,0
1691765279711738,1503,1500,1261,1500,1000,0,0,0
1691765279714357,1503,1493,1260,1500,1000,0,0,0
1691765279715158,1502,1495,1255,1500,1000,0,0,0
1691765279718902,1502,1497,1256,1500,1000,0,0,0
1691765279722587,1497,1490,1267,1500,1000,0,0,0
1691765279726633,1500,1497,1262,1500,1000,0,0,0
1691765279730501,1500,1498,1258,1500,1000,0,0,0
1691765279733172,1503,1497,1257,1500,1000,0,0,0
1691765279737029,1505,1496,1256,1500,1000,0,0,0
1691765279741334,1513,1486,1236,1499,1000,0,0,0
1691765279744922,1514,1491,1242,1499,1000,0,0,0
1691765279748543,1498,1506,1272,1500,1000,0,0,0
1691765279752349,1494,1504,1276,1500,1000,0,0,0
1691765279755011,1493,1508,1266,1500,1000,0,0,0
1691765279758944,1494,1504,1260,1500,1000,0,0,0
1691765279762492,1499,1502,1256,1500,1000,0,0,0
1691765279766558,1500,1502,1255,1499,1000,0,0,0
1691765279769658,1499,1504,1256,1499,1000,0,0,0
1691765279773428,1494,1495,1266,1499,1000,0,0,0
1691765279779776,1495,1494,1266,1499,1000,0,0,0
1691765279781255,1495,1495,1260,1499,1000,0,0,0
1691765279784363,1497,1495,1261,1499,1000,0,0,0
1691765279787666,1499,1496,1259,1499,1000,0,0,0
1691765279791660,1500,1499,1258,1499,1000,0,0,0
1691765279795641,1497,1503,1259,1499,1000,0,0,0
1691765279799636,1495,1501,1259,1499,1000,0,0,0
1691765279802338,1494,1498,1268,1499,1000,0,0,0
1691765279806554,1496,1504,1262,1499,1000,0,0,0
1691765279809869,1497,1502,1257,1499,1000,0,0,0
1691765279814049,1499,1497,1258,1499,1000,0,0,0
1691765279818357,1499,1500,1255,1499,1000,0,0,0
1691765279825220,1492,1500,1262,1499,1000,0,0,0
1691765279825469,1486,1492,1271,1499,1000,0,0,0
1691765279827875,1498,1498,1258,1499,1000,0,0,0
1691765279831400,1500,1499,1258,1499,1000,0,0,0
1691765279835664,1501,1504,1256,1499,1000,0,0,0
1691765279839571,1497,1505,1257,1499,1000,0,0,0
1691765279842351,1491,1495,1269,1499,1000,0,0,0
1691765279846359,1494,1506,1261,1499,1000,0,0,0
1691765279849681,1496,1507,1258,1499,1000,0,0,0
1691765279853350,1497,1497,1259,1499,1000,0,0,0
1691765279856983,1499,1498,1257,1499,1000,0,0,0
1691765279860700,1507,1512,1245,1499,1000,0,0,0
1691765279864673,1495,1501,1265,1499,1000,0,0,0
1691765279868734,1492,1498,1266,1499,1000,0,0,0
1691765279871420,1493,1496,1260,1499,1000,0,0,0
1691765279875969,1496,1497,1260,1499,1000,0,0,0
1691765279878896,1497,1499,1257,1499,1000,0,0,0
1691765279882754,1497,1503,1259,1499,1000,0,0,0
1691765279886930,1496,1504,1258,1499,1000,0,0,0
1691765279890423,1493,1502,1265,1499,1000,0,0,0
1691765279893403,1494,1499,1263,1499,1000,0,0,0
1691765279896989,1497,1503,1258,1499,1000,0,0,0
1691765279900988,1497,1500,1256,1499,1000,0,0,0
1691765279904631,1508,1510,1246,1499,1000,0,0,0
1691765279908670,1496,1500,1265,1499,1000,0,0,0
1691765279911553,1493,1500,1266,1499,1000,0,0,0
1691765279915724,1493,1500,1261,1499,1000,0,0,0
1691765279919814,1497,1497,1257,1499,1000,0,0,0
1691765279922203,1499,1502,1256,1499,1000,0,0,0
1691765279926633,1505,1516,1248,1499,1000,0,0,0
1691765279931528,1493,1503,1267,1499,1000,0,0,0
1691765279933663,1493,1498,1266,1499,1000,0,0,0
1691765279937710,1495,1498,1261,1499,1000,0,0,0
1691765279940515,1499,1503,1257,1499,1000,0,0,0
1691765279944938,1501,1502,1256,1499,1000,0,0,0
1691765279949115,1499,1502,1259,1499,1000,0,0,0
1691765279951633,1507,1510,1250,1499,1000,0,0,0
1691765279955086,1496,1500,1267,1499,1000,0,0,0
1691765279958982,1494,1498,1265,1499,1000,0,0,0
1691765279962897,1494,1501,1263,1499,1000,0,0,0
1691765279966947,1496,1498,1258,1499,1000,0,0,0
1691765279970620,1498,1501,1256,1499,1000,0,0,0
1691765279973159,1508,1513,1247,1499,1000,0,0,0
1691765279977096,1496,1502,1266,1499,1000,0,0,0
1691765279980887,1494,1500,1266,1499,1000,0,0,0
1691765279985016,1495,1499,1264,1499,1000,0,0,0
1691765279987865,1495,1500,1261,1499,1000,0,0,0
1691765279991736,1498,1499,1260,1499,1000,0,0,0
1691765279996017,1500,1502,1258,1499,1000,0,0,0
1691765279999511,1511,1511,1248,1500,1000,0,0,0
1691765280002335,1499,1506,1267,1499,1000,0,0,0
1691765280006025,1497,1503,1268,1499,1000,0,0,0
1691765280009986,1494,1497,1264,1499,1000,0,0,0
1691765280013772,1496,1494,1262,1499,1000,0,0,0
1691765280017786,1500,1496,1260,1499,1000,0,0,0
1691765280020541,1501,1501,1255,1499,1000,0,0,0
1691765280023964,1499,1499,1264,1499,1000,0,0,0
1691765280027771,1497,1501,1265,1499,1000,0,0,0
1691765280031293,1496,1501,1260,1499,1000,0,0,0
1691765280035107,1499,1499,1259,1499,1000,0,0,0
1691765280038745,1502,1499,1260,1499,1000,0,0,0
1691765280042788,1502,1503,1261,1499,1000,0,0,0
1691765280046132,1511,1513,1248,1500,1000,0,0,0
1691765280049819,1506,1512,1255,1500,1000,0,0,0
1691765280055129,1495,1499,1272,1499,1000,0,0,0
1691765280057811,1496,1497,1267,1499,1000,0,0,0
1691765280060596,1500,1499,1259,1499,1000,0,0,0
1691765280064117,1507,1505,1250,1499,1000,0,0,0
1691765280068024,1496,1498,1269,1499,1000,0,0,0
1691765280071851,1503,1500,1257,1499,1000,0,0,0
1691765280075850,1497,1494,1263,1499,1000,0,0,0
1691765280079805,1496,1495,1263,1499,1000,0,0,0
1691765280082198,1505,1508,1252,1499,1000,0,0,0
1691765280086096,1505,1507,1254,1499,1000,0,0,0
1691765280090980,1504,1504,1259,1499,1000,0,0,0
1691765280093268,1492,1496,1272,1499,1000,0,0,0
1691765280099575,1489,1494,1269,1499,1000,0,0,0
1691765280100948,1495,1488,1261,1499,1000,0,0,0
1691765280104946,1497,1492,1261,1499,1000,0,0,0
1691765280108588,1500,1496,1261,1499,1000,0,0,0
1691765280111510,1509,1506,1250,1500,1000,0,0,0
1691765280115073,1508,1510,1252,1499,1000,0,0,0
1691765280118959,1497,1497,1266,1499,1000,0,0,0
1691765280123374,1494,1493,1273,1499,1000,0,0,0
1691765280128008,1491,1493,1266,1499,1000,0,0,0
1691765280129693,1496,1492,1261,1499,1000,0,0,0
1691765280136280,1507,1505,1249,1499,1000,0,0,0
1691765280137089,1506,1505,1254,1499,1000,0,0,0
1691765280140991,1493,1494,1268,1499,1000,0,0,0
1691765280144961,1493,1492,1269,1499,1000,0,0,0
1691765280151138,1493,1494,1264,1499,1000,0,0,0
1691765280151938,1498,1491,1259,1499,1000,0,0,0
1691765280155972,1500,1495,1258,1499,1000,0,0,0
1691765280158791,1510,1509,1248,1499,1000,0,0,0
1691765280162954,1500,1499,1266,1499,1000,0,0,0
1691765280167053,1496,1499,1266,1499,1000,0,0,0
1691765280169627,1494,1495,1263,1499,1000,0,0,0
1691765280173166,1499,1490,1261,1499,1000,0,0,0
1691765280177006,1501,1494,1257,1499,1000,0,0,0
1691765280180914,1510,1507,1246,1499,1000,0,0,0
1691765280185036,1498,1497,1267,1499,1000,0,0,0
1691765280188913,1496,1494,1268,1499,1000,0,0,0
1691765280191309,1506,1500,1252,1499,1000,0,0,0
1691765280195111,1496,1494,1264,1499,1000,0,0,0
1691765280199087,1498,1494,1262,1499,1000,0,0,0
1691765280202949,1509,1505,1251,1499,1000,0,0,0
1691765280205859,1505,1507,1255,1499,1000,0,0,0
1691765280209417,1494,1496,1270,1499,1000,0,0,0
1691765280213159,1492,1494,1269,1499,1000,0,0,0
1691765280217914,1495,1492,1264,1499,1000,0,0,0
1691765280220792,1500,1498,1255,1499,1000,0,0,0
1691765280224977,1511,1512,1245,1499,1000,0,0,0
1691765280227802,1498,1495,1268,1499,1000,0,0,0
1691765280231345,1494,1492,1268,1499,1000,0,0,0
1691765280235035,1493,1494,1264,1499,1000,0,0,0
1691765280239748,1508,1500,1252,1499,1000,0,0,0
1691765280242403,1503,1485,1207,1499,1000,0,0,0
1691765280247060,1513,1497,1189,1499,1000,0,0,0
1691765280250016,1508,1501,1194,1499,1000,0,0,0
1691765280254336,1494,1488,1208,1499,1000,0,0,0
1691765280256959,1492,1482,1205,1499,1000,0,0,0
1691765280260624,1492,1482,1200,1499,1000,0,0,0
1691765280264245,1496,1484,1200,1499,1000,0,0,0
1691765280268124,1496,1486,1199,1499,1000,0,0,0
1691765280272212,1497,1489,1200,1499,1000,0,0,0
1691765280274983,1502,1493,1200,1499,1000,0,0,0
1691765280278697,1518,1504,1188,1499,1000,0,0,0
1691765280282264,1505,1490,1207,1499,1000,0,0,0
1691765280286133,1497,1490,1212,1499,1000,0,0,0
1691765280289772,1500,1492,1210,1499,1000,0,0,0
1691765280293251,1512,1502,1199,1499,1000,0,0,0
1691765280296967,1508,1502,1205,1499,1000,0,0,0
1691765280300994,1506,1506,1209,1499,1000,0,0,0
1691765280304403,1505,1498,1214,1499,1000,0,0,0
1691765280307697,1496,1490,1222,1499,1000,0,0,0
1691765280311448,1500,1494,1222,1499,1000,0,0,0
1691765280315069,1492,1494,1227,1499,1000,0,0,0
1691765280319320,1493,1493,1229,1499,1000,0,0,0
1691765280324046,1502,1501,1222,1499,1000,0,0,0
1691765280327087,1505,1503,1224,1499,1000,0,0,0
1691765280329597,1497,1496,1232,1499,1000,0,0,0
1691765280333056,1494,1497,1236,1499,1000,0,0,0
1691765280337218,1495,1497,1236,1499,1000,0,0,0
1691765280341364,1501,1503,1231,1499,1000,0,0,0
1691765280345108,1498,1502,1237,1499,1000,0,0,0
1691765280349237,1495,1500,1240,1499,1000,0,0,0
1691765280351417,1499,1503,1238,1499,1000,0,0,0
1691765280355476,1495,1502,1242,1499,1000,0,0,0
1691765280359317,1494,1502,1244,1499,1000,0,0,0
1691765280363099,1495,1503,1245,1499,1000,0,0,0
1691765280366970,1495,1503,1246,1499,1000,0,0,0
1691765280369590,1495,1503,1247,1499,1000,0,0,0
1691765280373172,1495,1503,1247,1499,1000,0,0,0
1691765280377229,1495,1505,1248,1499,1000,0,0,0
1691765280380419,1496,1505,1248,1499,1000,0,0,0
1691765280384276,1499,1506,1247,1499,1000,0,0,0
1691765280388199,1497,1507,1249,1499,1000,0,0,0
1691765280392311,1497,1507,1249,1499,1000,0,0,0
1691765280395929,1497,1507,1250,1499,1000,0,0,0
1691765280398536,1498,1507,1250,1499,1000,0,0,0
1691765280402234,1499,1509,1249,1499,1000,0,0,0
1691765280405927,1499,1509,1249,1499,1000,0,0,0
1691765280410256,1499,1509,1250,1499,1000,0,0,0
1691765280414061,1497,1506,1252,1498,1000,0,0,0
1691765280416971,1495,1501,1255,1498,1000,0,0,0
1691765280420461,1495,1501,1256,1498,1000,0,0,0
1691765280424903,1498,1506,1253,1499,1000,0,0,0
1691765280427765,1496,1503,1255,1499,1000,0,0,0
1691765280431413,1497,1503,1256,1499,1000,0,0,0
1691765280435312,1498,1507,1254,1499,1000,0,0,0
1691765280439183,1499,1508,1253,1499,1000,0,0,0
1691765280443192,1499,1507,1254,1499,1000,0,0,0
1691765280446086,1499,1507,1256,1499,1000,0,0,0
1691765280450170,1494,1502,1262,1499,1000,0,0,0
1691765280453104,1492,1501,1263,1499,1000,0,0,0
1691765280457615,1494,1502,1262,1499,1000,0,0,0
1691765280461252,1496,1502,1260,1499,1000,0,0,0
1691765280464916,1497,1503,1259,1499,1000,0,0,0
1691765280468383,1499,1507,1256,1499,1000,0,0,0
1691765280472155,1500,1508,1256,1499,1000,0,0,0
1691765280476007,1499,1508,1256,1499,1000,0,0,0
1691765280478758,1495,1502,1262,1499,1000,0,0,0
1691765280482207,1495,1502,1263,1499,1000,0,0,0
1691765280486318,1497,1503,1261,1499,1000,0,0,0
1691765280490265,1498,1504,1260,1499,1000,0,0,0
1691765280493156,1500,1506,1257,1499,1000,0,0,0
1691765280497228,1500,1506,1257,1499,1000,0,0,0
1691765280501300,1497,1501,1262,1499,1000,0,0,0
1691765280504965,1496,1502,1262,1499,1000,0,0,0
1691765280507640,1497,1501,1261,1499,1000,0,0,0
1691765280511425,1498,1502,1259,1500,1000,0,0,0
1691765280515316,1500,1506,1256,1500,1000,0,0,0
1691765280519303,1500,1505,1256,1500,1000,0,0,0
1691765280523254,1497,1501,1260,1500,1000,0,0,0
1691765280526067,1497,1501,1260,1500,1000,0,0,0
1691765280530392,1498,1500,1260,1500,1000,0,0,0
1691765280533325,1499,1501,1259,1500,1000,0,0,0
1691765280537345,1501,1504,1256,1500,1000,0,0,0
1691765280541243,1502,1506,1255,1500,1000,0,0,0
1691765280545170,1499,1503,1259,1500,1000,0,0,0
1691765280547628,1498,1499,1261,1500,1000,0,0,0
1691765280551311,1499,1499,1260,1500,1000,0,0,0
1691765280555275,1499,1499,1259,1500,1000,0,0,0
1691765280559716,1501,1502,1256,1500,1000,0,0,0
1691765280562273,1502,1503,1255,1500,1000,0,0,0
1691765280565950,1499,1499,1259,1500,1000,0,0,0
1691765280569527,1498,1499,1260,1500,1000,0,0,0
1691765280573101,1499,1499,1259,1500,1000,0,0,0
1691765280577032,1500,1499,1258,1500,1000,0,0,0
1691765280580518,1502,1502,1256,1500,1000,0,0,0
1691765280584774,1502,1502,1255,1500,1000,0,0,0
1691765280588654,1500,1498,1258,1500,1000,0,0,0
1691765280592810,1500,1500,1257,1500,1000,0,0,0
1691765280597013,1502,1502,1256,1500,1000,0,0,0
1691765280598546,1502,1500,1257,1500,1000,0,0,0
1691765280602327,1501,1498,1257,1500,1000,0,0,0
1691765280606331,1502,1501,1256,1500,1000,0,0,0
1691765280610457,1500,1496,1259,1500,1000,0,0,0
1691765280614171,1499,1496,1259,1500,1000,0,0,0
1691765280617556,1500,1496,1259,1500,1000,0,0,0
1691765280621477,1501,1497,1257,1500,1000,0,0,0
1691765280624018,1502,1500,1255,1500,1000,0,0,0
1691765280628405,1503,1501,1254,1500,1000,0,0,0
1691765280632289,1502,1501,1254,1500,1000,0,0,0
1691765280635349,1500,1496,1257,1500,1000,0,0,0
1691765280638641,1499,1496,1257,1500,1000,0,0,0
1691765280643566,1502,1498,1255,1500,1000,0,0,0
1691765280646460,1502,1497,1255,1500,1000,0,0,0
1691765280650207,1503,1500,1254,1500,1000,0,0,0
1691765280653086,1502,1500,1254,1500,1000,0,0,0
1691765280656873,1503,1499,1254,1500,1000,0,0,0
1691765280660763,1500,1494,1258,1500,1000,0,0,0
1691765280664084,1499,1493,1258,1500,1000,0,0,0
1691765280668387,1501,1492,1257,1500,1000,0,0,0
1691765280671438,1501,1494,1256,1500,1000,0,0,0
1691765280675327,1502,1497,1254,1500,1000,0,0,0
1691765280679448,1503,1498,1254,1500,1000,0,0,0
1691765280683102,1503,1498,1254,1500,1000,0,0,0
1691765280685945,1501,1493,1256,1500,1000,0,0,0
1691765280689897,1499,1493,1256,1500,1000,0,0,0
1691765280693286,1502,1496,1254,1500,1000,0,0,0
1691765280697324,1501,1493,1256,1499,1000,0,0,0
1691765280701444,1503,1497,1254,1500,1000,0,0,0
1691765280704166,1502,1498,1254,1500,1000,0,0,0
1691765280707694,1503,1499,1253,1500,1000,0,0,0
1691765280711432,1501,1495,1256,1499,1000,0,0,0
1691765280715444,1499,1493,1257,1499,1000,0,0,0
1691765280718600,1499,1493,1257,1499,1000,0,0,0
1691765280722324,1500,1492,1257,1499,1000,0,0,0
1691765280726459,1501,1493,1256,1499,1000,0,0,0
1691765280730341,1503,1497,1254,1499,1000,0,0,0
1691765280733128,1502,1498,1254,1500,1000,0,0,0
1691765280737346,1501,1493,1256,1499,1000,0,0,0
1691765280741357,1500,1492,1257,1499,1000,0,0,0
1691765280744026,1499,1494,1256,1499,1000,0,0,0
1691765280747704,1500,1494,1256,1499,1000,0,0,0
1691765280751648,1501,1493,1256,1499,1000,0,0,0
1691765280755430,1501,1495,1255,1499,1000,0,0,0
1691765280759442,1502,1499,1254,1499,1000,0,0,0
1691765280762538,1502,1500,1254,1499,1000,0,0,0
1691765280765785,1500,1494,1257,1499,1000,0,0,0
1691765280769646,1500,1497,1256,1499,1000,0,0,0
1691765280773011,1500,1498,1256,1499,1000,0,0,0
1691765280777400,1501,1497,1256,1499,1000,0,0,0
1691765280780360,1501,1495,1256,1499,1000,0,0,0
1691765280784503,1501,1496,1256,1499,1000,0,0,0
1691765280788387,1503,1499,1254,1499,1000,0,0,0
1691765280792273,1503,1500,1254,1499,1000,0,0,0
1691765280795097,1500,1496,1257,1499,1000,0,0,0
1691765280798539,1499,1495,1257,1499,1000,0,0,0
1691765280802526,1499,1495,1258,1499,1000,0,0,0
1691765280806393,1500,1496,1257,1499,1000,0,0,0
1691765280810490,1500,1497,1257,1499,1000,0,0,0
1691765280813515,1502,1500,1255,1499,1000,0,0,0
1691765280817890,1502,1502,1255,1499,1000,0,0,0
1691765280820606,1501,1502,1255,1499,1000,0,0,0
1691765280824422,1499,1496,1259,1499,1000,0,0,0
1691765280828519,1499,1496,1259,1499,1000,0,0,0
1691765280832190,1498,1499,1258,1499,1000,0,0,0
1691765280835451,1499,1500,1257,1499,1000,0,0,0
1691765280838900,1500,1500,1256,1499,1000,0,0,0
1691765280842557,1502,1501,1256,1499,1000,0,0,0
1691765280847531,1501,1502,1255,1499,1000,0,0,0
1691765280852204,1501,1502,1256,1499,1000,0,0,0
1691765280853215,1499,1496,1259,1499,1000,0,0,0
1691765280856638,1497,1497,1260,1499,1000,0,0,0
1691765280860612,1498,1497,1260,1499,1000,0,0,0
1691765280866114,1499,1497,1259,1499,1000,0,0,0
1691765280868534,1501,1502,1257,1499,1000,0,0,0
1691765280872207,1500,1503,1256,1499,1000,0,0,0
1691765280875010,1500,1504,1256,1499,1000,0,0,0
1691765280878958,1497,1498,1260,1499,1000,0,0,0
1691765280882618,1497,1500,1259,1499,1000,0,0,0
1691765280886500,1498,1501,1258,1499,1000,0,0,0
1691765280889393,1499,1497,1259,1499,1000,0,0,0
1691765280893697,1499,1499,1258,1499,1000,0,0,0
1691765280897436,1499,1503,1256,1499,1000,0,0,0
1691765280901373,1499,1504,1255,1499,1000,0,0,0
1691765280904104,1498,1500,1258,1499,1000,0,0,0
1691765280907612,1497,1500,1258,1499,1000,0,0,0
1691765280911537,1499,1503,1256,1499,1000,0,0,0
1691765280915496,1498,1500,1257,1499,1000,0,0,0
1691765280920539,1500,1504,1255,1499,1000,0,0,0
1691765280922277,1500,1505,1255,1499,1000,0,0,0
1691765280926927,1497,1501,1257,1499,1000,0,0,0
1691765280930345,1497,1500,1258,1499,1000,0,0,0
1691765280933559,1497,1500,1257,1499,1000,0,0,0
1691765280937651,1497,1501,1256,1499,1000,0,0,0
1691765280941416,1499,1503,1255,1499,1000,0,0,0
1691765280944099,1500,1504,1254,1499,1000,0,0,0
1691765280947658,1498,1501,1256,1499,1000,0,0,0
1691765280951508,1497,1501,1256,1499,1000,0,0,0
1691765280955633,1497,1501,1256,1499,1000,0,0,0
1691765280960635,1498,1502,1255,1499,1000,0,0,0
1691765280962739,1498,1503,1255,1499,1000,0,0,0
1691765280967152,1500,1504,1253,1499,1000,0,0,0
1691765280969661,1500,1504,1253,1499,1000,0,0,0
1691765280973055,1498,1501,1255,1499,1000,0,0,0
1691765280977028,1497,1501,1255,1499,1000,0,0,0
1691765280980656,1497,1501,1255,1499,1000,0,0,0
1691765280985022,1497,1501,1255,1499,1000,0,0,0
1691765280987831,1498,1501,1255,1499,1000,0,0,0
1691765280991653,1498,1502,1254,1499,1000,0,0,0
1691765280995781,1501,1504,1253,1499,1000,0,0,0
1691765280998530,1501,1504,1253,1499,1000,0,0,0
1691765281002765,1498,1502,1254,1499,1000,0,0,0
1691765281007166,1497,1501,1255,1499,1000,0,0,0
1691765281010396,1497,1501,1255,1499,1000,0,0,0
1691765281013167,1498,1501,1255,1499,1000,0,0,0
1691765281016991,1498,1501,1254,1499,1000,0,0,0
1691765281020828,1502,1505,1253,1499,1000,0,0,0
1691765281024587,1501,1505,1253,1499,1000,0,0,0
1691765281028766,1501,1505,1253,1499,1000,0,0,0
1691765281031253,1499,1503,1254,1499,1000,0,0,0
1691765281035826,1498,1500,1255,1499,1000,0,0,0
1691765281038728,1498,1500,1256,1499,1000,0,0,0
1691765281042661,1500,1502,1254,1499,1000,0,0,0
1691765281047044,1499,1500,1255,1499,1000,0,0,0
1691765281050428,1499,1501,1255,1499,1000,0,0,0
1691765281053253,1500,1503,1254,1499,1000,0,0,0
1691765281056968,1500,1503,1254,1499,1000,0,0,0
1691765281060955,1500,1503,1254,1499,1000,0,0,0
1691765281064638,1498,1500,1256,1499,1000,0,0,0
1691765281068279,1498,1499,1257,1499,1000,0,0,0
1691765281071765,1500,1502,1255,1499,1000,0,0,0
1691765281076305,1499,1500,1256,1499,1000,0,0,0
1691765281078656,1500,1502,1255,1499,1000,0,0,0
1691765281082913,1500,1503,1255,1499,1000,0,0,0
1691765281087027,1500,1503,1255,1499,1000,0,0,0
1691765281089522,1499,1499,1257,1499,1000,0,0,0
1691765281093314,1498,1499,1258,1499,1000,0,0,0
1691765281096833,1498,1501,1257,1499,1000,0,0,0
1691765281100983,1499,1500,1257,1499,1000,0,0,0
1691765281104768,1500,1499,1257,1499,1000,0,0,0
1691765281107757,1501,1502,1255,1499,1000,0,0,0
1691765281111805,1501,1502,1255,1499,1000,0,0,0
1691765281115765,1501,1502,1255,1499,1000,0,0,0
1691765281119571,1499,1498,1258,1499,1000,0,0,0
1691765281122197,1498,1499,1258,1499,1000,0,0,0
1691765281126160,1501,1500,1256,1499,1000,0,0,0
1691765281129928,1500,1498,1257,1499,1000,0,0,0
1691765281133694,1501,1501,1255,1499,1000,0,0,0
1691765281137975,1501,1502,1255,1499,1000,0,0,0
1691765281140476,1499,1498,1258,1499,1000,0,0,0
1691765281144177,1499,1498,1258,1499,1000,0,0,0
1691765281148053,1499,1500,1257,1499,1000,0,0,0
1691765281151788,1500,1500,1257,1499,1000,0,0,0
1691765281155820,1501,1500,1256,1499,1000,0,0,0
1691765281159658,1502,1501,1255,1499,1000,0,0,0
1691765281162251,1501,1502,1255,1499,1000,0,0,0
1691765281165790,1500,1497,1257,1499,1000,0,0,0
1691765281170105,1499,1497,1257,1499,1000,0,0,0
1691765281173694,1499,1498,1257,1499,1000,0,0,0
1691765281177038,1500,1497,1257,1499,1000,0,0,0
1691765281180344,1501,1497,1257,1499,1000,0,0,0
1691765281184177,1502,1500,1255,1499,1000,0,0,0
1691765281187751,1501,1501,1255,1499,1000,0,0,0
1691765281191351,1500,1498,1257,1499,1000,0,0,0
1691765281195267,1500,1497,1257,1499,1000,0,0,0
1691765281198636,1499,1499,1256,1499,1000,0,0,0
1691765281202219,1500,1499,1256,1499,1000,0,0,0
1691765281205778,1501,1500,1255,1499,1000,0,0,0
1691765281209669,1503,1501,1254,1499,1000,0,0,0
1691765281213783,1502,1501,1254,1499,1000,0,0,0
1691765281217014,1500,1497,1256,1499,1000,0,0,0
1691765281220948,1500,1497,1256,1499,1000,0,0,0
1691765281224748,1500,1497,1256,1499,1000,0,0,0
1691765281228602,1501,1497,1256,1499,1000,0,0,0
1691765281231308,1503,1499,1254,1499,1000,0,0,0
1691765281235059,1503,1500,1254,1499,1000,0,0,0
1691765281238898,1500,1497,1255,1499,1000,0,0,0
1691765281243359,1500,1497,1256,1499,1000,0,0,0
1691765281247042,1499,1497,1256,1499,1000,0,0,0
1691765281249450,1500,1496,1256,1499,1000,0,0,0
1691765281253123,1500,1496,1255,1499,1000,0,0,0
1691765281256993,1501,1497,1255,1499,1000,0,0,0
1691765281260965,1505,1501,1253,1499,1000,0,0,0
1691765281264929,1504,1501,1253,1499,1000,0,0,0
1691765281268691,1501,1499,1255,1499,1000,0,0,0
1691765281271517,1500,1496,1256,1499,1000,0,0,0
1691765281274998,1500,1496,1256,1499,1000,0,0,0
1691765281278979,1500,1496,1256,1499,1000,0,0,0
1691765281282965,1501,1496,1255,1499,1000,0,0,0
1691765281287071,1503,1499,1254,1499,1000,0,0,0
1691765281290013,1501,1500,1254,1499,1000,0,0,0
1691765281293237,1500,1497,1256,1499,1000,0,0,0
1691765281296966,1500,1496,1256,1499,1000,0,0,0
1691765281301095,1499,1497,1256,1499,1000,0,0,0
1691765281304964,1500,1497,1256,1499,1000,0,0,0
1691765281307993,1500,1497,1256,1499,1000,0,0,0
1691765281312394,1502,1499,1255,1499,1000,0,0,0
1691765281315908,1502,1501,1254,1499,1000,0,0,0
1691765281318724,1501,1500,1255,1499,1000,0,0,0
1691765281323674,1499,1497,1257,1499,1000,0,0,0
1691765281326102,1499,1498,1256,1499,1000,0,0,0
1691765281329981,1499,1498,1256,1499,1000,0,0,0
1691765281335039,1502,1499,1255,1499,1000,0,0,0
1691765281337094,1502,1500,1255,1499,1000,0,0,0
1691765281340956,1500,1500,1255,1499,1000,0,0,0
1691765281345689,1499,1495,1258,1499,1000,0,0,0
1691765281347497,1498,1496,1258,1499,1000,0,0,0
1691765281351546,1498,1496,1258,1499,1000,0,0,0
1691765281355174,1499,1497,1257,1499,1000,0,0,0
1691765281359049,1501,1500,1256,1499,1000,0,0,0
1691765281363025,1501,1501,1255,1499,1000,0,0,0
1691765281367015,1498,1498,1257,1499,1000,0,0,0
1691765281369805,1498,1497,1257,1499,1000,0,0,0
1691765281374280,1498,1497,1257,1499,1000,0,0,0
1691765281377735,1499,1499,1256,1499,1000,0,0,0
1691765281380983,1499,1500,1256,1499,1000,0,0,0
1691765281384042,1501,1501,1255,1499,1000,0,0,0
1691765281388161,1501,1500,1255,1499,1000,0,0,0
1691765281391977,1499,1498,1257,1499,1000,0,0,0
1691765281395037,1498,1498,1257,1499,1000,0,0,0
1691765281398963,1499,1496,1257,1499,1000,0,0,0
1691765281403106,1499,1498,1257,1499,1000,0,0,0
1691765281406898,1500,1501,1255,1499,1000,0,0,0
1691765281410072,1501,1502,1255,1499,1000,0,0,0
1691765281419813,1499,1499,1257,1499,1000,0,0,0
1691765281420024,1498,1499,1257,1499,1000,0,0,0
1691765281420978,1498,1498,1257,1499,1000,0,0,0
1691765281425167,1499,1498,1256,1499,1000,0,0,0
1691765281427684,1499,1500,1256,1499,1000,0,0,0
1691765281431409,1502,1503,1254,1499,1000,0,0,0
1691765281435120,1499,1500,1256,1499,1000,0,0,0
1691765281439085,1498,1499,1256,1499,1000,0,0,0
1691765281443172,1498,1499,1256,1499,1000,0,0,0
1691765281445870,1498,1500,1256,1499,1000,0,0,0
1691765281449732,1501,1502,1254,1499,1000,0,0,0
1691765281454118,1501,1502,1254,1499,1000,0,0,0
1691765281456863,1498,1500,1255,1499,1000,0,0,0
1691765281460525,1497,1501,1256,1499,1000,0,0,0
1691765281464074,1498,1500,1256,1499,1000,0,0,0
1691765281468175,1498,1500,1256,1499,1000,0,0,0
1691765281472082,1498,1501,1255,1499,1000,0,0,0
1691765281476179,1501,1502,1254,1499,1000,0,0,0
1691765281479605,1501,1503,1254,1499,1000,0,0,0
1691765281482292,1498,1502,1255,1499,1000,0,0,0
1691765281486154,1498,1502,1255,1499,1000,0,0,0
1691765281490145,1498,1499,1255,1499,1000,0,0,0
1691765281494115,1498,1499,1255,1499,1000,0,0,0
1691765281496909,1500,1501,1254,1499,1000,0,0,0
1691765281500701,1500,1502,1254,1499,1000,0,0,0
1691765281504212,1498,1499,1255,1499,1000,0,0,0
1691765281508144,1497,1500,1256,1499,1000,0,0,0
1691765281512151,1497,1499,1256,1499,1000,0,0,0
1691765281515909,1498,1498,1255,1499,1000,0,0,0
1691765281518666,1498,1500,1255,1499,1000,0,0,0
1691765281522202,1498,1501,1255,1499,1000,0,0,0
1691765281526224,1500,1503,1254,1499,1000,0,0,0
1691765281530110,1500,1502,1254,1499,1000,0,0,0
1691765281534151,1497,1501,1255,1499,1000,0,0,0
1691765281537075,1497,1500,1255,1499,1000,0,0,0
1691765281540503,1498,1501,1255,1499,1000,0,0,0
1691765281544164,1498,1502,1255,1499,1000,0,0,0
1691765281548204,1501,1504,1253,1499,1000,0,0,0
1691765281552151,1500,1503,1254,1499,1000,0,0,0
1691765281555908,1498,1500,1256,1499,1000,0,0,0
1691765281559001,1497,1500,1256,1499,1000,0,0,0
1691765281562425,1497,1499,1256,1499,1000,0,0,0
1691765281566226,1498,1499,1256,1499,1000,0,0,0
1691765281570276,1498,1500,1256,1499,1000,0,0,0
1691765281573001,1499,1502,1255,1499,1000,0,0,0
1691765281577563,1500,1502,1254,1499,1000,0,0,0
1691765281581227,1498,1500,1256,1499,1000,0,0,0
1691765281585027,1497,1499,1256,1499,1000,0,0,0
1691765281587632,1496,1500,1256,1499,1000,0,0,0
1691765281591159,1498,1499,1256,1499,1000,0,0,0
1691765281595351,1498,1500,1256,1499,1000,0,0,0
1691765281599975,1499,1502,1255,1499,1000,0,0,0
1691765281603440,1500,1502,1255,1499,1000,0,0,0
1691765281605983,1498,1501,1256,1499,1000,0,0,0
1691765281610333,1498,1501,1256,1499,1000,0,0,0
1691765281613364,1498,1502,1256,1499,1000,0,0,0
1691765281618478,1499,1499,1256,1499,1000,0,0,0
1691765281621490,1499,1499,1257,1499,1000,0,0,0
1691765281625055,1500,1502,1256,1499,1000,0,0,0
1691765281627831,1500,1502,1255,1499,1000,0,0,0
1691765281631334,1498,1499,1258,1499,1000,0,0,0
1691765281635131,1497,1499,1258,1499,1000,0,0,0
1691765281639384,1497,1499,1258,1499,1000,0,0,0
1691765281643451,1499,1498,1257,1499,1000,0,0,0
1691765281646018,1499,1499,1257,1499,1000,0,0,0
1691765281649572,1500,1501,1256,1499,1000,0,0,0
1691765281653317,1500,1502,1256,1499,1000,0,0,0
1691765281657336,1498,1499,1258,1499,1000,0,0,0
1691765281661456,1497,1499,1258,1499,1000,0,0,0
1691765281665121,1498,1499,1258,1499,1000,0,0,0
1691765281667954,1499,1498,1258,1499,1000,0,0,0
1691765281671488,1501,1501,1257,1499,1000,0,0,0
1691765281675607,1501,1503,1256,1499,1000,0,0,0
1691765281679744,1499,1501,1258,1499,1000,0,0,0
1691765281682264,1498,1500,1258,1499,1000,0,0,0
1691765281686332,1499,1498,1259,1499,1000,0,0,0
1691765281690288,1499,1498,1258,1499,1000,0,0,0
1691765281694244,1499,1498,1258,1499,1000,0,0,0
1691765281696988,1501,1501,1256,1499,1000,0,0,0
1691765281701022,1500,1502,1256,1499,1000,0,0,0
1691765281704345,1497,1499,1258,1499,1000,0,0,0
1691765281709092,1498,1498,1258,1499,1000,0,0,0
1691765281712382,1499,1497,1258,1499,1000,0,0,0
1691765281714970,1499,1499,1258,1499,1000,0,0,0
1691765281718737,1501,1501,1256,1499,1000,0,0,0
1691765281722232,1501,1501,1256,1499,1000,0,0,0
1691765281726544,1499,1501,1257,1499,1000,0,0,0
1691765281730410,1500,1500,1257,1499,1000,0,0,0
1691765281734254,1500,1497,1258,1499,1000,0,0,0
1691765281737058,1501,1500,1256,1499,1000,0,0,0
1691765281740525,1501,1501,1256,1499,1000,0,0,0
1691765281744564,1499,1497,1258,1499,1000,0,0,0
1691765281748344,1498,1497,1258,1499,1000,0,0,0
1691765281752424,1501,1499,1256,1499,1000,0,0,0
1691765281755178,1500,1498,1257,1499,1000,0,0,0
1691765281758784,1500,1498,1257,1499,1000,0,0,0
1691765281762773,1502,1500,1256,1499,1000,0,0,0
1691765281766365,1499,1498,1257,1499,1000,0,0,0
1691765281770345,1498,1498,1257,1499,1000,0,0,0
1691765281773303,1500,1497,1257,1499,1000,0,0,0
1691765281777498,1500,1498,1257,1499,1000,0,0,0
1691765281781622,1500,1500,1256,1499,1000,0,0,0
1691765281784098,1503,1502,1255,1499,1000,0,0,0
1691765281788330,1503,1501,1255,1499,1000,0,0,0
1691765281791375,1500,1498,1257,1499,1000,0,0,0
1691765281795944,1499,1498,1257,1499,1000,0,0,0
1691765281799438,1501,1497,1257,1499,1000,0,0,0
1691765281803289,1501,1497,1256,1499,1000,0,0,0
1691765281806003,1500,1499,1256,1499,1000,0,0,0
1691765281810497,1502,1500,1255,1499,1000,0,0,0
1691765281814509,1501,1497,1256,1499,1000,0,0,0
1691765281818021,1499,1498,1257,1499,1000,0,0,0
1691765281821505,1500,1498,1257,1499,1000,0,0,0
1691765281824174,1501,1497,1257,1499,1000,0,0,0
1691765281828439,1501,1497,1257,1499,1000,0,0,0
1691765281832226,1501,1498,1256,1499,1000,0,0,0
1691765281835569,1501,1499,1256,1499,1000,0,0,0
1691765281838808,1501,1497,1257,1499,1000,0,0,0
1691765281842521,1500,1499,1256,1499,1000,0,0,0
1691765281846444,1500,1500,1256,1499,1000,0,0,0
1691765281851011,1502,1498,1256,1499,1000,0,0,0
1691765281854004,1502,1499,1256,1499,1000,0,0,0
1691765281857369,1504,1501,1255,1499,1000,0,0,0
1691765281861477,1504,1501,1255,1499,1000,0,0,0
1691765281864485,1502,1497,1257,1499,1000,0,0,0
1691765281868345,1501,1498,1257,1499,1000,0,0,0
1691765281871574,1501,1497,1257,1499,1000,0,0,0
1691765281875678,1502,1497,1257,1499,1000,0,0,0
1691765281879553,1504,1500,1256,1499,1000,0,0,0
1691765281882318,1503,1501,1256,1499,1000,0,0,0
1691765281886070,1501,1498,1257,1499,1000,0,0,0
1691765281889635,1500,1498,1257,1499,1000,0,0,0
1691765281893481,1503,1499,1256,1499,1000,0,0,0
1691765281897508,1501,1498,1257,1499,1000,0,0,0
1691765281901371,1502,1500,1256,1499,1000,0,0,0
1691765281904616,1502,1500,1256,1499,1000,0,0,0
1691765281908559,1500,1499,1257,1499,1000,0,0,0
1691765281912310,1499,1499,1257,1499,1000,0,0,0
1691765281914914,1502,1499,1256,1499,1000,0,0,0
1691765281918793,1501,1497,1258,1499,1000,0,0,0
1691765281922619,1500,1498,1257,1499,1000,0,0,0
1691765281926611,1501,1500,1256,1499,1000,0,0,0
1691765281929515,1501,1500,1256,1499,1000,0,0,0
1691765281933133,1499,1498,1258,1499,1000,0,0,0
1691765281937055,1498,1498,1258,1499,1000,0,0,0
1691765281940600,1502,1499,1256,1499,1000,0,0,0
1691765281945906,1500,1498,1257,1499,1000,0,0,0
1691765281948522,1500,1500,1256,1499,1000,0,0,0
1691765281952419,1501,1501,1256,1499,1000,0,0,0
1691765281955536,1500,1501,1256,1499,1000,0,0,0
1691765281958746,1498,1497,1258,1499,1000,0,0,0
1691765281962602,1498,1499,1257,1499,1000,0,0,0
1691765281967573,1498,1499,1257,1499,1000,0,0,0
1691765281970681,1499,1498,1257,1499,1000,0,0,0
1691765281973121,1500,1500,1256,1499,1000,0,0,0
1691765281977105,1500,1501,1256,1499,1000,0,0,0
1691765281980654,1498,1497,1258,1499,1000,0,0,0
1691765281985340,1497,1498,1258,1499,1000,0,0,0
1691765281988701,1498,1498,1257,1499,1000,0,0,0
1691765281991347,1498,1497,1258,1499,1000,0,0,0
1691765281995663,1498,1498,1257,1499,1000,0,0,0
1691765281998591,1500,1501,1256,1499,1000,0,0,0
1691765282002645,1500,1501,1256,1499,1000,0,0,0
1691765282006622,1498,1498,1258,1499,1000,0,0,0
1691765282010094,1498,1498,1258,1499,1000,0,0,0
1691765282013069,1497,1499,1257,1499,1000,0,0,0
1691765282017149,1498,1498,1257,1499,1000,0,0,0
1691765282024677,1499,1500,1257,1499,1000,0,0,0
1691765282025902,1501,1503,1255,1499,1000,0,0,0
1691765282028648,1499,1501,1256,1499,1000,0,0,0
1691765282031479,1498,1499,1257,1499,1000,0,0,0
1691765282039555,1498,1500,1257,1499,1000,0,0,0
1691765282039736,1499,1499,1257,1499,1000,0,0,0
1691765282042347,1499,1499,1257,1499,1000,0,0,0
1691765282045855,1501,1501,1256,1499,1000,0,0,0
1691765282049617,1500,1502,1256,1499,1000,0,0,0
1691765282053853,1498,1499,1257,1499,1000,0,0,0
1691765282057836,1498,1499,1258,1499,1000,0,0,0
1691765282061531,1498,1499,1257,1499,1000,0,0,0
1691765282064132,1498,1500,1257,1499,1000,0,0,0
1691765282067820,1500,1502,1255,1499,1000,0,0,0
1691765282071618,1500,1502,1256,1499,1000,0,0,0
1691765282076458,1498,1501,1256,1499,1000,0,0,0
1691765282083834,1498,1501,1257,1499,1000,0,0,0
1691765282084032,1498,1499,1257,1499,1000,0,0,0
1691765282087134,1499,1499,1257,1499,1000,0,0,0
1691765282090418,1500,1502,1256,1499,1000,0,0,0
1691765282097111,1500,1502,1255,1499,1000,0,0,0
1691765282097608,1498,1500,1257,1499,1000,0,0,0
1691765282100837,1498,1500,1257,1499,1000,0,0,0
1691765282104792,1498,1499,1257,1499,1000,0,0,0
1691765282109026,1499,1499,1257,1499,1000,0,0,0
1691765282111483,1499,1500,1256,1499,1000,0,0,0
1691765282115048,1500,1502,1255,1499,1000,0,0,0
1691765282119243,1498,1500,1256,1499,1000,0,0,0
1691765282123482,1498,1500,1257,1499,1000,0,0,0
1691765282127110,1498,1500,1257,1499,1000,0,0,0
1691765282130475,1498,1501,1256,1499,1000,0,0,0
1691765282133307,1499,1501,1256,1499,1000,0,0,0
1691765282137037,1501,1502,1255,1499,1000,0,0,0
1691765282140759,1501,1503,1254,1499,1000,0,0,0
1691765282144747,1498,1500,1256,1499,1000,0,0,0
1691765282151257,1498,1499,1257,1499,1000,0,0,0
1691765282151578,1498,1499,1256,1499,1000,0,0,0
1691765282155006,1498,1500,1256,1499,1000,0,0,0
1691765282158851,1501,1502,1255,1499,1000,0,0,0
1691765282162764,1501,1502,1255,1499,1000,0,0,0
1691765282167082,1498,1500,1256,1499,1000,0,0,0
1691765282170521,1498,1500,1256,1499,1000,0,0,0
1691765282173205,1498,1500,1256,1499,1000,0,0,0
1691765282177077,1498,1499,1256,1499,1000,0,0,0
1691765282180810,1498,1501,1256,1499,1000,0,0,0
1691765282185056,1502,1504,1253,1499,1000,0,0,0
1691765282188981,1502,1503,1254,1499,1000,0,0,0
1691765282191398,1498,1501,1256,1499,1000,0,0,0
1691765282195178,1498,1500,1256,1499,1000,0,0,0
1691765282198954,1499,1499,1256,1499,1000,0,0,0
1691765282202675,1499,1499,1256,1499,1000,0,0,0
1691765282205810,1499,1500,1256,1499,1000,0,0,0
1691765282209940,1501,1501,1255,1499,1000,0,0,0
1691765282213754,1499,1499,1256,1499,1000,0,0,0
1691765282217841,1498,1499,1256,1499,1000,0,0,0
1691765282220532,1498,1499,1256,1499,1000,0,0,0
1691765282224084,1498,1498,1256,1499,1000,0,0,0
1691765282228076,1498,1498,1256,1499,1000,0,0,0
1691765282231771,1498,1500,1256,1499,1000,0,0,0
1691765282235943,1500,1501,1254,1499,1000,0,0,0
1691765282239748,1500,1501,1255,1499,1000,0,0,0
1691765282242524,1498,1500,1256,1499,1000,0,0,0
1691765282246133,1498,1501,1256,1499,1000,0,0,0
1691765282249850,1501,1501,1255,1499,1000,0,0,0
1691765282253906,1499,1501,1256,1499,1000,0,0,0
1691765282257812,1499,1500,1256,1499,1000,0,0,0
1691765282260474,1501,1501,1255,1499,1000,0,0,0
1691765282264281,1499,1498,1256,1499,1000,0,0,0
1691765282268287,1498,1499,1256,1499,1000,0,0,0
1691765282271938,1498,1499,1256,1499,1000,0,0,0
1691765282275894,1499,1498,1256,1499,1000,0,0,0
1691765282279099,1499,1498,1256,1499,1000,0,0,0
1691765282282223,1499,1499,1256,1499,1000,0,0,0
1691765282287867,1501,1501,1255,1499,1000,0,0,0
1691765282290311,1501,1501,1255,1499,1000,0,0,0
1691765282293597,1499,1499,1256,1499,1000,0,0,0
1691765282298771,1498,1498,1256,1499,1000,0,0,0
1691765282301749,1499,1499,1256,1499,1000,0,0,0
1691765282307175,1499,1499,1256,1499,1000,0,0,0
1691765282308820,1501,1501,1255,1499,1000,0,0,0
1691765282312058,1501,1501,1255,1499,1000,0,0,0
1691765282315487,1499,1498,1256,1499,1000,0,0,0
1691765282319548,1498,1498,1257,1499,1000,0,0,0
1691765282323218,1500,1500,1256,1499,1000,0,0,0
1691765282327849,1499,1498,1256,1499,1000,0,0,0
1691765282329856,1501,1500,1255,1499,1000,0,0,0
1691765282333343,1501,1501,1254,1499,1000,0,0,0
1691765282337088,1499,1499,1256,1499,1000,0,0,0
1691765282341057,1498,1499,1256,1499,1000,0,0,0
1691765282345153,1499,1498,1256,1499,1000,0,0,0
1691765282349125,1499,1499,1256,1499,1000,0,0,0
1691765282351754,1500,1499,1255,1499,1000,0,0,0
1691765282355215,1503,1502,1253,1499,1000,0,0,0
1691765282359056,1501,1501,1255,1499,1000,0,0,0
1691765282362372,1499,1498,1256,1499,1000,0,0,0
1691765282366033,1499,1498,1256,1499,1000,0,0,0
1691765282370167,1499,1498,1256,1499,1000,0,0,0
1691765282373872,1500,1498,1256,1499,1000,0,0,0
