timestamp,roll,pitch,yaw,norm_thrust
1691765277730929,0.00000000,0.00000000,0.00000000,0.00000000
1691765277740926,0.00000000,0.00000000,0.00000000,0.00000000
1691765277750930,0.00000000,0.00000000,0.00000000,0.00000000
1691765277761110,0.00000000,0.00000000,0.00000000,0.00000000
1691765277770923,0.00000000,0.00000000,0.00000000,0.00000000
1691765277780920,0.00000000,0.00000000,0.00000000,0.00000000
1691765277790915,0.00000000,0.00000000,0.00000000,0.00000000
1691765277800922,0.00000000,0.00000000,0.00000000,0.00000000
1691765277810927,0.00000000,0.00000000,0.00000000,0.00000000
1691765277820917,0.00000000,0.00000000,0.00000000,0.00000000
1691765277830925,0.00000000,0.00000000,0.00000000,0.00000000
1691765277840934,0.00000000,0.00000000,0.00000000,0.00000000
1691765277850919,0.00000000,0.00000000,0.00000000,0.00000000
1691765277860930,0.00000000,0.00000000,0.00000000,0.00000000
1691765277870930,0.00000000,0.00000000,0.00000000,0.00000000
1691765277880923,0.00000000,0.00000000,0.00000000,0.00000000
1691765277890933,0.00000000,0.00000000,0.00000000,0.00000000
1691765277901377,-0.16021667,0.41060758,0.10726956,11.22866058
1691765277904119,-0.16231181,0.42607611,0.10661544,11.21341991
1691765277908257,-0.16129054,0.41504306,0.10683028,11.22206402
1691765277912130,-0.16034828,0.40834498,0.10681257,11.27889061
1691765277915803,-0.16220570,0.41291198,0.10682476,11.27133656
1691765277918559,-0.16259311,0.45957315,0.10656116,11.24027729
1691765277922843,-0.16184029,0.42251289,0.10712864,11.30821991
1691765277926885,-0.16479446,0.45950049,0.10704393,11.26155090
1691765277929615,-0.16138239,0.41526365,0.10759324,11.30397797
1691765277934912,-0.15436170,0.40369165,0.10765097,11.34070587
1691765277937685,-0.16489223,0.40078464,0.10833611,11.35649300
1691765277940389,-0.16084175,0.39590508,0.10835981,11.35264683
1691765277943974,-0.16553259,0.41043812,0.10803837,11.37103271
1691765277947807,-0.15505400,0.39979109,0.10666100,11.37258148
1691765277951892,-0.16116194,0.37893361,0.10698083,11.40981197
1691765277955877,-0.16137987,0.37517980,0.10680266,11.40448380
1691765277958605,-0.14262462,0.33623722,0.10629402,11.42088890
1691765277962968,-0.14801458,0.33105251,0.10531424,11.43258190
1691765277966780,-0.13074318,0.30399582,0.10344116,11.42350006
1691765277969500,-0.13503514,0.29976541,0.10123974,11.36276054
1691765277973133,-0.13161854,0.28794074,0.09794693,11.37437344
1691765277976946,-0.11762096,0.26018646,0.09293021,11.35863400
1691765277980947,-0.09280860,0.22950417,0.08929089,11.27455807
1691765277985887,-0.10461956,0.24389705,0.08219898,11.19024086
1691765277988674,-0.09629202,0.21888168,0.07409310,11.03365135
1691765277991352,-0.08174710,0.11917407,0.06990543,11.18419743
1691765277995019,-0.09646456,0.10481068,0.06674018,11.06964684
1691765277998931,-0.14045967,0.03172366,0.06274597,11.13299179
1691765278002861,-0.12615854,0.13142161,0.05235570,11.53721142
1691765278006983,-0.14435923,0.12681660,0.04677670,11.45648479
1691765278009576,-0.14831938,0.08891330,0.03734822,11.38303375
1691765278013523,-0.10155960,-0.01850028,0.03320895,11.44352818
1691765278016960,-0.11206672,-0.05229232,0.02920697,11.12430096
1691765278021104,-0.09184138,-0.11029514,0.02506124,10.84817028
1691765278024704,-0.00667480,-0.17793354,0.02352579,10.68689632
1691765278028733,-0.01973201,-0.10871560,0.02041150,10.26132107
1691765278031394,-0.01596079,-0.09426454,0.01565916,10.11973000
1691765278035244,0.05860737,-0.27674308,0.01412987,10.41667175
1691765278039198,0.05931542,-0.21734551,0.01253954,10.01142883
1691765278043134,0.10501308,-0.21623556,0.01057288,9.90610695
1691765278046098,0.08137558,-0.21944198,0.00772945,9.85326481
1691765278050019,0.07655543,-0.18745770,0.00471070,9.60585022
1691765278054082,0.10731173,-0.33856842,0.00317860,10.12544727
1691765278058752,0.11587691,-0.34639922,0.00173217,9.85115337
1691765278060403,0.23444016,-0.41718137,0.00503925,9.79188728
1691765278064191,0.17614006,-0.31775558,0.00210049,9.42581749
1691765278070759,0.14022954,-0.18891840,0.00004160,9.50793076
1691765278072321,0.15941067,-0.21993974,-0.00086786,9.50978279
1691765278076238,0.16269565,-0.25028116,-0.00202211,9.59077454
1691765278080936,0.16976061,-0.27336344,-0.00345853,9.60821342
1691765278082200,0.18813393,-0.29466423,-0.00500396,9.72934246
1691765278086286,0.19718172,-0.33354804,-0.00694280,9.71454620
1691765278089917,0.16682851,-0.30897728,-0.01040616,9.64768982
1691765278095647,0.17803672,-0.35542610,-0.01267198,9.70360756
1691765278097593,0.15668680,-0.42091933,-0.01486147,9.84145355
1691765278106280,0.20053011,-0.42734939,-0.01328304,9.55907726
1691765278106416,0.18458556,-0.45169491,-0.01403468,9.90672016
1691765278108469,0.18602076,-0.43561035,-0.01446138,9.91884613
1691765278111999,0.17669587,-0.41240489,-0.01462979,9.82935429
1691765278115307,0.02163858,-0.50780177,-0.01923070,10.32794094
1691765278118703,0.03007189,-0.98617977,-0.01777000,9.16458130
1691765278122306,0.17465082,-0.15033028,-0.00966435,9.84587669
1691765278125942,0.67335075,-0.52156621,0.01483236,8.15330791
1691765278130031,0.86386037,-0.27381065,0.00695038,7.80827332
1691765278134152,0.46506643,-0.15027422,-0.00711903,9.18051338
1691765278137805,0.33204681,-0.08149008,-0.01287216,9.38232899
1691765278142281,0.25727615,-0.08103613,-0.01519156,9.68992615
1691765278144020,0.16886276,-0.08674435,-0.01437852,9.87404919
1691765278148045,0.10731836,-0.07682017,-0.01623220,9.67887688
1691765278151989,0.01614822,-0.08705631,-0.01763009,10.06802750
1691765278155174,0.02339699,-0.13693957,-0.01547640,10.03501701
1691765278159074,0.02104489,-0.18805762,-0.01115841,9.90232754
1691765278163056,-0.31113729,-0.23989049,-0.01406363,10.89661407
1691765278166760,-0.03422537,-0.06831968,-0.01060183,10.75349903
1691765278169534,0.24850149,-0.18091957,-0.00265922,9.21119595
1691765278173122,0.08136468,-0.04971046,-0.00673597,9.80909252
1691765278177108,0.00123939,0.00979977,-0.00860532,10.05661201
1691765278181226,-0.00191235,-0.02807151,-0.00636052,10.22181988
1691765278183964,-0.00367020,0.06193315,-0.00990541,9.97125626
1691765278188054,-0.01158044,0.05193716,-0.01072773,9.95781898
1691765278192086,-0.02108737,0.04789599,-0.01180762,10.14872456
1691765278195138,-0.09148955,-0.02874316,-0.00993335,10.28986168
1691765278198602,-0.09323343,-0.08803202,-0.00788889,10.21705341
1691765278202206,-0.02921567,-0.10930200,-0.00554097,10.15658379
1691765278206145,-0.02160889,-0.04642561,-0.00640250,9.99166107
1691765278210103,-0.05481944,-0.01150719,-0.00705960,10.00887585
1691765278214073,-0.03821852,0.06127482,-0.00908839,10.22501183
1691765278217075,-0.06920711,0.04717192,-0.00834063,10.12616253
1691765278220631,-0.12535673,0.09559904,-0.00914442,10.03505325
1691765278223983,-0.14768882,0.07058996,-0.00838746,10.17793941
1691765278228187,-0.05469228,0.02088136,-0.00757884,10.05933285
1691765278232049,-0.05453778,0.00349469,-0.00718215,10.11652279
1691765278235760,-0.07663696,0.03336762,-0.00808247,10.12325096
1691765278238602,-0.07724460,-0.02575984,-0.00651521,10.28930759
1691765278246238,-0.03645902,-0.12356338,-0.00315678,10.24005699
1691765278246528,-0.05375310,-0.06813960,-0.00448326,10.20539188
1691765278254175,-0.05289438,-0.06469893,-0.00375544,10.25715351
1691765278254718,-0.08276122,-0.03637270,-0.00384791,10.21964550
1691765278260676,-0.10285802,-0.00517491,-0.00390748,10.07407093
1691765278262133,-0.03703831,-0.02816441,-0.00225704,10.01659298
1691765278264309,-0.02427788,-0.02198569,-0.00159485,10.03885078
1691765278268900,-0.04376965,0.02689356,-0.00234201,10.03810406
1691765278272088,-0.05705445,0.14172283,-0.00187130,9.80943680
1691765278275977,-0.04473532,0.04005066,0.00117450,10.09008121
1691765278279243,-0.12196230,0.10552258,0.00020643,10.08378887
1691765278282953,-0.14066355,0.06795560,0.00127217,10.36946392
1691765278286159,-0.10164907,-0.02045359,0.00290588,10.13034916
1691765278290028,-0.05830606,-0.06980751,0.00481239,10.21622276
1691765278294601,-0.11573038,-0.16793919,0.00783582,10.32192039
1691765278296816,-0.09486449,-0.10904152,0.00789528,10.22446060
1691765278300452,-0.06778440,-0.10281409,0.00859022,10.03939629
1691765278304464,-0.07293796,0.03632915,0.00591149,10.20277500
1691765278308130,-0.05443663,0.01394283,0.00615317,10.16539574
1691765278312151,-0.01467053,-0.01041031,0.00641308,9.82236385
1691765278315956,-0.00632319,0.00671989,0.00559916,9.84937572
1691765278318875,-0.06853186,0.08950061,0.00323923,9.89165115
1691765278323024,-0.03393122,-0.07086273,0.00670410,10.17517853
1691765278325933,-0.04494859,-0.00535969,0.00483922,10.07631207
1691765278329611,0.02500545,-0.10180439,0.00773610,10.00240326
1691765278333175,0.03729239,0.03097469,0.00583124,10.00218964
1691765278337194,0.05497862,-0.07445177,0.00918293,9.94416904
1691765278341290,0.02636646,-0.04790255,0.00907683,9.95782280
1691765278345071,-0.03830670,0.04089205,0.00742661,9.82370663
1691765278348692,-0.05532362,0.04840996,0.00743597,10.11690712
1691765278351528,-0.04200662,0.02654847,0.00763496,10.08105564
1691765278355107,-0.04446467,0.05286268,0.00663842,9.88874626
1691765278359673,-0.04757937,-0.06033058,0.00806704,10.29479122
1691765278363292,0.05950574,-0.18195118,0.01204917,10.21243858
1691765278366300,0.06951312,-0.05718689,0.00852768,9.89559460
1691765278369579,0.10286457,-0.07612143,0.00965906,9.85329723
1691765278373211,0.13716951,-0.08180854,0.01054781,10.08242607
1691765278377752,0.04043429,-0.04272781,0.01002646,10.17672443
1691765278381291,0.03505768,-0.00641468,0.00988676,9.86331272
1691765278386155,0.02768319,-0.02501444,0.01143533,10.00700474
1691765278389428,0.06365776,0.00365156,0.01178505,10.00826931
1691765278391300,0.08156361,-0.02548928,0.01294607,9.96082020
1691765278395598,-0.44959396,-0.20114918,0.01719858,11.08726978
1691765278399622,-0.33122450,-0.11594866,0.02447884,10.98464108
1691765278402130,-0.25500926,-0.08532052,0.02812118,10.83184814
1691765278405830,-0.13909842,-0.11428187,0.02969432,10.60963058
1691765278409521,-0.07909421,-0.16248424,0.03194673,10.53114128
1691765278413708,-0.05322636,-0.14253706,0.03413126,10.34012985
1691765278418197,0.03854951,-0.16261405,0.03660323,10.16283321
1691765278421523,0.15586421,-0.08278899,0.03942732,9.98679924
1691765278423887,0.16502841,-0.15562183,0.04100959,10.08345318
1691765278428246,0.15398417,-0.16781627,0.04250051,10.07025242
1691765278432267,0.19473994,-0.15252651,0.04430670,10.00636768
1691765278434963,0.22995104,-0.13344687,0.04532491,10.05707455
1691765278439226,0.29156613,-0.11725403,0.04649363,9.93755245
1691765278442111,0.24901150,-0.05842795,0.04551085,9.85390759
1691765278446502,0.22227512,0.04120806,0.04324790,9.88405132
1691765278450367,0.17153902,-0.01114032,0.04303997,10.18906021
1691765278454064,0.22455451,-0.10720215,0.04465725,10.13741207
1691765278456784,0.26567614,-0.14313552,0.04620513,9.99020863
1691765278464267,0.29142481,-0.07616518,0.04503912,9.91998005
1691765278464638,0.22656882,0.03210445,0.04192992,9.87103653
1691765278468253,0.19378649,0.03380056,0.04058290,9.96422768
1691765278472536,0.15942197,-0.01535179,0.03965437,10.28253651
1691765278474989,0.20604050,-0.08946138,0.03970162,10.14673138
1691765278478565,0.22877672,-0.10852828,0.03906925,10.07517719
1691765278482987,0.21032436,-0.09224398,0.03820563,10.08696270
1691765278486113,0.20873547,-0.05405351,0.03696376,10.06126022
1691765278490305,0.23981343,-0.03629502,0.03651851,9.93301582
1691765278494537,0.23447122,-0.00005596,0.03533445,9.92761612
1691765278496773,1.96501327,0.72908902,-0.10659479,6.70131969
1691765278500476,0.60077178,0.38553849,-0.02090944,9.21592045
1691765278504433,0.30357489,0.26386666,-0.01860237,9.89288902
1691765278508270,0.21009964,0.15385088,-0.01573464,10.28585529
1691765278511310,0.16743791,0.12920207,-0.01682476,10.17481804
1691765278515382,0.16789001,0.03011811,-0.01457184,10.06787491
1691765278519308,0.04827895,0.11930604,-0.01991366,10.21180058
1691765278523401,0.01873153,0.07403078,-0.02326895,10.14874935
1691765278525999,-0.03180050,0.01887729,-0.02527199,10.11418056
1691765278529541,-0.06616078,0.01660530,-0.02868525,10.10402298
1691765278533286,-0.09458732,0.13290842,-0.03962417,9.90436649
1691765278537334,-0.07070890,-0.01823792,-0.03697687,9.90879250
1691765278541258,-0.14504917,0.03552155,-0.04037471,10.33704472
1691765278544087,-0.15592118,0.05046987,-0.04321176,10.37471962
1691765278547793,-0.11097444,0.03738226,-0.04482767,10.08497238
1691765278552014,-0.10301104,0.13765259,-0.04918604,10.09378624
1691765278555360,-0.18153203,0.12953231,-0.04814267,10.05474663
1691765278559445,-0.20138964,0.15230654,-0.04872570,10.07672882
1691765278563179,-0.20907003,0.07665771,-0.04707119,10.37893295
1691765278565812,-0.19157881,-0.09756292,-0.04052727,10.35843945
1691765278569500,-0.20444506,-0.06072479,-0.04139253,10.44246578
1691765278573273,-0.16204593,-0.05307291,-0.04068010,10.34837055
1691765278577415,-0.16308458,-0.06155331,-0.03946260,10.15128613
1691765278581342,-0.17833269,0.08542574,-0.04457007,10.33087063
1691765278583949,-0.19968541,0.12242233,-0.04550072,10.16919804
1691765278587681,-0.23844638,0.08436063,-0.04291895,10.14928436
1691765278591383,-0.21765213,0.05618817,-0.04157178,10.16163540
1691765278595458,-0.21516758,-0.07713144,-0.03460965,10.49478149
1691765278600357,-0.18262988,-0.07383867,-0.03185523,10.45421886
1691765278605301,-0.19077846,-0.08199368,-0.02781472,10.41963577
1691765278610681,-0.19262046,-0.00203037,-0.02729615,10.17357445
1691765278611186,-0.16749784,0.12321880,-0.02911359,10.48567486
1691765278613154,-0.17541826,0.06802014,-0.02579521,10.28616428
1691765278617793,-0.19227079,0.08360665,-0.02537973,10.15792084
1691765278620621,-0.15956736,-0.00985343,-0.02022487,10.44561768
1691765278624226,-0.19785629,-0.04143575,-0.01569430,10.54544544
1691765278627668,-0.15366013,-0.05662492,-0.01106622,10.53663349
1691765278631389,-0.11873002,-0.02816479,-0.00897310,10.37626839
1691765278635422,-0.04345597,0.07087609,-0.01108217,10.08491230
1691765278639515,-0.12600566,0.06467836,-0.00941468,10.37823486
1691765278643228,-0.14590053,0.03779782,-0.00622937,10.39234638
1691765278646085,-0.09534753,-0.04962244,-0.00153039,10.55412865
1691765278649491,-0.11244330,0.00941880,-0.00057916,10.36890316
1691765278653519,-0.10856252,0.10933080,0.00288619,10.13941574
1691765278657310,-0.11619908,0.16685216,0.00534113,10.25742054
1691765278663261,-0.06850944,0.18747994,0.00545438,10.16527653
1691765278663908,-0.09305704,-0.01982077,0.01212629,10.65509605
1691765278667737,-0.04377086,-0.01945079,0.01326435,10.43390179
1691765278673324,-0.07722999,-0.00638189,0.01423015,10.47617054
1691765278675576,-0.27608138,-0.01399600,0.01872422,11.14682293
1691765278679560,-0.26188284,-0.02087964,0.02328016,11.09024429
1691765278682166,-0.21639396,-0.04324469,0.02709348,10.97164345
1691765278686461,0.24442783,-0.05030654,0.02932584,9.25031376
1691765278689428,0.16730121,0.00886442,0.02775633,9.91912365
1691765278693486,0.16984983,0.02914767,0.02755844,10.18368912
1691765278697593,0.08287260,0.12876073,0.02556165,10.10366344
1691765278702436,0.06988767,0.12011524,0.02555821,10.21190739
1691765278704045,0.00918510,0.06609800,0.02667637,10.47514343
1691765278710987,0.01767632,0.03799503,0.02676191,10.40093899
1691765278711652,0.03895893,0.03640793,0.02639629,10.32890701
1691765278715424,0.04391890,0.08129500,0.02511023,10.29322052
1691765278719482,0.01840546,0.08491758,0.02465472,10.30372715
1691765278722265,-0.00364112,0.02710579,0.02508798,10.48314953
1691765278726842,0.02360909,0.05342340,0.02413410,10.55484295
1691765278730432,0.05129848,0.07112541,0.02301925,10.35484409
1691765278733110,0.05857945,0.10233078,0.02246644,10.39660454
1691765278736923,0.04541135,0.04935877,0.02316602,10.46916866
1691765278741200,0.06581797,0.01577587,0.02304026,10.35201550
1691765278743914,0.05903382,0.06026022,0.02095598,10.36128139
1691765278747712,0.06592788,0.08954208,0.01900583,10.13376522
1691765278751454,0.00715305,0.04157025,0.01934077,10.69183159
1691765278755481,-0.01284376,0.02175210,0.01915053,10.61600208
1691765278759585,0.02868900,-0.00901818,0.01930819,10.40473938
1691765278762133,-0.00996423,0.15603520,0.01526830,10.88307381
1691765278765765,0.10766429,0.02298319,0.01513139,10.12664127
1691765278769501,0.05349227,-0.00440467,0.01480535,10.48008728
1691765278773472,0.03293200,-0.00490215,0.01427902,10.36429214
1691765278777539,0.03135063,0.08373141,0.01165934,10.51817131
1691765278781252,0.09894071,0.10184591,0.01053732,10.33545589
1691765278785218,0.07283862,0.09117721,0.00962716,10.39182663
1691765278787688,0.05178043,0.04551891,0.00865637,10.22784233
1691765278791558,0.02738922,0.03170667,0.00823440,10.37091637
1691765278795683,0.00819521,0.01090259,0.00802520,10.52451038
1691765278801827,0.05737766,-0.01016490,0.00778178,10.41489220
1691765278802373,-0.15140691,0.02437953,0.00700172,11.05392170
1691765278805923,-0.18687423,0.00554529,0.00659097,10.88627625
1691765278809774,-0.20853172,-0.06094069,0.00699686,10.76903057
1691765278813647,0.21895534,-0.05610000,0.00842292,9.46743107
1691765278817772,0.24344389,0.10408875,0.00244803,9.53734779
1691765278821279,0.22377537,0.13645022,0.00125212,9.91937542
1691765278824726,0.06347682,0.22942166,0.00065856,10.70827007
1691765278828085,0.15022992,0.11596990,0.00205129,10.00976658
1691765278831527,0.10512679,0.10981515,0.00227597,10.21799088
1691765278835595,0.05891497,-0.01982358,0.00480798,10.42858410
1691765278838481,0.05394012,-0.04604779,0.00511630,10.59797096
1691765278842641,0.05548040,-0.00111254,0.00368784,10.58366394
1691765278846679,0.05793242,0.00036636,0.00236024,10.25253010
1691765278850505,0.02522579,0.02175678,0.00210303,10.49672222
1691765278853132,0.05689219,-0.03424992,0.00278776,10.35043812
1691765278856761,0.01837435,-0.01869779,0.00164034,10.59670925
1691765278860749,0.02003222,0.03138394,0.00027623,10.45119667
1691765278864530,0.01644517,-0.00833154,0.00045336,10.56571579
1691765278868610,0.05525430,-0.02218920,0.00016991,10.46067524
1691765278871247,0.04953581,0.01866463,-0.00133038,10.48916340
1691765278874904,0.01621684,0.07222652,-0.00310765,10.47048473
1691765278879078,0.00579244,0.07504033,-0.00539164,10.20887375
1691765278882728,-0.01881797,-0.02394036,-0.00429159,10.67521000
1691765278886739,0.00235926,-0.03036652,-0.00465830,10.64131165
1691765278890388,0.01997989,-0.01931647,-0.00496713,10.52369595
1691765278893286,0.00364165,0.03470648,-0.00693245,10.44140911
1691765278896889,0.03439210,0.09061062,-0.01012276,10.17362690
1691765278900861,-0.01235120,-0.04533018,-0.00734263,10.71321583
1691765278905138,-0.00724520,0.02113748,-0.00842957,10.61204147
1691765278907615,-0.00800928,-0.07781924,-0.00636951,10.45097828
1691765278911811,0.01709981,0.00203403,-0.00832595,10.42964649
1691765278915751,0.03209917,-0.02324535,-0.00807888,10.32533169
1691765278919449,-0.01283611,-0.07209922,-0.00708570,10.57327557
1691765278922220,0.02814538,-0.01517989,-0.00839313,10.50628376
1691765278925929,0.01428462,-0.02793691,-0.00806776,10.42485523
1691765278930010,-0.00419356,0.02851983,-0.00922380,10.34890842
1691765278933628,-0.02538660,-0.00831443,-0.00850806,10.28899670
1691765278937722,-0.06828431,-0.01771973,-0.00853336,10.54654980
1691765278940536,-0.04232074,-0.05601111,-0.00762641,10.48795033
1691765278944794,-0.00801115,-0.04295196,-0.00740396,10.51664829
1691765278947653,-0.19578910,-0.00633094,-0.00700574,11.06457329
1691765278951443,-0.20464966,-0.03657669,-0.00605659,10.93174076
1691765278955726,-0.23307866,-0.14319880,-0.00356351,10.83054543
1691765278958844,0.21042997,-0.13698673,0.00172623,9.31260777
1691765278962173,0.17047974,-0.02197021,-0.00254083,9.92323208
1691765278965758,-0.12231040,-0.01364181,-0.00196270,10.96788120
1691765278969503,-0.13451065,-0.02574707,-0.00063591,10.83492088
1691765278973785,-0.00164896,0.10435006,-0.00284526,10.21749115
1691765278977729,0.15336709,-0.12717874,0.00365859,9.76608658
1691765278980469,0.13948038,-0.07897786,0.00205135,10.15009689
1691765278984130,0.12713559,-0.04925243,0.00122787,10.17231464
1691765278987669,0.06234331,0.02298833,-0.00091004,10.18294239
1691765278991223,0.00647113,0.01090229,-0.00073386,10.25951672
1691765278995071,0.02992738,-0.04730500,0.00040323,10.36139011
1691765278998748,-0.00474426,-0.06716780,0.00082812,10.54663658
1691765279002857,0.01824539,-0.03098670,0.00028132,10.32639694
1691765279006046,-0.20485872,-0.04855222,0.00054757,11.12950897
1691765279009597,-0.18988287,-0.07327282,0.00125175,10.95403576
1691765279013818,-0.23458728,-0.13402554,0.00298169,10.90753937
1691765279017759,0.14295633,-0.08728733,0.00574015,9.42649174
1691765279020574,0.13266303,-0.04277547,0.00420307,10.11073780
1691765279024029,0.10372625,-0.00007225,0.00323044,10.32103443
1691765279027891,0.05266329,0.02422947,0.00270841,10.32108402
1691765279032013,0.05177567,0.01519261,0.00282101,10.35499287
1691765279035743,0.04350761,0.03216091,0.00210879,10.33745956
1691765279038553,0.02220828,-0.03950539,0.00347088,10.24587822
1691765279042851,-0.03692271,0.00154640,0.00222734,10.36519146
1691765279046715,-0.01286466,-0.04787960,0.00309551,10.59362316
1691765279049511,0.04194865,0.02523425,0.00112196,10.41352272
1691765279053125,-0.00907733,0.01075510,0.00111244,10.48600101
1691765279056795,-0.07151466,-0.07623480,0.00243599,10.59958649
1691765279060988,-0.05566946,-0.06445978,0.00219220,10.59018803
1691765279064705,-0.02315630,-0.04336742,0.00183195,10.63932323
1691765279068249,-0.02029582,-0.02689051,0.00153124,10.52681828
1691765279071375,-0.00500059,0.00598312,0.00051045,10.41247272
1691765279077067,-0.18842937,-0.02816839,0.00152777,11.17893505
1691765279078928,-0.23249483,-0.06541268,0.00236833,10.95587063
1691765279082839,-0.24933465,-0.11518859,0.00349811,10.89799881
1691765279087087,0.26631048,-0.03291090,0.00506709,9.34663296
1691765279089430,0.12821424,-0.02896733,0.00456260,10.19346619
1691765279093183,0.07471517,0.04626431,0.00236945,10.33477688
1691765279096960,0.05107802,0.06930161,0.00121972,10.28213215
1691765279100843,0.03686442,0.02145718,0.00191628,10.34955120
1691765279105651,-0.04013951,-0.04632536,0.00325899,10.67156792
1691765279108538,-0.04703113,-0.02309954,0.00257219,10.65578270
1691765279111315,0.02077358,-0.02940219,0.00266056,10.46495247
1691765279115374,0.03317260,0.03676480,0.00059163,10.30973530
1691765279119655,-0.01377300,0.00776735,0.00146043,10.38131523
1691765279122800,-0.03426529,0.05921378,0.00077868,10.45087242
1691765279125996,-0.01416249,-0.03850175,0.00250806,10.31624031
1691765279129995,0.01472322,0.02438113,0.00069218,10.25989532
1691765279134321,-0.01689907,-0.00031648,0.00084680,10.30769444
1691765279137562,-0.07179067,-0.03263331,0.00098280,10.51210976
1691765279140364,-0.04459215,-0.02606304,0.00056081,10.50094986
1691765279144089,0.00145748,-0.04698411,0.00107580,10.38544083
1691765279147926,-0.21006154,-0.02510382,0.00154415,11.16490364
1691765279151824,-0.21996066,-0.05166651,0.00222283,10.90579700
1691765279155788,-0.21567912,-0.11309204,0.00332168,10.88559246
1691765279158561,0.23978189,-0.08373901,0.00641660,9.33818817
1691765279162234,0.12818582,0.03553722,0.00222448,10.18592644
1691765279165913,0.12482369,0.03179614,0.00225412,10.27041435
1691765279169966,-0.10546498,0.01104891,0.00381837,11.08851051
1691765279173825,-0.11341792,0.07143648,0.00557968,10.78102875
1691765279176710,0.01619058,0.15776104,0.00407230,10.34746170
1691765279180937,0.17714925,-0.04929565,0.00872191,9.62242508
1691765279185070,0.21701664,0.03827453,0.00622014,9.93543339
1691765279188173,0.04395768,0.17068098,0.00432218,10.84556675
1691765279196336,0.09084272,-0.06790593,0.00847975,9.99863243
1691765279196485,0.02408726,-0.11825080,0.00862128,10.45711708
1691765279200920,0.02050455,-0.07532143,0.00767909,10.48271561
1691765279203014,0.02369867,-0.01799313,0.00683573,10.37287521
1691765279206673,-0.04928791,0.12842739,0.00488027,10.87527847
1691765279209513,0.05488658,-0.04478900,0.00688518,10.06881046
1691765279213156,0.03688543,-0.08528277,0.00762958,10.47643948
1691765279216995,0.00189737,-0.02034974,0.00612339,10.40025616
1691765279221069,0.01278993,-0.01461821,0.00576524,10.40754318
1691765279225905,0.04159313,-0.00741838,0.00530853,10.46909332
1691765279227705,0.01490732,-0.00705302,0.00506573,10.47918320
1691765279231645,0.03718855,0.01512164,0.00421578,10.47096634
1691765279235314,0.03169306,0.02087339,0.00377416,10.30487823
1691765279239026,0.06099355,0.13581815,0.00131734,10.19998550
1691765279243046,0.01749079,0.09310934,0.00276720,10.34063435
1691765279246753,-0.04773072,-0.04451919,0.00507404,10.56605625
1691765279249473,-0.00705841,-0.05510046,0.00525482,10.50751209
1691765279253134,0.01292654,0.03839160,0.00307994,10.54967594
1691765279257045,0.00197142,0.03302020,0.00271579,10.33945942
1691765279261051,-0.04043321,-0.02767359,0.00379962,10.53580856
1691765279265720,-0.01304378,-0.01387013,0.00349245,10.59382439
1691765279267936,0.00206041,-0.00791495,0.00332118,10.51517963
1691765279271341,0.00635879,0.02214192,0.00264928,10.41523457
1691765279274864,0.01794788,0.07620770,0.00084503,10.40717316
1691765279279384,0.00089952,0.04834582,0.00100961,10.34819889
1691765279285122,-0.07480831,-0.02544969,0.00237460,10.59844017
1691765279286734,-0.02770445,0.01385298,0.00217207,10.40476227
1691765279290007,0.01315982,0.03510402,0.00197150,10.46286869
1691765279293197,0.00596155,-0.01523151,0.00314071,10.46865654
1691765279297129,-0.22181939,0.01090431,0.00372837,11.14892292
1691765279301146,-0.22832392,-0.00436229,0.00445310,10.97787380
1691765279305165,-0.04466113,0.07112034,0.00316885,10.54603958
1691765279307760,0.09838337,-0.11077353,0.00756454,9.70677280
1691765279311386,0.05572544,0.00647736,0.00423131,10.33703899
1691765279315759,0.09483232,-0.01362312,0.00490082,10.31400967
1691765279318623,0.00584673,0.15253809,0.00088012,10.81313801
1691765279322135,-0.01447536,0.14930229,0.00040386,10.66266537
1691765279326240,0.02708435,-0.02008985,0.00428627,9.90107727
1691765279330015,0.00135703,-0.07521069,0.00536087,10.23863506
1691765279333134,0.03091097,-0.02489400,0.00429297,10.28153706
1691765279337963,0.02826156,0.01970867,0.00304718,10.28190041
1691765279341082,-0.04319627,-0.08305723,0.00490354,10.41648102
1691765279344029,-0.00490776,-0.07218830,0.00488429,10.45871925
1691765279347828,-0.00340706,0.09871265,0.00115605,10.72440338
1691765279352117,-0.01459535,0.00957916,0.00300482,10.17478466
1691765279355812,-0.21954274,-0.05315237,0.00458732,11.08695412
1691765279358477,-0.20189935,-0.06699275,0.00535159,10.85258579
1691765279362276,-0.22409295,-0.05374372,0.00607444,10.68883896
1691765279366114,-0.13106723,0.09890494,0.00579753,11.29940033
1691765279370152,-0.15209249,-0.19050227,0.00837499,10.14258385
1691765279372992,0.43241715,-0.11882366,0.01361146,9.03509426
1691765279377144,0.25665292,-0.00145961,0.00732503,9.76226807
1691765279381772,-0.09164022,0.01254433,0.00768012,11.04743099
1691765279385586,-0.03906802,0.24779207,0.00320304,11.07498646
1691765279388126,-0.05124172,0.17318107,0.00334959,11.06243896
1691765279392246,0.13041502,-0.06151557,0.00690106,9.87287426
1691765279395910,-0.08295501,-0.13212585,0.00912879,10.35559559
1691765279398532,0.27071172,-0.14851959,0.01290247,9.19106770
1691765279402325,0.08778178,-0.08443495,0.00876464,10.19263458
1691765279406127,0.14290369,0.03245330,0.00658084,10.13496399
1691765279412101,0.04802021,-0.07280800,0.00895879,10.60305119
1691765279415602,0.01915589,-0.04212033,0.00778630,10.66339970
1691765279416784,-0.00353326,-0.04738098,0.00783075,10.57680511
1691765279420564,-0.00850646,-0.03599004,0.00772905,10.51281929
1691765279426054,0.02501776,-0.00991780,0.00708510,10.41040134
1691765279427754,0.00392489,0.01087513,0.00647586,10.55407047
1691765279431269,-0.07897253,0.14435233,0.00423016,10.96257305
1691765279435272,-0.11226723,0.18015495,0.00318676,11.40218067
1691765279439601,-0.02864618,0.13558240,0.00259150,10.47174835
1691765279443364,-0.06642120,-0.25865847,0.00915095,10.01366711
1691765279445941,-0.04731804,-0.20407763,0.00877572,10.37747478
1691765279449619,-0.01762695,-0.07091325,0.00622363,10.52263737
1691765279453063,0.02104893,-0.03890535,0.00560812,10.56822586
1691765279457372,-0.00803616,0.04761758,0.00277422,10.54231358
1691765279461204,-0.05352176,0.02223096,0.00285810,10.44064713
1691765279465036,-0.08394082,-0.04261501,0.00376888,10.76281261
1691765279467802,-0.06762381,-0.06353620,0.00406004,10.77993488
1691765279471466,-0.05677959,-0.03403195,0.00343273,10.66853905
1691765279475239,-0.07725346,-0.01042101,0.00277453,10.64783573
1691765279479445,-0.10451957,0.12320145,0.00036039,11.03363132
1691765279482844,-0.24769220,0.02162265,0.00458238,11.09315681
1691765279486322,-0.20632018,0.08206036,0.00472137,11.63239670
1691765279489561,-0.19721174,0.04752024,0.00445423,11.33481598
1691765279493311,0.07282025,-0.04384296,0.00588157,9.72156906
1691765279497231,0.18307185,-0.19833590,0.01222261,9.34878254
1691765279501245,0.06803709,0.00129039,0.00428404,10.03943634
1691765279505038,-0.02407694,-0.07207017,0.00540222,10.54175377
1691765279507674,-0.02353718,-0.02975750,0.00445897,10.62024021
1691765279511477,-0.00863221,0.05003443,0.00274787,10.79786873
1691765279515083,-0.03473279,0.14151247,0.00058985,10.55881405
1691765279519274,-0.04741792,0.04803082,0.00184334,10.61409283
1691765279522103,-0.07947371,-0.10757988,0.00414712,10.31433105
1691765279526338,-0.12572151,0.03387339,0.00193334,10.93803215
1691765279530312,-0.01019104,0.03072599,0.00142375,10.31596851
1691765279534150,-0.00405070,0.05373998,0.00052488,10.39873505
1691765279537014,-0.14110342,0.12029207,-0.00036136,11.43309402
1691765279540718,-0.17114556,0.08070398,-0.00022455,11.07876205
1691765279544198,-0.05781725,-0.15212771,0.00232666,9.82980537
1691765279548228,-0.14983359,-0.02268538,0.00042595,11.08262348
1691765279551335,-0.05735183,0.09662991,-0.00178085,10.41158867
1691765279555353,-0.09227593,0.04852660,-0.00172348,10.70434952
1691765279559333,-0.07784586,0.00709596,-0.00213408,10.38362217
1691765279562951,-0.08976136,-0.12857994,-0.00039559,10.78665161
1691765279565958,0.06916207,-0.01657072,-0.00112858,10.01709461
1691765279569552,0.03161563,0.06076335,-0.00342008,10.19940186
1691765279573360,-0.04495524,0.00533799,-0.00325376,10.62293053
1691765279577285,-0.02053418,-0.02740598,-0.00322017,10.53640270
1691765279581220,0.03811748,-0.09444389,-0.00200506,10.25077248
1691765279584004,0.04333240,-0.00923763,-0.00371363,10.15218067
1691765279588209,0.02458348,0.01746729,-0.00475675,10.25147724
1691765279591255,-0.08281519,-0.13980538,-0.00335612,10.90522861
1691765279595102,-0.07174540,-0.07925934,-0.00073880,10.65718555
1691765279599314,0.06337360,0.03080825,-0.00072214,9.90817738
1691765279603133,-0.00654051,-0.17449367,0.00173042,10.70944118
1691765279605853,0.01356246,-0.16817018,0.00236481,10.40470314
1691765279610506,0.13000466,0.02166024,0.00039607,9.91820240
1691765279613204,0.10386822,0.04827882,-0.00025309,10.13342667
1691765279617200,0.02112185,-0.02350771,0.00058608,10.60503292
1691765279621240,-0.04573926,-0.14687923,0.00119649,10.81245232
1691765279623976,0.04705227,-0.06822702,0.00144158,10.19036484
1691765279627620,0.11690816,-0.04560423,0.00139373,10.27665520
1691765279631313,0.14689812,-0.01512582,0.00075133,10.33541965
1691765279635357,0.09223569,0.03193448,-0.00008718,10.30924511
1691765279639388,0.01122434,-0.01409438,0.00035305,10.58542538
1691765279643414,0.04081555,-0.04313653,0.00045734,10.58992958
1691765279647057,0.10105208,-0.10091292,0.00150103,10.21770954
1691765279649594,0.07661618,-0.01963954,0.00019393,10.10982323
1691765279653286,0.09007566,-0.01425429,-0.00036505,10.26822376
1691765279657262,0.07084142,-0.02448196,-0.00061938,10.29482651
1691765279661394,0.01256608,0.01462654,-0.00072527,10.56505680
1691765279663956,-0.00303776,-0.05115699,-0.00051117,10.49827862
1691765279668259,0.06680302,-0.11752660,0.00046874,10.39535522
1691765279672061,0.11166579,-0.09948181,0.00050991,10.26527596
1691765279675390,0.04170727,-0.00089035,-0.00144095,10.27918243
1691765279678540,0.01112130,0.00339612,-0.00197526,10.36052990
1691765279682282,-0.06951738,-0.13643438,-0.00160985,10.95490170
1691765279686392,0.06638048,-0.06382629,-0.00111009,10.27529430
1691765279690337,0.09501689,-0.07226976,-0.00082433,10.21308517
1691765279692981,0.08637379,-0.05931836,-0.00095653,10.23336506
1691765279696790,0.08900870,-0.02525334,-0.00150710,10.21913242
1691765279700403,0.06266656,-0.00471107,-0.00201586,10.27139282
1691765279704749,0.01664786,0.02933962,-0.00212231,10.49987316
1691765279711611,0.04615187,0.00867238,-0.00166839,10.48008633
1691765279714274,0.03714056,-0.08996526,-0.00059845,10.40295315
1691765279715055,0.03489419,-0.05796103,-0.00067947,10.21280575
1691765279718661,0.03731609,-0.02765208,-0.00103665,10.24550629
1691765279722463,-0.04599641,-0.12380490,-0.00039329,10.75043106
1691765279726439,0.00472116,-0.02905544,-0.00083060,10.45782852
1691765279730383,0.00820459,-0.01033737,-0.00103503,10.34040356
1691765279733084,0.04948862,-0.03023961,-0.00083323,10.29874611
1691765279736721,0.07519227,-0.04418268,-0.00017328,10.26390362
1691765279741197,0.18012020,-0.18358421,0.00510683,9.36053276
1691765279744736,0.18998799,-0.09948821,0.00237210,9.73528957
1691765279748428,-0.04092574,0.10785579,-0.00222710,11.03001499
1691765279752210,-0.07719059,0.05577744,-0.00147344,11.07774734
1691765279754905,-0.08815780,0.10795579,-0.00162857,10.60230541
1691765279758650,-0.06551506,0.04653989,-0.00079135,10.39200592
1691765279762348,0.00660048,0.02317380,-0.00009850,10.25941944
1691765279766444,0.01155049,0.03801157,0.00006073,10.19288158
1691765279769480,-0.01393883,0.06555464,0.00010927,10.27270603
1691765279773315,-0.07038242,-0.07138129,0.00189409,10.69342422
1691765279779629,-0.04938705,-0.06897247,0.00206889,10.67398262
1691765279781157,-0.05168018,-0.05426523,0.00203596,10.40833282
1691765279784242,-0.03562718,-0.05663510,0.00249834,10.45266247
1691765279787499,-0.00010134,-0.04251784,0.00259804,10.38442802
1691765279791497,0.01057111,-0.00020866,0.00194607,10.33933258
1691765279795483,-0.02954041,0.04892775,0.00120592,10.39155197
1691765279799492,-0.05671178,0.01431134,0.00176147,10.40106487
1691765279802208,-0.07531418,-0.02517462,0.00223994,10.77529621
1691765279806447,-0.03983061,0.06289241,0.00162323,10.46107578
1691765279809617,-0.02708206,0.02464309,0.00284750,10.29156208
1691765279813917,-0.00129367,-0.04013547,0.00392856,10.34593201
1691765279818184,-0.00123383,0.00457298,0.00317932,10.21908951
1691765279825049,-0.09794077,0.00244363,0.00338841,10.54189205
1691765279825191,-0.17620330,-0.11030468,0.00423682,10.89311028
1691765279827743,-0.00389711,-0.01451354,0.00425891,10.27807617
1691765279831292,0.00788619,-0.00570831,0.00424146,10.34246635
1691765279835531,0.01427551,0.05999172,0.00306019,10.26238632
1691765279839453,-0.03369256,0.07541580,0.00306576,10.30097389
1691765279842208,-0.11909607,-0.06719147,0.00495012,10.84248161
1691765279846239,-0.06065030,0.10200081,0.00400135,10.42119694
1691765279849574,-0.04485897,0.09789507,0.00446378,10.34811783
1691765279853195,-0.03383423,-0.03977874,0.00630466,10.40083218
1691765279856699,-0.00310694,-0.02147523,0.00615586,10.28462029
1691765279860549,0.10076020,0.18145500,0.00115582,9.77451229
1691765279864562,-0.07684799,0.00139806,0.00559646,10.71187592
1691765279868591,-0.09612262,-0.02461553,0.00571976,10.64649391
1691765279871269,-0.07695670,-0.04314787,0.00588032,10.39835739
1691765279875812,-0.04333243,-0.02960770,0.00593397,10.42970562
1691765279878709,-0.03160081,-0.00873482,0.00575576,10.29304981
1691765279882629,-0.02897023,0.04681028,0.00492395,10.39716434
1691765279886576,-0.04871384,0.06128201,0.00471080,10.31439590
1691765279890315,-0.08675390,0.02678552,0.00503732,10.64897537
1691765279893250,-0.06866882,-0.00609623,0.00505783,10.54367447
1691765279896727,-0.02987175,0.04306852,0.00519829,10.32408142
1691765279900697,-0.02673006,-0.00070341,0.00593898,10.26589012
1691765279904513,0.11617044,0.15265067,0.00209873,9.81868839
1691765279908518,-0.06402969,-0.00152311,0.00565458,10.70277023
1691765279911431,-0.08381005,-0.00063303,0.00547621,10.66827297
1691765279915600,-0.08577342,0.00834844,0.00530932,10.43986702
1691765279919681,-0.02941743,-0.03665734,0.00591252,10.26853657
1691765279922093,0.00369682,0.04010779,0.00492909,10.23755836
1691765279926439,0.07849292,0.22136265,0.00069650,9.89513874
1691765279931383,-0.09407621,0.02109557,0.00485223,10.78513432
1691765279933494,-0.08317565,-0.02670438,0.00504785,10.65730095
1691765279937587,-0.04810603,-0.01377065,0.00482605,10.43588448
1691765279940395,-0.00581275,0.05106016,0.00506049,10.27140903
1691765279944649,0.01681707,0.03323708,0.00628001,10.25579834
1691765279949006,-0.00936894,0.02633179,0.00643132,10.39062977
1691765279951459,0.10029024,0.14538941,0.00330574,9.98471069
1691765279954987,-0.06461379,-0.00100881,0.00622481,10.77447605
1691765279958842,-0.07457158,-0.02373097,0.00618888,10.63107586
1691765279962763,-0.07200646,0.01644506,0.00576984,10.54507732
1691765279966584,-0.03503955,-0.02745210,0.00620854,10.31802940
1691765279970474,-0.01705524,0.02721849,0.00572776,10.23720360
1691765279973059,0.12234861,0.17979290,0.00142731,9.84205437
1691765279976974,-0.06422040,0.01725712,0.00498539,10.73119736
1691765279980700,-0.07693430,0.00921761,0.00489309,10.67910385
1691765279984766,-0.05885063,-0.01414455,0.00467277,10.58357811
1691765279987722,-0.05129468,0.01214515,0.00426993,10.43178082
1691765279991542,-0.02172184,-0.00244282,0.00442260,10.40165806
1691765279995886,0.01137333,0.03169367,0.00389062,10.32581806
1691765279999409,0.16403112,0.15580042,-0.00051201,9.88147545
1691765280002206,-0.01723011,0.06941194,0.00310687,10.77857685
1691765280005918,-0.03975279,0.03518317,0.00413692,10.73855400
1691765280009786,-0.07242378,-0.04287980,0.00440704,10.57905960
1691765280013645,-0.03618285,-0.07340387,0.00470764,10.50714779
1691765280017623,0.00539216,-0.03780164,0.00458498,10.41033649
1691765280020419,0.01426106,0.02998332,0.00363860,10.18352604
1691765280023878,-0.01458295,-0.00969333,0.00393058,10.60751152
1691765280027605,-0.02767556,0.01906372,0.00340873,10.62090111
1691765280031137,-0.04325948,0.02347163,0.00326394,10.39033699
1691765280034967,0.00069801,-0.01316762,0.00344320,10.36879921
1691765280038622,0.03891064,-0.00712804,0.00336009,10.40720177
1691765280042615,0.03104999,0.04996163,0.00245457,10.45235825
1691765280045991,0.15378143,0.18066980,-0.00137813,9.86728191
1691765280049695,0.07748676,0.15095860,-0.00030840,10.23621368
1691765280055004,-0.06989933,-0.01826769,0.00200048,10.97010612
1691765280057648,-0.04228976,-0.02928728,0.00268096,10.65727043
1691765280060459,0.01593927,-0.00647322,0.00373615,10.33233356
1691765280064000,0.10878666,0.07744861,0.00160976,10.00222206
1691765280067877,-0.06567967,-0.03555847,0.00310042,10.85466480
1691765280071739,0.06126466,0.01123206,0.00296817,10.24010849
1691765280075709,-0.04350315,-0.08003203,0.00379493,10.56875038
1691765280079689,-0.04045672,-0.05206054,0.00360423,10.53948593
1691765280082111,0.08502097,0.12471646,0.00090156,10.06671238
1691765280085967,0.06934515,0.09212158,0.00136208,10.19120216
1691765280090721,0.05035292,0.05845547,0.00125111,10.39522457
1691765280093103,-0.10961882,-0.06012065,0.00221575,10.93705559
1691765280099444,-0.13229787,-0.06693716,0.00200274,10.76002312
1691765280100813,-0.05400323,-0.14811048,0.00298511,10.44330120
1691765280104832,-0.02388343,-0.08329230,0.00278235,10.45377731
1691765280108466,0.00743422,-0.04312642,0.00257571,10.47040462
1691765280111357,0.13247176,0.10276113,-0.00030628,9.98946667
1691765280114966,0.10654406,0.13223204,0.00006358,10.08919430
1691765280118839,-0.04483651,-0.04754217,0.00307246,10.74619770
1691765280123251,-0.07629128,-0.09191209,0.00322406,10.95415020
1691765280127844,-0.10610504,-0.07554477,0.00305832,10.64177513
1691765280129572,-0.04174118,-0.10301352,0.00388963,10.41794682
1691765280136140,0.10659104,0.08768233,0.00112723,9.92190266
1691765280136768,0.07369003,0.06954678,0.00158433,10.19390202
1691765280140888,-0.09595925,-0.08103985,0.00332052,10.78953648
1691765280144744,-0.07792171,-0.09261744,0.00346829,10.77152443
1691765280151003,-0.08173086,-0.06625975,0.00330227,10.55152035
1691765280151841,-0.01505919,-0.11282158,0.00446003,10.36836147
1691765280155839,0.00485575,-0.04505382,0.00388644,10.34042931
1691765280158617,0.14282461,0.14283189,-0.00038646,9.91513157
1691765280162834,-0.00829484,-0.02151749,0.00385711,10.75619221
1691765280166838,-0.04539809,-0.01314906,0.00502263,10.66583252
1691765280169472,-0.07644841,-0.06781581,0.00529800,10.53916073
1691765280173054,0.00685653,-0.12057851,0.00648613,10.45819378
1691765280176867,0.02588757,-0.06228017,0.00605473,10.28652287
1691765280180828,0.14634551,0.11764214,0.00227719,9.79383945
1691765280184927,-0.04201963,-0.04853635,0.00517688,10.78916454
1691765280188658,-0.05054423,-0.07116406,0.00527341,10.72771549
1691765280191204,0.10193236,0.01059162,0.00468746,10.03764915
1691765280194983,-0.05879911,-0.07204466,0.00549105,10.62110996
1691765280198977,-0.01994678,-0.07400654,0.00578419,10.50518513
1691765280202834,0.13933866,0.08084408,0.00327783,9.99106026
1691765280205744,0.06430823,0.09756643,0.00312247,10.25079060
1691765280209280,-0.08945484,-0.05558637,0.00492749,10.86566067
1691765280213031,-0.10152777,-0.07279062,0.00493844,10.77341461
1691765280217775,-0.05649354,-0.10341312,0.00554996,10.55223274
1691765280220640,0.00794306,-0.01640375,0.00544152,10.19697762
1691765280224724,0.16590540,0.17944090,0.00112123,9.77972126
1691765280227652,-0.04175070,-0.08202710,0.00626553,10.82432079
1691765280231167,-0.08090413,-0.09349141,0.00619051,10.74362183
1691765280234916,-0.08475439,-0.05995603,0.00603212,10.56184387
1691765280239621,0.13187823,0.01614209,0.00537710,10.03852177
1691765280242243,0.03129323,-0.20435196,0.00876228,8.08078957
1691765280246871,0.18129861,-0.01566939,0.00626975,7.50753260
1691765280249867,0.10639116,0.01810267,0.00499698,7.78313589
1691765280254185,-0.09627067,-0.16387242,0.00588085,8.40721798
1691765280256704,-0.09741949,-0.23484275,0.00632998,8.22423172
1691765280260480,-0.08948214,-0.21687788,0.00636512,7.98261690
1691765280264125,-0.03575777,-0.19430673,0.00693799,8.02051258
1691765280267976,-0.04441584,-0.16173761,0.00645333,7.95481920
1691765280272094,-0.03626883,-0.12360086,0.00610653,8.01316261
1691765280274719,0.03530581,-0.07434429,0.00631038,8.02862930
1691765280278540,0.26025012,0.07218084,0.00246953,7.48708773
1691765280282149,0.04743209,-0.13564408,0.00738686,8.39898682
1691765280285997,-0.04025640,-0.11591670,0.00615671,8.49942875
1691765280289667,0.00556727,-0.08916987,0.00693071,8.39582157
1691765280293080,0.17189190,0.04185806,0.00464731,7.91261196
1691765280296784,0.10621243,0.03445968,0.00484454,8.22651482
1691765280300710,0.08360036,0.09201331,0.00433382,8.40265179
1691765280304284,0.06573199,-0.03444218,0.00671535,8.61995316
1691765280307597,-0.05105929,-0.13170558,0.00776840,8.95288944
1691765280311288,0.00480871,-0.06689656,0.00794029,8.87630081
1691765280314965,-0.09864529,-0.07529919,0.00752933,9.13776875
1691765280319128,-0.08568200,-0.08080377,0.00765497,9.19722176
1691765280323905,0.04970605,0.02475486,0.00659197,8.85441685
1691765280326892,0.07161798,0.05425798,0.00651501,8.98259258
1691765280329451,-0.04591088,-0.05924370,0.00866456,9.35598660
1691765280332953,-0.07131401,-0.03154317,0.00843523,9.48968410
1691765280337064,-0.06184458,-0.03766606,0.00869413,9.47434235
1691765280341229,0.02796813,0.05850587,0.00714809,9.25551605
1691765280344983,-0.02691355,0.02771200,0.00840968,9.52137947
1691765280349077,-0.05504370,0.00240558,0.00922296,9.61206818
1691765280351261,-0.00241864,0.04706445,0.00872116,9.53181553
1691765280355339,-0.06012616,0.03234722,0.00923138,9.72436142
1691765280359178,-0.06685204,0.03611086,0.00926125,9.77572346
1691765280362986,-0.06155185,0.04063592,0.00916452,9.81880569
1691765280366637,-0.06059507,0.04744634,0.00909038,9.85772228
1691765280369433,-0.05734210,0.04637918,0.00914195,9.89034843
1691765280373063,-0.05230157,0.04976131,0.00904424,9.91174603
1691765280377099,-0.05103267,0.06503481,0.00886082,9.94020939
1691765280380287,-0.04575981,0.06497203,0.00881711,9.94663811
1691765280384130,-0.00723846,0.08295131,0.00836499,9.90703964
1691765280388046,-0.03165428,0.09532534,0.00909814,9.97636604
1691765280392157,-0.02886205,0.08840989,0.01012077,9.99682236
1691765280395806,-0.02689241,0.09059335,0.01079780,10.00387764
1691765280398457,-0.02246828,0.09365975,0.01137778,10.01767826
1691765280402105,-0.00097412,0.12219889,0.01113028,9.98572826
1691765280405811,-0.00077695,0.12027469,0.01141529,10.00017834
1691765280410125,-0.00558902,0.12031674,0.01163863,10.01709843
1691765280413949,-0.03413545,0.08215843,0.01286238,10.11906528
1691765280416638,-0.05508647,0.00749384,0.01346402,10.24726772
1691765280420327,-0.05521563,0.02005043,0.01301734,10.25974178
1691765280424720,-0.01581178,0.08330468,0.01198322,10.13818932
1691765280427634,-0.04172957,0.03831165,0.01260262,10.23192883
1691765280431299,-0.03723276,0.04169547,0.01240926,10.25139332
1691765280435196,-0.01020968,0.09483265,0.01085265,10.15040970
1691765280439046,-0.00864171,0.10522524,0.00981378,10.15225410
1691765280443054,-0.00328697,0.09721021,0.00874108,10.18609047
1691765280445948,-0.00166717,0.08866873,0.00792933,10.27267742
1691765280450034,-0.08024653,0.01984426,0.00866401,10.53721142
1691765280452983,-0.09327065,0.02385349,0.00808452,10.55172729
1691765280457451,-0.07018002,0.03043410,0.00733646,10.50517464
1691765280461134,-0.04298735,0.03342347,0.00704717,10.43124676
1691765280464792,-0.03569851,0.04866670,0.00649391,10.38457870
1691765280468128,-0.00257651,0.09404953,0.00476233,10.25658321
1691765280472028,0.00256863,0.10388884,0.00346611,10.25031853
1691765280475863,-0.00924481,0.10613272,0.00232228,10.25896835
1691765280478605,-0.06641752,0.02814055,0.00271140,10.52223015
1691765280482084,-0.05703540,0.02760157,0.00193018,10.52402973
1691765280486179,-0.03145878,0.04189180,0.00187352,10.44421101
1691765280490137,-0.01698637,0.05648350,0.00226508,10.39749622
1691765280493046,0.00634715,0.08742127,0.00112896,10.28327656
1691765280497091,0.00925052,0.08118240,0.00056821,10.31262684
1691765280501176,-0.04240399,0.01581791,0.00092137,10.54258060
1691765280504855,-0.05094532,0.03223576,0.00036749,10.48867702
1691765280507540,-0.02892138,0.02429504,-0.00003109,10.43838024
1691765280511258,-0.01386797,0.03580557,-0.00055296,10.36863327
1691765280515173,0.00623072,0.07998682,-0.00171964,10.25281334
1691765280519168,0.00847673,0.07324800,-0.00200638,10.25372696
1691765280523122,-0.03288196,0.01801987,-0.00182817,10.44144344
1691765280525926,-0.03039857,0.02392331,-0.00231946,10.42778111
1691765280530275,-0.01332888,0.00901950,-0.00220790,10.40042210
1691765280533124,-0.00677467,0.01866189,-0.00239218,10.35730648
1691765280537178,0.02207873,0.06270816,-0.00359546,10.25270176
1691765280541136,0.03095496,0.08279750,-0.00366970,10.23077202
1691765280545013,-0.01231479,0.03512963,-0.00201895,10.37758350
1691765280547538,-0.02403143,-0.00928029,-0.00184155,10.46055317
1691765280551185,-0.01114813,-0.00126408,-0.00200797,10.41388702
1691765280555129,-0.00366508,-0.00040900,-0.00187814,10.38675404
1691765280559542,0.02609549,0.04053567,-0.00266040,10.25243950
1691765280562128,0.03057017,0.05038381,-0.00345831,10.22475433
1691765280565804,-0.00416186,-0.00816518,-0.00292282,10.40400696
1691765280569407,-0.02258745,-0.00337049,-0.00333698,10.40909290
1691765280572984,-0.00696739,-0.01144456,-0.00321613,10.36897564
1691765280576805,0.00957275,-0.00790379,-0.00320423,10.33778667
1691765280580400,0.03110232,0.03579411,-0.00394654,10.23077965
1691765280584591,0.02974137,0.03774577,-0.00419058,10.20702553
1691765280588460,0.00689273,-0.02686015,-0.00351732,10.37207222
1691765280592642,-0.00063239,0.01375982,-0.00335845,10.30868435
1691765280596888,0.03713975,0.02752670,-0.00259800,10.24451828
1691765280598441,0.02563856,-0.00213443,-0.00081839,10.29105854
1691765280602198,0.02374337,-0.02624480,-0.00045995,10.31687069
1691765280606200,0.03897871,0.01710601,-0.00128445,10.23353863
1691765280610315,0.00456803,-0.04548880,-0.00054632,10.38301659
1691765280614035,-0.01124267,-0.03846706,-0.00072825,10.37582970
1691765280617389,0.00418777,-0.03839270,-0.00074960,10.36092377
1691765280621345,0.02031660,-0.03373883,-0.00067997,10.31236362
1691765280623908,0.03925117,0.00695311,-0.00097388,10.20812130
1691765280628273,0.03855774,0.01379981,-0.00157408,10.19037914
1691765280632171,0.03511078,0.01630780,-0.00201150,10.18237400
1691765280635234,0.00519121,-0.05322919,-0.00129144,10.30856037
1691765280638520,-0.00357672,-0.04686514,-0.00150117,10.28928661
1691765280643410,0.04110328,-0.01429264,-0.00178061,10.21243477
1691765280646316,0.03174223,-0.02935441,-0.00112123,10.24192238
1691765280650069,0.04395214,0.01195724,-0.00071009,10.17788124
1691765280652965,0.03195300,0.00589438,-0.00081084,10.17788315
1691765280656615,0.03888065,-0.00908700,-0.00077227,10.20059776
1691765280660608,-0.00340757,-0.07208323,-0.00031183,10.33469772
1691765280663977,-0.00853933,-0.07828577,-0.00032612,10.32461166
1691765280668198,0.01546114,-0.09020706,0.00000269,10.30788326
1691765280671299,0.02347918,-0.07107385,-0.00007822,10.27351856
1691765280675177,0.03882103,-0.02157332,-0.00059481,10.18460846
1691765280679254,0.03933509,-0.01337439,-0.00077348,10.16757393
1691765280682984,0.04115813,-0.02090234,-0.00080644,10.17547798
1691765280685822,0.00997652,-0.09347174,-0.00011567,10.27366543
1691765280689766,-0.00651655,-0.07503711,-0.00041698,10.25782871
1691765280693154,0.03118208,-0.03621482,-0.00051121,10.18820286
1691765280697190,0.02448348,-0.08886895,0.00016952,10.25915909
1691765280701232,0.04485323,-0.02908864,-0.00039741,10.17947674
1691765280704024,0.03639721,-0.01278963,-0.00068142,10.16400433
1691765280707563,0.04225717,-0.00096608,-0.00076792,10.15713120
1691765280711291,0.01858135,-0.05813742,0.00046373,10.25774097
1691765280715320,-0.01246631,-0.08429581,0.00067681,10.30141258
1691765280718445,-0.01089786,-0.07833216,0.00046637,10.28108120
1691765280722224,0.00879205,-0.09390435,0.00072468,10.28496456
1691765280726320,0.02532998,-0.08618627,0.00113557,10.26252747
1691765280730216,0.04356013,-0.02608981,0.00047444,10.17581844
1691765280733026,0.03609392,-0.01136159,-0.00008905,10.16565418
1691765280737223,0.01051062,-0.08514875,0.00105476,10.26843357
1691765280741231,0.00186963,-0.09200239,0.00145056,10.28734493
1691765280743902,-0.00183415,-0.06754303,0.00128039,10.27462196
1691765280747576,0.00884219,-0.07208756,0.00160043,10.25727558
1691765280751386,0.02478390,-0.07702458,0.00221821,10.26143360
1691765280755307,0.01785061,-0.04903102,0.00206709,10.23044682
1691765280759307,0.03101605,-0.00171176,0.00152914,10.17083931
1691765280762420,0.03440245,0.00235180,0.00142381,10.17470741
1691765280765673,0.00863477,-0.07699053,0.00270082,10.30173969
1691765280769451,0.00567424,-0.02689344,0.00293573,10.25718784
1691765280772932,0.00324760,-0.02112148,0.00321450,10.25943947
1691765280777282,0.02172402,-0.03619011,0.00420765,10.27306366
1691765280780233,0.01924079,-0.05445766,0.00509200,10.27708435
1691765280784360,0.01312170,-0.03810589,0.00527533,10.25155258
1691765280788262,0.04081422,-0.00012397,0.00448092,10.18830872
1691765280792126,0.03806038,0.00943644,0.00424737,10.18448067
1691765280794969,-0.00082972,-0.05265188,0.00525888,10.29431915
1691765280798422,-0.00725117,-0.05284633,0.00512344,10.31708527
1691765280802375,-0.00035742,-0.05697331,0.00533309,10.32222843
1691765280806278,0.00537549,-0.04739533,0.00584413,10.29559994
1691765280810369,0.00369328,-0.02853556,0.00592699,10.28774643
1691765280813410,0.03556532,0.01336466,0.00530825,10.22013569
1691765280817767,0.03141752,0.02833801,0.00505453,10.21047783
1691765280820471,0.02193733,0.02756221,0.00499432,10.22916698
1691765280824306,-0.00816490,-0.04946249,0.00611223,10.37993813
1691765280828367,-0.01159103,-0.04358699,0.00615728,10.38662338
1691765280832073,-0.01281041,0.00260086,0.00623622,10.31885719
1691765280835304,-0.00906125,0.00091770,0.00692632,10.30757046
1691765280838800,0.00655263,0.00910630,0.00761547,10.27617264
1691765280842391,0.03044786,0.02697985,0.00725322,10.23580837
1691765280847402,0.01635123,0.03805699,0.00688695,10.22151279
1691765280852066,0.01988772,0.02567131,0.00698256,10.24968052
1691765280853115,-0.01153024,-0.05008113,0.00808351,10.40998459
1691765280856551,-0.02753826,-0.03345979,0.00786638,10.41874313
1691765280860492,-0.02074531,-0.03077929,0.00794118,10.39830494
1691765280865984,-0.00018958,-0.02583047,0.00796076,10.36698818
1691765280868404,0.02070491,0.03565010,0.00676098,10.27080441
1691765280872121,0.01086300,0.05117299,0.00622909,10.24944687
1691765280874914,0.00355637,0.05096542,0.00591955,10.24529457
1691765280878735,-0.02956106,-0.03324465,0.00702957,10.42417717
1691765280882451,-0.02517061,0.00316267,0.00687588,10.39054012
1691765280886386,-0.02391754,0.02159589,0.00722289,10.34346962
1691765280889287,-0.00884564,-0.03022377,0.00789383,10.37255764
1691765280893573,-0.00687360,-0.00043111,0.00739408,10.33464527
1691765280897266,-0.00260589,0.05079443,0.00632968,10.24710274
1691765280901220,-0.00147773,0.05698137,0.00572049,10.23703861
1691765280904001,-0.02253372,-0.00569624,0.00638392,10.36249447
1691765280907526,-0.03066639,0.00231965,0.00606782,10.35753059
1691765280911417,-0.00127774,0.04436720,0.00521610,10.26547909
1691765280915337,-0.01429207,0.00871543,0.00571816,10.30297184
1691765280920377,0.00734331,0.06329063,0.00492369,10.22712040
1691765280922200,0.00565754,0.07680201,0.00479881,10.20914555
1691765280926560,-0.03179723,0.00720888,0.00573063,10.31625366
1691765280930258,-0.03486075,-0.00059046,0.00559604,10.32353115
1691765280933427,-0.03046810,0.00159859,0.00535968,10.29960442
1691765280937546,-0.02681847,0.01427267,0.00516509,10.27302265
1691765280941310,-0.00199777,0.05088576,0.00439609,10.20742798
1691765280943968,0.00316959,0.05616947,0.00384073,10.18695068
1691765280947460,-0.02744703,0.01497829,0.00426255,10.26437855
1691765280951343,-0.03488566,0.01941348,0.00408104,10.25916672
1691765280955431,-0.03021541,0.01665133,0.00402757,10.23985195
1691765280960491,-0.01832964,0.03952866,0.00428896,10.21610165
1691765280962583,-0.01550819,0.04899260,0.00466714,10.20246601
1691765280966911,0.01003311,0.05733216,0.00431491,10.14811516
1691765280969545,0.01124861,0.06036828,0.00372064,10.14384747
1691765280972942,-0.01852679,0.01966225,0.00425811,10.22086334
1691765280976799,-0.03003585,0.02185118,0.00423719,10.22564983
1691765280980542,-0.03436188,0.01723810,0.00425083,10.22944260
1691765280984680,-0.02461304,0.01896732,0.00409881,10.21603680
1691765280987706,-0.01513732,0.01947973,0.00409523,10.20766449
1691765280991453,-0.01558902,0.02830130,0.00395712,10.19183159
1691765280995649,0.01587698,0.05464883,0.00301834,10.13171387
1691765280998433,0.01465201,0.06241365,0.00258647,10.13076305
1691765281002617,-0.02389435,0.02712940,0.00323834,10.19693947
1691765281007025,-0.02846553,0.02269066,0.00322468,10.20838451
1691765281010279,-0.02603913,0.02434286,0.00311298,10.20488358
1691765281013061,-0.01839099,0.01951356,0.00309213,10.20565128
1691765281016645,-0.01192331,0.02169093,0.00311791,10.19832134
1691765281020667,0.03202893,0.07376281,0.00298738,10.12078762
1691765281024458,0.02475065,0.07169798,0.00328820,10.12382126
1691765281028623,0.01433128,0.06726620,0.00403327,10.14579201
1691765281031174,-0.01328910,0.03656990,0.00598549,10.20302010
1691765281035677,-0.02163755,0.00081321,0.00639007,10.24194431
1691765281038592,-0.02126470,0.00131202,0.00631467,10.25338459
1691765281042519,0.00855420,0.03258239,0.00596049,10.19299221
1691765281046686,-0.00626560,0.00082898,0.00643437,10.23125076
1691765281050292,-0.00405265,0.01360091,0.00620073,10.22397137
1691765281053111,0.01250732,0.04465538,0.00560494,10.18272400
1691765281056686,0.00853890,0.04818107,0.00531545,10.17551994
1691765281060699,0.00578700,0.04444105,0.00498287,10.18958187
1691765281064510,-0.01634189,-0.00159834,0.00545903,10.27133656
1691765281068097,-0.02105807,-0.00255802,0.00542883,10.28243065
1691765281071627,0.00659764,0.03046844,0.00482707,10.22049141
1691765281076146,-0.00325836,0.00283226,0.00520121,10.27146816
1691765281078554,0.00833736,0.03764723,0.00479924,10.21201897
1691765281082807,0.00582761,0.04344321,0.00441515,10.20431042
1691765281086666,0.00850632,0.04435385,0.00387941,10.20412445
1691765281089408,-0.01247074,-0.01164039,0.00461699,10.32304859
1691765281093178,-0.01874595,-0.01236044,0.00449103,10.33857727
1691765281096587,-0.01835326,0.02150770,0.00440249,10.27502823
1691765281100739,-0.00205436,0.01136691,0.00568126,10.28144169
1691765281104618,0.00259019,-0.00768473,0.00604692,10.29754257
1691765281107626,0.01530329,0.03015665,0.00530245,10.22874165
1691765281111655,0.01778449,0.03606273,0.00478526,10.21657753
1691765281115646,0.02270034,0.03055440,0.00442789,10.22783566
1691765281119447,-0.01441068,-0.02881914,0.00527446,10.33967972
1691765281122103,-0.02528918,-0.00993056,0.00494181,10.32233238
1691765281126005,0.01828318,0.01339460,0.00460153,10.25689983
1691765281129796,0.00704608,-0.01858127,0.00508692,10.30448437
1691765281133563,0.01918120,0.02395187,0.00444869,10.23006058
1691765281137783,0.01998975,0.03217066,0.00387199,10.22394276
1691765281140357,-0.00221634,-0.02061454,0.00451730,10.33146954
1691765281144030,-0.01024787,-0.02081368,0.00456479,10.33630085
1691765281147839,-0.00441169,0.01040275,0.00526154,10.28648376
1691765281151666,0.00450155,0.00218636,0.00573156,10.28408813
1691765281155703,0.01466970,0.00857985,0.00662847,10.26462746
1691765281159467,0.02957719,0.02371349,0.00628377,10.21997166
1691765281162128,0.02305147,0.02593123,0.00584082,10.21241379
1691765281165659,-0.00116056,-0.03104380,0.00661561,10.29989052
1691765281169957,-0.00159066,-0.03428402,0.00672510,10.30877113
1691765281173602,-0.00300538,-0.02049969,0.00652614,10.29506493
1691765281176748,0.00805095,-0.03087096,0.00668380,10.28970146
1691765281180236,0.01577230,-0.02637700,0.00666234,10.28188419
1691765281184020,0.02835603,0.01338164,0.00594467,10.22026443
1691765281187593,0.02379454,0.02088383,0.00540023,10.21285057
1691765281191218,0.00438551,-0.02612249,0.00593113,10.29078388
1691765281195062,0.00434162,-0.02753947,0.00587874,10.29782677
1691765281198513,-0.00738041,-0.01043069,0.00540653,10.26820660
1691765281202104,0.01294432,-0.00691169,0.00564497,10.25265121
1691765281205686,0.01627747,0.00232791,0.00616092,10.23039722
1691765281209532,0.04055253,0.01511023,0.00565679,10.18785095
1691765281213673,0.03266210,0.01754196,0.00520751,10.18512821
1691765281216844,0.00964605,-0.03226822,0.00578604,10.26070213
1691765281220790,0.00848970,-0.03879976,0.00577071,10.27062130
1691765281224614,0.00864716,-0.03621674,0.00567985,10.25821590
1691765281228459,0.01343743,-0.02732505,0.00556641,10.23953247
1691765281231221,0.04766612,0.00152982,0.00487632,10.17804909
1691765281234748,0.04087093,0.00819376,0.00436345,10.17603111
1691765281238770,0.00448743,-0.02982057,0.00480937,10.24414444
1691765281243237,0.00302702,-0.03641409,0.00471434,10.25235367
1691765281246704,-0.00050407,-0.03389560,0.00441712,10.25398636
1691765281249353,0.00324470,-0.03912369,0.00451150,10.24661636
1691765281253009,0.00675094,-0.03933272,0.00458919,10.23433208
1691765281256718,0.01547593,-0.03545360,0.00453330,10.22656345
1691765281260792,0.06861989,0.02342897,0.00408640,10.14135933
1691765281264768,0.05651546,0.02350429,0.00430555,10.14844990
1691765281268577,0.01440859,-0.01248019,0.00524431,10.22986698
1691765281271409,0.01028683,-0.04799531,0.00569272,10.27332973
1691765281274730,0.00097940,-0.03756981,0.00562936,10.25253010
1691765281278804,0.00699874,-0.04047222,0.00578898,10.24556637
1691765281282873,0.01546134,-0.03865707,0.00585299,10.23283577
1691765281286820,0.04033402,-0.00053537,0.00509651,10.17688656
1691765281289901,0.02337721,0.00541749,0.00475382,10.19652367
