timestamp,roll,pitch,thrust,yaw,aux1,aux2,aux3,aux4
1704716169389976,1500,1500,1000,1500,1000,0,0,0
1704716169393481,1500,1500,1000,1500,1000,0,0,0
1704716169395649,1500,1500,1000,1500,1000,0,0,0
1704716169397990,1500,1500,1000,1500,1000,0,0,0
1704716169401221,1500,1500,1000,1500,1000,0,0,0
1704716169403970,1500,1500,1000,1500,1000,0,0,0
1704716169407044,1500,1500,1000,1500,1000,0,0,0
1704716169409972,1500,1500,1000,1500,1000,0,0,0
1704716169412988,1500,1500,1000,1500,1000,0,0,0
1704716169416056,1500,1500,1000,1500,1000,0,0,0
1704716169419090,1500,1500,1000,1500,1000,0,0,0
1704716169422315,1500,1500,1000,1500,1000,0,0,0
1704716169424985,1500,1500,1000,1500,1000,0,0,0
1704716169427963,1500,1500,1000,1500,1000,0,0,0
1704716169431275,1500,1500,1000,1500,1000,0,0,0
1704716169434316,1500,1500,1000,1500,1000,0,0,0
1704716169437260,1500,1500,1000,1500,1000,0,0,0
1704716169440269,1500,1500,1000,1500,1000,0,0,0
1704716169442990,1500,1500,1000,1500,1000,0,0,0
1704716169445933,1500,1500,1000,1500,1000,0,0,0
1704716169449404,1500,1500,1000,1500,1000,0,0,0
1704716169451971,1500,1500,1000,1500,1000,0,0,0
1704716169455140,1500,1500,1000,1500,1000,0,0,0
1704716169458363,1500,1500,1000,1500,1000,0,0,0
1704716169460828,1500,1500,1000,1500,1000,0,0,0
1704716169463913,1500,1500,1000,1500,1000,0,0,0
1704716169467506,1500,1500,1000,1500,1000,0,0,0
1704716169480683,1505,1514,1141,1487,1000,0,0,0
1704716169487532,1488,1475,1257,1488,1000,0,0,0
1704716169494230,1486,1471,1259,1488,1000,0,0,0
1704716169500727,1486,1471,1253,1488,1000,0,0,0
1704716169507507,1486,1472,1246,1489,1000,0,0,0
1704716169514336,1487,1474,1239,1489,1000,0,0,0
1704716169519745,1488,1477,1232,1490,1000,0,0,0
1704716169526111,1489,1480,1225,1491,1000,0,0,0
1704716169532443,1491,1486,1217,1492,1000,0,0,0
1704716169538772,1493,1492,1210,1492,1000,0,0,0
1704716169545123,1497,1503,1199,1492,1000,0,0,0
1704716169551646,1501,1510,1192,1492,1000,0,0,0
1704716169557710,1504,1515,1187,1492,1000,0,0,0
1704716169564069,1507,1520,1183,1492,1000,0,0,0
1704716169570567,1510,1523,1179,1492,1000,0,0,0
1704716169576660,1512,1524,1177,1493,1000,0,0,0
1704716169582969,1513,1524,1175,1493,1000,0,0,0
1704716169589227,1514,1522,1174,1493,1000,0,0,0
1704716169595609,1513,1519,1174,1494,1000,0,0,0
1704716169601882,1512,1514,1176,1494,1000,0,0,0
1704716169608171,1510,1510,1178,1494,1000,0,0,0
1704716169614693,1508,1506,1180,1494,1000,0,0,0
1704716169620836,1505,1503,1184,1494,1000,0,0,0
1704716169627118,1503,1500,1189,1495,1000,0,0,0
1704716169633353,1500,1497,1194,1495,1000,0,0,0
1704716169639750,1498,1495,1199,1495,1000,0,0,0
1704716169645996,1496,1494,1206,1495,1000,0,0,0
1704716169652306,1494,1494,1212,1496,1000,0,0,0
1704716169658728,1494,1496,1217,1496,1000,0,0,0
1704716169665062,1494,1501,1214,1496,1000,0,0,0
1704716169671309,1495,1504,1210,1497,1000,0,0,0
1704716169677573,1495,1506,1204,1497,1000,0,0,0
1704716169683895,1496,1509,1199,1497,1000,0,0,0
1704716169690227,1496,1511,1195,1497,1000,0,0,0
1704716169696569,1497,1512,1194,1497,1000,0,0,0
1704716169702716,1498,1513,1193,1497,1000,0,0,0
1704716169709071,1499,1513,1192,1497,1000,0,0,0
1704716169715384,1500,1511,1192,1497,1000,0,0,0
1704716169721855,1500,1509,1192,1497,1000,0,0,0
1704716169728012,1501,1507,1192,1497,1000,0,0,0
1704716169734328,1501,1504,1191,1497,1000,0,0,0
1704716169740732,1502,1500,1192,1497,1000,0,0,0
1704716169746881,1502,1497,1192,1497,1000,0,0,0
1704716169753108,1501,1493,1192,1497,1000,0,0,0
1704716169759456,1501,1490,1192,1498,1000,0,0,0
1704716169765801,1500,1486,1193,1498,1000,0,0,0
1704716169772174,1500,1484,1193,1498,1000,0,0,0
1704716169778438,1499,1482,1194,1498,1000,0,0,0
1704716169784690,1498,1482,1195,1498,1000,0,0,0
1704716169791034,1497,1483,1197,1498,1000,0,0,0
1704716169797454,1496,1485,1198,1498,1000,0,0,0
1704716169803550,1496,1488,1200,1498,1000,0,0,0
1704716169809868,1495,1492,1201,1498,1000,0,0,0
1704716169816158,1495,1496,1203,1498,1000,0,0,0
1704716169822406,1495,1501,1204,1498,1000,0,0,0
1704716169828699,1496,1505,1204,1498,1000,0,0,0
1704716169835121,1497,1508,1203,1498,1000,0,0,0
1704716169841370,1498,1512,1202,1498,1000,0,0,0
1704716169847687,1499,1514,1201,1498,1000,0,0,0
1704716169854047,1501,1515,1201,1498,1000,0,0,0
1704716169860300,1502,1515,1201,1498,1000,0,0,0
1704716169866781,1503,1513,1201,1498,1000,0,0,0
1704716169872951,1504,1511,1203,1498,1000,0,0,0
1704716169879300,1505,1508,1204,1498,1000,0,0,0
1704716169885615,1505,1504,1205,1498,1000,0,0,0
1704716169892060,1504,1500,1206,1498,1000,0,0,0
1704716169898235,1503,1496,1206,1498,1000,0,0,0
1704716169904482,1502,1493,1206,1498,1000,0,0,0
1704716169910724,1501,1490,1205,1498,1000,0,0,0
1704716169917125,1499,1486,1205,1499,1000,0,0,0
1704716169923455,1497,1484,1205,1499,1000,0,0,0
1704716169929697,1496,1483,1205,1499,1000,0,0,0
1704716169935966,1495,1483,1206,1499,1000,0,0,0
1704716169942275,1494,1485,1207,1499,1000,0,0,0
1704716169948688,1493,1487,1208,1499,1000,0,0,0
1704716169954971,1493,1490,1210,1499,1000,0,0,0
1704716169961370,1494,1494,1212,1499,1000,0,0,0
1704716169967680,1494,1497,1213,1499,1000,0,0,0
1704716169974005,1496,1501,1212,1499,1000,0,0,0
1704716169980625,1497,1505,1211,1499,1000,0,0,0
1704716169986644,1499,1508,1209,1499,1000,0,0,0
1704716169992837,1501,1511,1208,1499,1000,0,0,0
1704716169999145,1502,1512,1207,1499,1000,0,0,0
1704716170005588,1504,1513,1207,1499,1000,0,0,0
1704716170012035,1505,1513,1208,1499,1000,0,0,0
1704716170018154,1506,1512,1210,1499,1000,0,0,0
1704716170024380,1507,1511,1213,1499,1000,0,0,0
1704716170030812,1508,1509,1215,1499,1000,0,0,0
1704716170037048,1507,1505,1221,1499,1000,0,0,0
1704716170043412,1506,1502,1224,1499,1000,0,0,0
1704716170049587,1504,1499,1225,1499,1000,0,0,0
1704716170055917,1502,1496,1225,1499,1000,0,0,0
1704716170062194,1500,1493,1224,1499,1000,0,0,0
1704716170068475,1498,1490,1224,1499,1000,0,0,0
1704716170074763,1496,1489,1224,1499,1000,0,0,0
1704716170081033,1495,1488,1224,1499,1000,0,0,0
1704716170087313,1493,1488,1224,1499,1000,0,0,0
1704716170093678,1493,1489,1224,1499,1000,0,0,0
1704716170100032,1492,1492,1225,1499,1000,0,0,0
1704716170106241,1492,1494,1226,1499,1000,0,0,0
1704716170112657,1493,1496,1227,1499,1000,0,0,0
1704716170118763,1494,1499,1228,1499,1000,0,0,0
1704716170125097,1495,1501,1229,1499,1000,0,0,0
1704716170131299,1497,1503,1228,1499,1000,0,0,0
1704716170137657,1499,1506,1228,1499,1000,0,0,0
1704716170143907,1501,1508,1228,1499,1000,0,0,0
1704716170150273,1503,1509,1227,1499,1000,0,0,0
1704716170156705,1505,1510,1228,1499,1000,0,0,0
1704716170162995,1506,1509,1230,1499,1000,0,0,0
1704716170169383,1506,1507,1231,1499,1000,0,0,0
1704716170175515,1506,1506,1232,1499,1000,0,0,0
1704716170181872,1505,1504,1234,1499,1000,0,0,0
1704716170188192,1504,1501,1236,1499,1000,0,0,0
1704716170194463,1503,1499,1237,1499,1000,0,0,0
1704716170200770,1502,1498,1239,1499,1000,0,0,0
1704716170207090,1500,1496,1241,1499,1000,0,0,0
1704716170213293,1499,1495,1242,1499,1000,0,0,0
1704716170219554,1498,1494,1244,1499,1000,0,0,0
1704716170226005,1496,1494,1246,1499,1000,0,0,0
1704716170232186,1495,1494,1247,1499,1000,0,0,0
1704716170238489,1495,1495,1248,1499,1000,0,0,0
1704716170244708,1495,1496,1249,1499,1000,0,0,0
1704716170251039,1495,1497,1249,1499,1000,0,0,0
1704716170257424,1495,1498,1250,1499,1000,0,0,0
1704716170263665,1496,1500,1251,1499,1000,0,0,0
1704716170269935,1496,1501,1251,1499,1000,0,0,0
1704716170276315,1497,1502,1251,1499,1000,0,0,0
1704716170282575,1498,1503,1251,1499,1000,0,0,0
1704716170288906,1499,1503,1250,1499,1000,0,0,0
1704716170295186,1500,1503,1249,1499,1000,0,0,0
1704716170301371,1500,1503,1249,1499,1000,0,0,0
1704716170307656,1501,1503,1248,1499,1000,0,0,0
1704716170313920,1501,1503,1247,1499,1000,0,0,0
1704716170320132,1502,1502,1248,1499,1000,0,0,0
1704716170326465,1502,1501,1248,1499,1000,0,0,0
1704716170332692,1503,1501,1248,1499,1000,0,0,0
1704716170338963,1502,1500,1248,1499,1000,0,0,0
1704716170345252,1502,1499,1248,1499,1000,0,0,0
1704716170351464,1502,1498,1248,1499,1000,0,0,0
1704716170357711,1501,1498,1247,1499,1000,0,0,0
1704716170364031,1500,1497,1247,1499,1000,0,0,0
1704716170370295,1499,1497,1247,1499,1000,0,0,0
1704716170376679,1498,1497,1247,1499,1000,0,0,0
1704716170382797,1498,1497,1247,1499,1000,0,0,0
1704716170389131,1497,1497,1247,1499,1000,0,0,0
1704716170395459,1497,1498,1247,1499,1000,0,0,0
1704716170401830,1497,1499,1247,1499,1000,0,0,0
1704716170408033,1497,1499,1247,1499,1000,0,0,0
1704716170414359,1498,1500,1247,1499,1000,0,0,0
1704716170420914,1498,1500,1247,1499,1000,0,0,0
1704716170426978,1499,1500,1247,1499,1000,0,0,0
1704716170433181,1499,1501,1248,1499,1000,0,0,0
1704716170439503,1500,1501,1248,1499,1000,0,0,0
1704716170445725,1500,1501,1248,1499,1000,0,0,0
1704716170451975,1501,1501,1248,1500,1000,0,0,0
1704716170458278,1501,1501,1249,1500,1000,0,0,0
1704716170464492,1501,1501,1249,1500,1000,0,0,0
1704716170470823,1501,1501,1249,1500,1000,0,0,0
1704716170476877,1501,1501,1250,1500,1000,0,0,0
1704716170483267,1501,1501,1250,1500,1000,0,0,0
1704716170489736,1501,1501,1251,1500,1000,0,0,0
1704716170496021,1500,1501,1251,1500,1000,0,0,0
1704716170502320,1500,1501,1252,1500,1000,0,0,0
1704716170508697,1499,1501,1252,1500,1000,0,0,0
1704716170514959,1499,1501,1253,1500,1000,0,0,0
1704716170521365,1499,1500,1253,1500,1000,0,0,0
1704716170527520,1498,1500,1254,1500,1000,0,0,0
1704716170533930,1498,1500,1254,1500,1000,0,0,0
1704716170540200,1498,1500,1255,1500,1000,0,0,0
1704716170546500,1498,1500,1255,1500,1000,0,0,0
1704716170552767,1498,1500,1256,1500,1000,0,0,0
1704716170559192,1499,1500,1257,1500,1000,0,0,0
1704716170565509,1499,1500,1257,1500,1000,0,0,0
1704716170571685,1499,1500,1257,1500,1000,0,0,0
1704716170577979,1499,1500,1258,1500,1000,0,0,0
1704716170584358,1500,1500,1257,1500,1000,0,0,0
1704716170590748,1500,1499,1257,1500,1000,0,0,0
1704716170596906,1500,1499,1256,1500,1000,0,0,0
1704716170603139,1500,1499,1256,1500,1000,0,0,0
1704716170609526,1500,1498,1255,1500,1000,0,0,0
1704716170615782,1500,1498,1255,1500,1000,0,0,0
1704716170622119,1500,1498,1255,1500,1000,0,0,0
1704716170628327,1501,1499,1256,1500,1000,0,0,0
1704716170634723,1501,1499,1258,1500,1000,0,0,0
1704716170641087,1501,1499,1259,1500,1000,0,0,0
1704716170647285,1501,1499,1259,1500,1000,0,0,0
1704716170653634,1501,1499,1259,1500,1000,0,0,0
1704716170659924,1501,1499,1260,1500,1000,0,0,0
1704716170666220,1501,1499,1260,1500,1000,0,0,0
1704716170672540,1501,1499,1260,1500,1000,0,0,0
1704716170678841,1500,1499,1260,1500,1000,0,0,0
1704716170685125,1500,1498,1260,1500,1000,0,0,0
1704716170691365,1500,1498,1260,1500,1000,0,0,0
1704716170697785,1500,1498,1260,1500,1000,0,0,0
1704716170704051,1500,1498,1259,1500,1000,0,0,0
1704716170710250,1499,1498,1258,1500,1000,0,0,0
1704716170716697,1499,1498,1258,1500,1000,0,0,0
1704716170722889,1499,1498,1257,1500,1000,0,0,0
1704716170729162,1499,1498,1256,1500,1000,0,0,0
1704716170735438,1499,1499,1255,1500,1000,0,0,0
1704716170741869,1499,1499,1255,1500,1000,0,0,0
1704716170748093,1499,1499,1254,1500,1000,0,0,0
1704716170754453,1499,1499,1254,1500,1000,0,0,0
1704716170760734,1499,1499,1254,1500,1000,0,0,0
1704716170767062,1499,1499,1254,1500,1000,0,0,0
1704716170773262,1499,1499,1254,1500,1000,0,0,0
1704716170779606,1499,1500,1255,1500,1000,0,0,0
1704716170785826,1499,1500,1255,1500,1000,0,0,0
1704716170792089,1499,1500,1256,1500,1000,0,0,0
1704716170798442,1499,1499,1256,1500,1000,0,0,0
1704716170804818,1499,1499,1257,1500,1000,0,0,0
1704716170812139,1500,1499,1259,1500,1000,0,0,0
1704716170817438,1500,1499,1260,1500,1000,0,0,0
1704716170823602,1500,1499,1260,1500,1000,0,0,0
1704716170829980,1500,1499,1261,1500,1000,0,0,0
1704716170836224,1500,1499,1262,1500,1000,0,0,0
1704716170842673,1500,1499,1263,1500,1000,0,0,0
1704716170848958,1500,1499,1264,1500,1000,0,0,0
1704716170855486,1500,1499,1264,1500,1000,0,0,0
1704716170861584,1500,1499,1264,1500,1000,0,0,0
1704716170868263,1500,1499,1265,1500,1000,0,0,0
1704716170874247,1500,1499,1265,1500,1000,0,0,0
1704716170880829,1501,1499,1265,1500,1000,0,0,0
1704716170886891,1501,1499,1265,1500,1000,0,0,0
1704716170893184,1500,1500,1264,1500,1000,0,0,0
1704716170899408,1500,1500,1263,1500,1000,0,0,0
1704716170905677,1500,1500,1262,1500,1000,0,0,0
1704716170911980,1500,1500,1261,1500,1000,0,0,0
1704716170918300,1499,1500,1260,1500,1000,0,0,0
1704716170924808,1499,1500,1259,1500,1000,0,0,0
1704716170930872,1500,1501,1259,1500,1000,0,0,0
1704716170937263,1500,1501,1259,1500,1000,0,0,0
1704716170943452,1501,1502,1260,1500,1000,0,0,0
1704716170953361,1501,1503,1260,1500,1000,0,0,0
1704716170955963,1502,1503,1260,1500,1000,0,0,0
1704716170962262,1502,1503,1260,1500,1000,0,0,0
1704716170968696,1502,1503,1260,1500,1000,0,0,0
1704716170974830,1502,1503,1260,1500,1000,0,0,0
1704716170981104,1502,1503,1260,1500,1000,0,0,0
1704716170987528,1502,1503,1261,1500,1000,0,0,0
1704716170993871,1502,1502,1261,1500,1000,0,0,0
1704716171000099,1502,1502,1261,1500,1000,0,0,0
1704716171006388,1502,1502,1262,1500,1000,0,0,0
1704716171012650,1502,1502,1262,1500,1000,0,0,0
1704716171018839,1502,1502,1263,1500,1000,0,0,0
1704716171025253,1502,1502,1263,1500,1000,0,0,0
1704716171031491,1502,1502,1264,1500,1000,0,0,0
1704716171037736,1501,1501,1264,1500,1000,0,0,0
1704716171044009,1501,1501,1265,1500,1000,0,0,0
1704716171050374,1501,1501,1265,1500,1000,0,0,0
1704716171056871,1501,1501,1266,1500,1000,0,0,0
1704716171062974,1501,1501,1266,1500,1000,0,0,0
1704716171069305,1501,1501,1267,1500,1000,0,0,0
1704716171075563,1501,1501,1268,1500,1000,0,0,0
1704716171081978,1501,1500,1268,1500,1000,0,0,0
1704716171088144,1501,1501,1268,1500,1000,0,0,0
1704716171094377,1501,1501,1268,1500,1000,0,0,0
1704716171100855,1501,1501,1269,1500,1000,0,0,0
1704716171107064,1501,1501,1269,1500,1000,0,0,0
1704716171113483,1501,1501,1269,1500,1000,0,0,0
1704716171119580,1501,1502,1269,1500,1000,0,0,0
1704716171125972,1501,1502,1268,1500,1000,0,0,0
1704716171132174,1501,1502,1268,1500,1000,0,0,0
1704716171138487,1501,1502,1268,1500,1000,0,0,0
1704716171144815,1501,1502,1268,1500,1000,0,0,0
1704716171150960,1501,1502,1267,1500,1000,0,0,0
1704716171157241,1501,1502,1267,1500,1000,0,0,0
1704716171163595,1501,1502,1266,1500,1000,0,0,0
1704716171169849,1500,1502,1266,1500,1000,0,0,0
1704716171176234,1500,1502,1265,1500,1000,0,0,0
1704716171182516,1500,1501,1265,1500,1000,0,0,0
1704716171188953,1499,1501,1264,1500,1000,0,0,0
1704716171195348,1499,1501,1264,1500,1000,0,0,0
1704716171201458,1498,1501,1263,1500,1000,0,0,0
1704716171207792,1498,1500,1262,1500,1000,0,0,0
1704716171213951,1497,1500,1262,1500,1000,0,0,0
1704716171220154,1497,1500,1262,1500,1000,0,0,0
1704716171226423,1497,1499,1261,1500,1000,0,0,0
1704716171232712,1497,1499,1261,1500,1000,0,0,0
1704716171238902,1497,1499,1261,1500,1000,0,0,0
1704716171245209,1498,1500,1262,1500,1000,0,0,0
1704716171252271,1499,1500,1263,1500,1000,0,0,0
1704716171257927,1499,1500,1265,1500,1000,0,0,0
1704716171264171,1500,1501,1265,1500,1000,0,0,0
1704716171270682,1500,1501,1266,1500,1000,0,0,0
1704716171276702,1500,1501,1266,1500,1000,0,0,0
1704716171282976,1500,1501,1267,1500,1000,0,0,0
1704716171289469,1500,1501,1268,1500,1000,0,0,0
1704716171295653,1500,1501,1269,1500,1000,0,0,0
1704716171301834,1500,1501,1269,1500,1000,0,0,0
1704716171308155,1499,1501,1269,1500,1000,0,0,0
1704716171314488,1499,1500,1270,1500,1000,0,0,0
1704716171320795,1499,1500,1270,1500,1000,0,0,0
1704716171327066,1498,1499,1270,1500,1000,0,0,0
1704716171333363,1498,1499,1270,1500,1000,0,0,0
1704716171339568,1498,1499,1270,1500,1000,0,0,0
1704716171345829,1498,1499,1270,1500,1000,0,0,0
1704716171352056,1498,1498,1270,1500,1000,0,0,0
1704716171358446,1498,1498,1270,1500,1000,0,0,0
1704716171364838,1498,1498,1270,1500,1000,0,0,0
1704716171370984,1498,1499,1269,1500,1000,0,0,0
1704716171377274,1499,1499,1269,1500,1000,0,0,0
1704716171383539,1499,1499,1269,1500,1000,0,0,0
1704716171389904,1499,1499,1268,1500,1000,0,0,0
1704716171396245,1499,1499,1267,1500,1000,0,0,0
1704716171402508,1500,1500,1267,1500,1000,0,0,0
1704716171408728,1500,1500,1266,1500,1000,0,0,0
1704716171415052,1500,1500,1266,1500,1000,0,0,0
1704716171421457,1500,1500,1265,1500,1000,0,0,0
1704716171427619,1500,1500,1265,1500,1000,0,0,0
1704716171433971,1500,1500,1265,1500,1000,0,0,0
1704716171440310,1499,1500,1265,1500,1000,0,0,0
1704716171446735,1500,1500,1264,1500,1000,0,0,0
1704716171452821,1499,1500,1264,1500,1000,0,0,0
1704716171459292,1500,1499,1264,1500,1000,0,0,0
1704716171465458,1500,1499,1264,1500,1000,0,0,0
1704716171471716,1500,1499,1264,1500,1000,0,0,0
1704716171477962,1500,1499,1265,1500,1000,0,0,0
1704716171484331,1500,1499,1265,1500,1000,0,0,0
1704716171490829,1500,1499,1265,1500,1000,0,0,0
1704716171496807,1500,1499,1265,1500,1000,0,0,0
1704716171503199,1500,1499,1265,1500,1000,0,0,0
1704716171509504,1500,1499,1264,1500,1000,0,0,0
1704716171515787,1499,1499,1264,1500,1000,0,0,0
1704716171522522,1499,1500,1264,1500,1000,0,0,0
1704716171528317,1499,1500,1264,1500,1000,0,0,0
1704716171534677,1499,1500,1263,1500,1000,0,0,0
1704716171540874,1499,1500,1263,1500,1000,0,0,0
1704716171547104,1499,1500,1263,1500,1000,0,0,0
1704716171553460,1500,1500,1264,1500,1000,0,0,0
1704716171559843,1501,1501,1265,1500,1000,0,0,0
1704716171566225,1502,1501,1266,1500,1000,0,0,0
1704716171572524,1502,1501,1266,1500,1000,0,0,0
1704716171578874,1502,1501,1266,1500,1000,0,0,0
1704716171585280,1503,1502,1266,1500,1000,0,0,0
1704716171591445,1503,1501,1266,1500,1000,0,0,0
1704716171597786,1502,1501,1266,1500,1000,0,0,0
1704716171604273,1502,1501,1266,1500,1000,0,0,0
1704716171610335,1502,1500,1265,1500,1000,0,0,0
1704716171616670,1501,1500,1265,1500,1000,0,0,0
1704716171622969,1501,1500,1265,1500,1000,0,0,0
1704716171629254,1501,1500,1265,1500,1000,0,0,0
1704716171635534,1500,1500,1264,1500,1000,0,0,0
1704716171641886,1500,1500,1264,1500,1000,0,0,0
1704716171648349,1500,1500,1263,1500,1000,0,0,0
1704716171654564,1500,1500,1263,1500,1000,0,0,0
1704716171660832,1500,1500,1263,1500,1000,0,0,0
1704716171667095,1500,1500,1262,1500,1000,0,0,0
1704716171673403,1499,1500,1262,1500,1000,0,0,0
1704716171679717,1499,1500,1261,1500,1000,0,0,0
1704716171686016,1500,1501,1261,1500,1000,0,0,0
1704716171692345,1500,1501,1261,1500,1000,0,0,0
1704716171698748,1500,1501,1261,1500,1000,0,0,0
1704716171704962,1500,1501,1261,1500,1000,0,0,0
1704716171711238,1500,1501,1260,1500,1000,0,0,0
1704716171717922,1500,1501,1260,1500,1000,0,0,0
1704716171723896,1500,1501,1261,1500,1000,0,0,0
1704716171730329,1500,1501,1261,1500,1000,0,0,0
1704716171736500,1500,1501,1261,1500,1000,0,0,0
1704716171742896,1500,1501,1261,1499,1000,0,0,0
1704716171749259,1500,1501,1261,1499,1000,0,0,0
1704716171755502,1500,1501,1261,1499,1000,0,0,0
1704716171761900,1500,1501,1262,1499,1000,0,0,0
1704716171768300,1500,1500,1262,1499,1000,0,0,0
1704716171774520,1499,1500,1262,1499,1000,0,0,0
1704716171780846,1499,1500,1262,1499,1000,0,0,0
1704716171787163,1499,1500,1262,1499,1000,0,0,0
1704716171793474,1499,1500,1263,1499,1000,0,0,0
1704716171799961,1499,1500,1263,1499,1000,0,0,0
1704716171806247,1499,1500,1263,1499,1000,0,0,0
1704716171812443,1499,1500,1263,1499,1000,0,0,0
1704716171818746,1499,1499,1263,1499,1000,0,0,0
1704716171827782,1499,1499,1262,1499,1000,0,0,0
1704716171831478,1499,1499,1262,1499,1000,0,0,0
1704716171837699,1498,1499,1261,1499,1000,0,0,0
1704716171844062,1498,1500,1261,1499,1000,0,0,0
1704716171850338,1498,1500,1261,1499,1000,0,0,0
1704716171856824,1499,1501,1262,1499,1000,0,0,0
1704716171863004,1500,1501,1262,1499,1000,0,0,0
1704716171869209,1500,1501,1263,1499,1000,0,0,0
1704716171875619,1500,1502,1263,1499,1000,0,0,0
1704716171882006,1501,1502,1263,1499,1000,0,0,0
1704716171888358,1501,1502,1263,1499,1000,0,0,0
1704716171894513,1501,1502,1263,1499,1000,0,0,0
1704716171900808,1501,1502,1263,1499,1000,0,0,0
1704716171907237,1501,1501,1263,1499,1000,0,0,0
1704716171913498,1501,1501,1263,1499,1000,0,0,0
1704716171919813,1500,1501,1263,1499,1000,0,0,0
1704716171926117,1500,1500,1263,1499,1000,0,0,0
1704716171932450,1500,1500,1263,1499,1000,0,0,0
1704716171938848,1500,1500,1262,1499,1000,0,0,0
1704716171945105,1499,1500,1262,1499,1000,0,0,0
1704716171951441,1499,1500,1261,1499,1000,0,0,0
1704716171957799,1499,1500,1261,1499,1000,0,0,0
1704716171964135,1499,1500,1261,1499,1000,0,0,0
1704716171970425,1499,1500,1261,1499,1000,0,0,0
1704716171976716,1499,1500,1260,1499,1000,0,0,0
1704716171982966,1499,1500,1260,1499,1000,0,0,0
1704716171989217,1499,1500,1259,1499,1000,0,0,0
1704716171995519,1499,1500,1259,1499,1000,0,0,0
1704716172001824,1499,1500,1259,1499,1000,0,0,0
1704716172008176,1499,1500,1258,1499,1000,0,0,0
1704716172014442,1498,1500,1258,1499,1000,0,0,0
1704716172020795,1498,1500,1257,1499,1000,0,0,0
1704716172026952,1498,1500,1257,1499,1000,0,0,0
1704716172033199,1498,1500,1257,1499,1000,0,0,0
1704716172039517,1498,1500,1258,1499,1000,0,0,0
1704716172045826,1499,1500,1258,1499,1000,0,0,0
1704716172052106,1499,1500,1258,1499,1000,0,0,0
1704716172058417,1499,1500,1259,1499,1000,0,0,0
1704716172064774,1500,1500,1259,1499,1000,0,0,0
1704716172071230,1500,1500,1259,1499,1000,0,0,0
1704716172077221,1500,1500,1260,1499,1000,0,0,0
1704716172083502,1500,1500,1260,1499,1000,0,0,0
1704716172089881,1500,1500,1260,1499,1000,0,0,0
1704716172096174,1500,1500,1261,1499,1000,0,0,0
1704716172102424,1500,1500,1261,1499,1000,0,0,0
1704716172108815,1499,1500,1261,1499,1000,0,0,0
1704716172115077,1499,1500,1261,1499,1000,0,0,0
1704716172121368,1499,1500,1261,1499,1000,0,0,0
1704716172127614,1499,1500,1261,1499,1000,0,0,0
1704716172134156,1498,1500,1261,1499,1000,0,0,0
1704716172140326,1498,1500,1260,1499,1000,0,0,0
1704716172146785,1498,1500,1260,1499,1000,0,0,0
1704716172152934,1498,1500,1259,1499,1000,0,0,0
1704716172159280,1498,1500,1259,1499,1000,0,0,0
1704716172165495,1499,1501,1260,1499,1000,0,0,0
1704716172171939,1499,1501,1260,1499,1000,0,0,0
1704716172178093,1500,1501,1260,1499,1000,0,0,0
1704716172184432,1500,1501,1260,1499,1000,0,0,0
1704716172190928,1500,1501,1259,1499,1000,0,0,0
1704716172197017,1500,1501,1259,1499,1000,0,0,0
1704716172203315,1501,1501,1259,1499,1000,0,0,0
1704716172209553,1500,1501,1259,1499,1000,0,0,0
1704716172215864,1500,1501,1259,1499,1000,0,0,0
1704716172222262,1500,1501,1259,1499,1000,0,0,0
1704716172228416,1500,1501,1258,1499,1000,0,0,0
1704716172234748,1500,1500,1258,1499,1000,0,0,0
1704716172241032,1500,1500,1258,1499,1000,0,0,0
1704716172247290,1500,1500,1258,1499,1000,0,0,0
1704716172253651,1500,1500,1258,1499,1000,0,0,0
1704716172259949,1500,1500,1258,1499,1000,0,0,0
1704716172266406,1500,1500,1258,1499,1000,0,0,0
1704716172272494,1499,1500,1258,1499,1000,0,0,0
1704716172278819,1499,1500,1258,1499,1000,0,0,0
1704716172285131,1499,1500,1258,1499,1000,0,0,0
1704716172291398,1499,1500,1258,1499,1000,0,0,0
1704716172297774,1499,1500,1258,1499,1000,0,0,0
1704716172304028,1499,1500,1258,1499,1000,0,0,0
1704716172310320,1499,1501,1258,1499,1000,0,0,0
1704716172316805,1499,1500,1258,1499,1000,0,0,0
1704716172323001,1499,1500,1258,1499,1000,0,0,0
1704716172329325,1499,1500,1258,1499,1000,0,0,0
1704716172335533,1499,1500,1259,1499,1000,0,0,0
1704716172341869,1499,1500,1259,1499,1000,0,0,0
1704716172348117,1499,1500,1259,1499,1000,0,0,0
1704716172354418,1499,1500,1259,1499,1000,0,0,0
1704716172360769,1499,1500,1260,1499,1000,0,0,0
1704716172367045,1499,1500,1260,1499,1000,0,0,0
1704716172373391,1500,1500,1260,1499,1000,0,0,0
1704716172379635,1500,1500,1260,1499,1000,0,0,0
1704716172386009,1500,1500,1260,1499,1000,0,0,0
1704716172392343,1499,1500,1260,1499,1000,0,0,0
1704716172398743,1499,1500,1260,1499,1000,0,0,0
1704716172404922,1499,1500,1259,1499,1000,0,0,0
1704716172411221,1499,1501,1259,1499,1000,0,0,0
1704716172417633,1499,1501,1259,1499,1000,0,0,0
1704716172423925,1499,1501,1259,1499,1000,0,0,0
1704716172430328,1499,1501,1258,1499,1000,0,0,0
1704716172436731,1499,1501,1258,1499,1000,0,0,0
1704716172443416,1498,1500,1257,1499,1000,0,0,0
1704716172449757,1498,1500,1257,1499,1000,0,0,0
1704716172456144,1498,1500,1257,1499,1000,0,0,0
1704716172462323,1498,1500,1256,1499,1000,0,0,0
1704716172468722,1499,1500,1257,1499,1000,0,0,0
1704716172474926,1499,1501,1257,1499,1000,0,0,0
1704716172481283,1499,1501,1257,1499,1000,0,0,0
1704716172487474,1500,1501,1257,1499,1000,0,0,0
1704716172493871,1500,1501,1257,1499,1000,0,0,0
1704716172500167,1500,1501,1257,1499,1000,0,0,0
1704716172506511,1500,1501,1257,1499,1000,0,0,0
1704716172512857,1501,1501,1257,1499,1000,0,0,0
1704716172519152,1501,1501,1257,1499,1000,0,0,0
1704716172525434,1500,1500,1258,1499,1000,0,0,0
1704716172531794,1500,1500,1258,1499,1000,0,0,0
1704716172538118,1500,1500,1258,1499,1000,0,0,0
1704716172544342,1500,1500,1259,1499,1000,0,0,0
1704716172550841,1500,1500,1259,1499,1000,0,0,0
1704716172557145,1499,1500,1259,1499,1000,0,0,0
1704716172563289,1499,1500,1260,1499,1000,0,0,0
1704716172569510,1499,1500,1260,1499,1000,0,0,0
1704716172575879,1499,1500,1260,1499,1000,0,0,0
1704716172582194,1499,1500,1260,1499,1000,0,0,0
1704716172589116,1499,1500,1260,1499,1000,0,0,0
1704716172594719,1500,1500,1260,1499,1000,0,0,0
1704716172601057,1500,1501,1260,1499,1000,0,0,0
1704716172607359,1500,1501,1260,1499,1000,0,0,0
1704716172613780,1500,1501,1260,1499,1000,0,0,0
1704716172619979,1500,1501,1260,1499,1000,0,0,0
1704716172626290,1500,1501,1260,1499,1000,0,0,0
1704716172632527,1499,1501,1260,1499,1000,0,0,0
1704716172638853,1499,1501,1260,1499,1000,0,0,0
1704716172645166,1499,1501,1259,1499,1000,0,0,0
1704716172651520,1499,1501,1259,1499,1000,0,0,0
1704716172657597,1499,1500,1259,1499,1000,0,0,0
1704716172663897,1499,1501,1259,1499,1000,0,0,0
1704716172670274,1499,1500,1259,1499,1000,0,0,0
1704716172676471,1499,1500,1258,1499,1000,0,0,0
1704716172683472,1499,1500,1258,1499,1000,0,0,0
1704716172689422,1499,1500,1258,1499,1000,0,0,0
1704716172695301,1499,1500,1258,1499,1000,0,0,0
1704716172701625,1499,1500,1258,1499,1000,0,0,0
1704716172707852,1499,1500,1258,1499,1000,0,0,0
1704716172714189,1499,1500,1258,1499,1000,0,0,0
1704716172720728,1499,1500,1258,1499,1000,0,0,0
1704716172726775,1499,1500,1258,1499,1000,0,0,0
1704716172733104,1499,1500,1258,1499,1000,0,0,0
1704716172739454,1499,1500,1258,1499,1000,0,0,0
1704716172745669,1499,1500,1258,1499,1000,0,0,0
1704716172751934,1499,1499,1258,1499,1000,0,0,0
1704716172758208,1498,1499,1257,1499,1000,0,0,0
1704716172764432,1498,1499,1257,1499,1000,0,0,0
1704716172770760,1499,1499,1258,1499,1000,0,0,0
1704716172776894,1499,1499,1258,1499,1000,0,0,0
1704716172783156,1499,1499,1258,1499,1000,0,0,0
1704716172789456,1499,1499,1259,1499,1000,0,0,0
1704716172795754,1500,1499,1259,1499,1000,0,0,0
1704716172801985,1500,1499,1259,1499,1000,0,0,0
1704716172808389,1500,1499,1260,1499,1000,0,0,0
1704716172814818,1500,1499,1260,1499,1000,0,0,0
1704716172820835,1500,1499,1260,1499,1000,0,0,0
1704716172827151,1500,1500,1260,1499,1000,0,0,0
1704716172833444,1500,1500,1260,1499,1000,0,0,0
1704716172839766,1500,1500,1260,1499,1000,0,0,0
1704716172845853,1500,1500,1260,1499,1000,0,0,0
1704716172852188,1500,1500,1260,1499,1000,0,0,0
1704716172858495,1500,1500,1260,1499,1000,0,0,0
1704716172864944,1500,1500,1260,1499,1000,0,0,0
1704716172870820,1499,1501,1260,1499,1000,0,0,0
1704716172877188,1499,1501,1260,1499,1000,0,0,0
1704716172883368,1499,1501,1260,1499,1000,0,0,0
1704716172889600,1499,1501,1260,1499,1000,0,0,0
1704716172895867,1499,1500,1260,1499,1000,0,0,0
1704716172902245,1499,1500,1259,1499,1000,0,0,0
1704716172908338,1499,1500,1259,1499,1000,0,0,0
1704716172914572,1499,1500,1259,1499,1000,0,0,0
1704716172920818,1499,1500,1259,1499,1000,0,0,0
1704716172927013,1500,1500,1258,1499,1000,0,0,0
1704716172933278,1500,1500,1258,1499,1000,0,0,0
1704716172939543,1500,1499,1258,1499,1000,0,0,0
1704716172945813,1500,1499,1257,1499,1000,0,0,0
1704716172952060,1500,1499,1257,1499,1000,0,0,0
1704716172958280,1500,1499,1257,1499,1000,0,0,0
1704716172964946,1500,1499,1257,1499,1000,0,0,0
1704716172970763,1500,1499,1257,1499,1000,0,0,0
1704716172977281,1500,1500,1257,1499,1000,0,0,0
1704716172983275,1500,1500,1257,1499,1000,0,0,0
1704716172989531,1500,1500,1257,1499,1000,0,0,0
1704716172995587,1500,1500,1258,1499,1000,0,0,0
1704716173001817,1500,1500,1258,1499,1000,0,0,0
1704716173007958,1500,1500,1258,1499,1000,0,0,0
1704716173014282,1500,1500,1258,1499,1000,0,0,0
1704716173020428,1500,1500,1259,1499,1000,0,0,0
1704716173026717,1500,1500,1259,1499,1000,0,0,0
1704716173032806,1500,1500,1260,1499,1000,0,0,0
1704716173039077,1499,1500,1260,1499,1000,0,0,0
1704716173045250,1499,1500,1260,1499,1000,0,0,0
1704716173051556,1499,1500,1260,1499,1000,0,0,0
1704716173057735,1499,1500,1260,1499,1000,0,0,0
1704716173064015,1499,1500,1260,1499,1000,0,0,0
1704716173070125,1499,1499,1260,1499,1000,0,0,0
1704716173076347,1499,1500,1261,1499,1000,0,0,0
1704716173082479,1500,1501,1261,1499,1000,0,0,0
1704716173088817,1500,1501,1261,1499,1000,0,0,0
1704716173094785,1500,1501,1261,1499,1000,0,0,0
1704716173101054,1501,1502,1261,1499,1000,0,0,0
1704716173107190,1501,1502,1261,1499,1000,0,0,0
1704716173113382,1501,1502,1261,1499,1000,0,0,0
1704716173119523,1501,1502,1261,1499,1000,0,0,0
1704716173125774,1501,1502,1261,1499,1000,0,0,0
1704716173132006,1501,1501,1261,1499,1000,0,0,0
1704716173139196,1500,1501,1261,1499,1000,0,0,0
1704716173144268,1500,1501,1261,1499,1000,0,0,0
1704716173150733,1500,1500,1261,1499,1000,0,0,0
1704716173156746,1500,1500,1261,1499,1000,0,0,0
1704716173162861,1500,1498,1261,1499,1000,0,0,0
1704716173169081,1499,1497,1261,1499,1000,0,0,0
1704716173175181,1499,1495,1260,1499,1000,0,0,0
1704716173181443,1499,1494,1260,1499,1000,0,0,0
1704716173187473,1499,1493,1260,1499,1000,0,0,0
1704716173193753,1499,1493,1260,1499,1000,0,0,0
1704716173199861,1499,1493,1260,1499,1000,0,0,0
1704716173206068,1499,1494,1260,1499,1000,0,0,0
1704716173212169,1499,1495,1260,1499,1000,0,0,0
1704716173218304,1499,1496,1260,1499,1000,0,0,0
1704716173224449,1500,1498,1260,1499,1000,0,0,0
1704716173230964,1500,1500,1260,1499,1000,0,0,0
1704716173236722,1500,1502,1260,1499,1000,0,0,0
1704716173242792,1500,1503,1260,1499,1000,0,0,0
1704716173248926,1500,1505,1260,1499,1000,0,0,0
1704716173255014,1500,1506,1260,1499,1000,0,0,0
1704716173261059,1500,1507,1260,1499,1000,0,0,0
1704716173267301,1500,1507,1260,1499,1000,0,0,0
1704716173273280,1500,1507,1260,1499,1000,0,0,0
1704716173279353,1500,1507,1260,1499,1000,0,0,0
1704716173285414,1500,1506,1260,1499,1000,0,0,0
1704716173291500,1499,1505,1259,1499,1000,0,0,0
1704716173297659,1499,1504,1259,1499,1000,0,0,0
1704716173303681,1499,1503,1259,1499,1000,0,0,0
1704716173309870,1499,1502,1259,1499,1000,0,0,0
1704716173315898,1499,1501,1259,1499,1000,0,0,0
1704716173321991,1499,1500,1259,1499,1000,0,0,0
1704716173328017,1499,1499,1259,1499,1000,0,0,0
1704716173334136,1499,1499,1258,1499,1000,0,0,0
1704716173340189,1499,1499,1258,1499,1000,0,0,0
1704716173346241,1499,1498,1258,1499,1000,0,0,0
1704716173352253,1499,1498,1258,1499,1000,0,0,0
1704716173358315,1499,1498,1258,1499,1000,0,0,0
1704716173364361,1499,1498,1258,1499,1000,0,0,0
1704716173370361,1499,1499,1258,1499,1000,0,0,0
1704716173376408,1498,1499,1257,1499,1000,0,0,0
1704716173382487,1498,1499,1257,1499,1000,0,0,0
1704716173388431,1498,1500,1258,1499,1000,0,0,0
1704716173394505,1499,1502,1258,1499,1000,0,0,0
1704716173400804,1500,1503,1259,1499,1000,0,0,0
1704716173406558,1500,1504,1259,1499,1000,0,0,0
1704716173412590,1500,1505,1260,1499,1000,0,0,0
1704716173418577,1501,1505,1260,1499,1000,0,0,0
1704716173424804,1501,1505,1260,1499,1000,0,0,0
1704716173430846,1501,1504,1261,1499,1000,0,0,0
1704716173436781,1501,1504,1261,1499,1000,0,0,0
1704716173442758,1500,1503,1262,1499,1000,0,0,0
1704716173448793,1500,1502,1262,1499,1000,0,0,0
1704716173454664,1499,1501,1262,1499,1000,0,0,0
1704716173460924,1499,1500,1262,1499,1000,0,0,0
1704716173466606,1499,1499,1262,1499,1000,0,0,0
1704716173472822,1499,1498,1262,1499,1000,0,0,0
1704716173478825,1499,1498,1262,1499,1000,0,0,0
1704716173484779,1499,1498,1262,1499,1000,0,0,0
1704716173490856,1499,1498,1262,1499,1000,0,0,0
1704716173496868,1499,1498,1262,1499,1000,0,0,0
1704716173503022,1499,1498,1262,1499,1000,0,0,0
1704716173508940,1499,1498,1262,1499,1000,0,0,0
1704716173515025,1499,1498,1261,1499,1000,0,0,0
1704716173521131,1499,1499,1261,1499,1000,0,0,0
1704716173526997,1500,1499,1261,1499,1000,0,0,0
1704716173533082,1500,1500,1261,1499,1000,0,0,0
1704716173539124,1500,1500,1261,1499,1000,0,0,0
1704716173545114,1500,1500,1261,1499,1000,0,0,0
1704716173551258,1500,1501,1261,1499,1000,0,0,0
1704716173557299,1500,1501,1261,1499,1000,0,0,0
1704716173563425,1500,1501,1261,1499,1000,0,0,0
1704716173569503,1500,1501,1261,1499,1000,0,0,0
1704716173575557,1500,1501,1261,1499,1000,0,0,0
1704716173581625,1500,1500,1261,1499,1000,0,0,0
1704716173587666,1500,1500,1261,1499,1000,0,0,0
1704716173593744,1499,1500,1261,1499,1000,0,0,0
1704716173599827,1499,1500,1261,1499,1000,0,0,0
1704716173605872,1499,1499,1262,1499,1000,0,0,0
1704716173611843,1499,1499,1262,1499,1000,0,0,0
1704716173617940,1499,1499,1262,1499,1000,0,0,0
1704716173623995,1499,1499,1262,1499,1000,0,0,0
1704716173630168,1499,1499,1262,1499,1000,0,0,0
1704716173636041,1499,1499,1263,1499,1000,0,0,0
1704716173642171,1499,1499,1263,1499,1000,0,0,0
1704716173648119,1499,1499,1263,1499,1000,0,0,0
1704716173654164,1499,1499,1263,1499,1000,0,0,0
1704716173660157,1499,1499,1263,1499,1000,0,0,0
1704716173666226,1499,1499,1263,1499,1000,0,0,0
1704716173672260,1499,1499,1263,1499,1000,0,0,0
1704716173678311,1499,1499,1263,1499,1000,0,0,0
1704716173684404,1499,1499,1263,1499,1000,0,0,0
1704716173690686,1499,1499,1262,1499,1000,0,0,0
1704716173696589,1499,1499,1263,1499,1000,0,0,0
1704716173702587,1500,1500,1263,1499,1000,0,0,0
1704716173708598,1500,1500,1263,1499,1000,0,0,0
1704716173714782,1500,1500,1263,1499,1000,0,0,0
1704716173720867,1500,1499,1263,1499,1000,0,0,0
1704716173726853,1501,1499,1263,1499,1000,0,0,0
1704716173732942,1500,1499,1263,1499,1000,0,0,0
1704716173739054,1500,1499,1263,1499,1000,0,0,0
1704716173745146,1500,1499,1263,1499,1000,0,0,0
1704716173751068,1500,1499,1263,1499,1000,0,0,0
1704716173757397,1499,1499,1263,1499,1000,0,0,0
1704716173763297,1499,1499,1263,1499,1000,0,0,0
1704716173769179,1499,1499,1263,1499,1000,0,0,0
1704716173775249,1499,1499,1263,1499,1000,0,0,0
1704716173781295,1499,1499,1263,1499,1000,0,0,0
1704716173787378,1499,1499,1262,1499,1000,0,0,0
1704716173793295,1499,1499,1262,1499,1000,0,0,0
1704716173799356,1499,1499,1263,1499,1000,0,0,0
1704716173805920,1499,1500,1263,1499,1000,0,0,0
1704716173811362,1499,1500,1263,1499,1000,0,0,0
1704716173817470,1500,1500,1263,1499,1000,0,0,0
1704716173823490,1500,1500,1263,1499,1000,0,0,0
1704716173829549,1500,1500,1263,1499,1000,0,0,0
1704716173835564,1500,1500,1263,1499,1000,0,0,0
1704716173841687,1500,1500,1263,1499,1000,0,0,0
1704716173847735,1500,1500,1263,1499,1000,0,0,0
1704716173853789,1500,1500,1264,1499,1000,0,0,0
1704716173859778,1500,1500,1264,1499,1000,0,0,0
1704716173865830,1500,1500,1264,1499,1000,0,0,0
1704716173871931,1500,1499,1264,1499,1000,0,0,0
1704716173877854,1500,1500,1264,1499,1000,0,0,0
1704716173884035,1500,1500,1264,1499,1000,0,0,0
1704716173890061,1499,1500,1264,1499,1000,0,0,0
1704716173896070,1499,1500,1264,1499,1000,0,0,0
1704716173902054,1499,1500,1264,1499,1000,0,0,0
1704716173908080,1499,1500,1264,1499,1000,0,0,0
1704716173914088,1499,1500,1264,1499,1000,0,0,0
1704716173920120,1498,1500,1264,1499,1000,0,0,0
1704716173926178,1498,1500,1263,1499,1000,0,0,0
1704716173932206,1498,1500,1263,1499,1000,0,0,0
1704716173938207,1499,1500,1263,1499,1000,0,0,0
1704716173944149,1499,1500,1263,1499,1000,0,0,0
1704716173950191,1499,1500,1263,1499,1000,0,0,0
1704716173956199,1499,1500,1263,1499,1000,0,0,0
1704716173962325,1499,1500,1263,1499,1000,0,0,0
1704716173968258,1499,1500,1262,1499,1000,0,0,0
1704716173974295,1499,1500,1262,1499,1000,0,0,0
1704716173980306,1499,1500,1262,1499,1000,0,0,0
1704716173986316,1499,1499,1262,1499,1000,0,0,0
1704716173992355,1499,1499,1261,1499,1000,0,0,0
1704716173998341,1499,1500,1262,1499,1000,0,0,0
1704716174004396,1500,1500,1262,1499,1000,0,0,0
1704716174010421,1500,1500,1262,1499,1000,0,0,0
1704716174016483,1501,1500,1262,1499,1000,0,0,0
1704716174022510,1501,1501,1262,1499,1000,0,0,0
1704716174028527,1501,1501,1262,1499,1000,0,0,0
1704716174034626,1501,1501,1262,1499,1000,0,0,0
1704716174040804,1501,1501,1262,1499,1000,0,0,0
1704716174046632,1501,1501,1262,1499,1000,0,0,0
1704716174052586,1500,1501,1262,1499,1000,0,0,0
1704716174058792,1500,1501,1263,1499,1000,0,0,0
1704716174064851,1500,1501,1263,1499,1000,0,0,0
1704716174070857,1499,1501,1263,1499,1000,0,0,0
1704716174076761,1499,1501,1263,1499,1000,0,0,0
1704716174082775,1499,1501,1263,1499,1000,0,0,0
1704716174088842,1499,1501,1263,1499,1000,0,0,0
1704716174094835,1498,1501,1262,1499,1000,0,0,0
1704716174100902,1498,1500,1262,1499,1000,0,0,0
1704716174107003,1498,1500,1262,1499,1000,0,0,0
1704716174112981,1498,1500,1262,1499,1000,0,0,0
1704716174119075,1499,1500,1262,1499,1000,0,0,0
1704716174125204,1499,1500,1262,1499,1000,0,0,0
1704716174131116,1499,1500,1262,1499,1000,0,0,0
1704716174137226,1499,1500,1262,1499,1000,0,0,0
1704716174143240,1500,1500,1262,1499,1000,0,0,0
1704716174149251,1500,1500,1262,1499,1000,0,0,0
1704716174155289,1500,1500,1262,1499,1000,0,0,0
1704716174161239,1500,1500,1262,1499,1000,0,0,0
1704716174167313,1500,1500,1262,1499,1000,0,0,0
1704716174173397,1500,1500,1262,1499,1000,0,0,0
1704716174179378,1500,1501,1263,1499,1000,0,0,0
1704716174185451,1500,1500,1263,1499,1000,0,0,0
1704716174191511,1500,1500,1263,1499,1000,0,0,0
1704716174197685,1500,1500,1263,1499,1000,0,0,0
1704716174203567,1500,1500,1263,1499,1000,0,0,0
1704716174209693,1500,1500,1263,1499,1000,0,0,0
1704716174215740,1499,1500,1263,1499,1000,0,0,0
1704716174221916,1499,1500,1263,1499,1000,0,0,0
1704716174227890,1499,1500,1263,1499,1000,0,0,0
1704716174233929,1499,1500,1263,1499,1000,0,0,0
1704716174240009,1499,1500,1263,1499,1000,0,0,0
1704716174246466,1499,1500,1263,1499,1000,0,0,0
1704716174252238,1499,1500,1263,1499,1000,0,0,0
1704716174258201,1499,1500,1263,1499,1000,0,0,0
1704716174264239,1499,1500,1263,1499,1000,0,0,0
1704716174270216,1499,1500,1263,1499,1000,0,0,0
1704716174276243,1499,1500,1262,1499,1000,0,0,0
1704716174282270,1499,1500,1262,1499,1000,0,0,0
1704716174288230,1499,1500,1262,1499,1000,0,0,0
1704716174294229,1499,1501,1262,1499,1000,0,0,0
1704716174300271,1500,1501,1262,1499,1000,0,0,0
1704716174306592,1500,1502,1262,1499,1000,0,0,0
1704716174312408,1500,1502,1262,1499,1000,0,0,0
1704716174318466,1500,1502,1262,1499,1000,0,0,0
1704716174324845,1500,1502,1262,1499,1000,0,0,0
1704716174330850,1500,1502,1262,1499,1000,0,0,0
1704716174336906,1500,1502,1262,1499,1000,0,0,0
1704716174342915,1500,1502,1262,1499,1000,0,0,0
1704716174348799,1500,1501,1262,1499,1000,0,0,0
1704716174355004,1500,1501,1262,1499,1000,0,0,0
1704716174361053,1500,1500,1262,1499,1000,0,0,0
1704716174367103,1500,1500,1262,1499,1000,0,0,0
1704716174373214,1500,1499,1262,1499,1000,0,0,0
1704716174379243,1499,1499,1263,1499,1000,0,0,0
1704716174385351,1499,1499,1262,1499,1000,0,0,0
1704716174391417,1499,1499,1263,1499,1000,0,0,0
1704716174397511,1499,1499,1263,1499,1000,0,0,0
1704716174403489,1499,1499,1262,1499,1000,0,0,0
1704716174409582,1499,1499,1262,1499,1000,0,0,0
1704716174415655,1499,1499,1262,1499,1000,0,0,0
1704716174422159,1499,1499,1262,1499,1000,0,0,0
1704716174427754,1499,1500,1262,1499,1000,0,0,0
1704716174434011,1499,1500,1262,1499,1000,0,0,0
1704716174440060,1499,1500,1262,1499,1000,0,0,0
1704716174446149,1499,1501,1262,1499,1000,0,0,0
1704716174452182,1499,1501,1262,1499,1000,0,0,0
1704716174458436,1499,1501,1262,1499,1000,0,0,0
1704716174464626,1499,1501,1262,1499,1000,0,0,0
1704716174470795,1499,1501,1262,1499,1000,0,0,0
1704716174476747,1499,1501,1262,1499,1000,0,0,0
1704716174482919,1499,1501,1262,1499,1000,0,0,0
1704716174489003,1499,1501,1262,1499,1000,0,0,0
1704716174495095,1499,1501,1262,1499,1000,0,0,0
1704716174501176,1499,1501,1262,1499,1000,0,0,0
1704716174507368,1499,1500,1262,1499,1000,0,0,0
1704716174513353,1499,1500,1263,1499,1000,0,0,0
1704716174519289,1500,1500,1263,1499,1000,0,0,0
1704716174525316,1500,1500,1263,1499,1000,0,0,0
1704716174531349,1500,1499,1263,1499,1000,0,0,0
1704716174537382,1500,1499,1263,1499,1000,0,0,0
1704716174543514,1500,1499,1263,1499,1000,0,0,0
1704716174549652,1500,1499,1263,1499,1000,0,0,0
1704716174555865,1500,1499,1263,1499,1000,0,0,0
1704716174562001,1500,1499,1263,1499,1000,0,0,0
1704716174567803,1500,1499,1263,1499,1000,0,0,0
1704716174573863,1500,1499,1263,1499,1000,0,0,0
1704716174580076,1499,1499,1263,1499,1000,0,0,0
1704716174585985,1499,1499,1263,1499,1000,0,0,0
1704716174592122,1499,1499,1263,1499,1000,0,0,0
1704716174598152,1499,1499,1263,1499,1000,0,0,0
1704716174604185,1499,1499,1263,1499,1000,0,0,0
1704716174610269,1499,1499,1263,1499,1000,0,0,0
1704716174616401,1499,1499,1263,1499,1000,0,0,0
1704716174622768,1499,1499,1263,1499,1000,0,0,0
1704716174628538,1499,1499,1262,1499,1000,0,0,0
1704716174634804,1499,1499,1262,1499,1000,0,0,0
1704716174640994,1499,1499,1262,1499,1000,0,0,0
1704716174647000,1499,1499,1262,1499,1000,0,0,0
1704716174652949,1499,1499,1262,1499,1000,0,0,0
1704716174659148,1499,1499,1262,1499,1000,0,0,0
1704716174665057,1499,1499,1262,1499,1000,0,0,0
1704716174671171,1499,1499,1262,1499,1000,0,0,0
1704716174677170,1499,1499,1262,1499,1000,0,0,0
1704716174683433,1499,1499,1262,1499,1000,0,0,0
1704716174689563,1499,1500,1262,1499,1000,0,0,0
1704716174695552,1499,1500,1262,1499,1000,0,0,0
1704716174701617,1499,1500,1262,1499,1000,0,0,0
1704716174707742,1500,1500,1262,1499,1000,0,0,0
1704716174713957,1499,1500,1262,1499,1000,0,0,0
1704716174719954,1500,1500,1262,1499,1000,0,0,0
1704716174726072,1499,1500,1262,1499,1000,0,0,0
1704716174732266,1499,1500,1262,1499,1000,0,0,0
1704716174738229,1499,1500,1263,1499,1000,0,0,0
1704716174744347,1499,1500,1263,1499,1000,0,0,0
1704716174750443,1499,1500,1263,1499,1000,0,0,0
1704716174756491,1499,1500,1263,1499,1000,0,0,0
1704716174762495,1499,1500,1263,1499,1000,0,0,0
1704716174768521,1499,1500,1263,1499,1000,0,0,0
1704716174774840,1499,1500,1263,1499,1000,0,0,0
1704716174780906,1499,1500,1263,1499,1000,0,0,0
1704716174786590,1499,1500,1263,1499,1000,0,0,0
1704716174792606,1499,1500,1263,1499,1000,0,0,0
1704716174799027,1499,1500,1263,1499,1000,0,0,0
1704716174804817,1499,1500,1263,1499,1000,0,0,0
1704716174810885,1499,1500,1263,1499,1000,0,0,0
1704716174816848,1499,1500,1263,1499,1000,0,0,0
1704716174822935,1499,1500,1263,1499,1000,0,0,0
1704716174828968,1499,1500,1263,1499,1000,0,0,0
1704716174835015,1499,1500,1263,1499,1000,0,0,0
1704716174841062,1499,1500,1263,1499,1000,0,0,0
1704716174847104,1499,1500,1263,1499,1000,0,0,0
1704716174853080,1499,1500,1263,1499,1000,0,0,0
1704716174859162,1499,1500,1263,1499,1000,0,0,0
1704716174865155,1499,1500,1263,1499,1000,0,0,0
1704716174871268,1499,1500,1263,1499,1000,0,0,0
1704716174877296,1499,1500,1263,1499,1000,0,0,0
1704716174883337,1499,1500,1263,1499,1000,0,0,0
1704716174889419,1499,1500,1263,1499,1000,0,0,0
1704716174895563,1499,1500,1263,1499,1000,0,0,0
1704716174901490,1499,1500,1263,1499,1000,0,0,0
1704716174907574,1500,1500,1263,1499,1000,0,0,0
1704716174913569,1500,1500,1263,1499,1000,0,0,0
1704716174919599,1500,1500,1263,1499,1000,0,0,0
1704716174925627,1500,1500,1263,1499,1000,0,0,0
1704716174931620,1500,1500,1263,1499,1000,0,0,0
1704716174937684,1499,1500,1263,1499,1000,0,0,0
1704716174943691,1499,1500,1263,1499,1000,0,0,0
1704716174949790,1499,1500,1263,1499,1000,0,0,0
1704716174955850,1499,1500,1263,1499,1000,0,0,0
1704716174961839,1499,1500,1263,1499,1000,0,0,0
1704716174967922,1499,1500,1263,1499,1000,0,0,0
1704716174974048,1499,1500,1262,1499,1000,0,0,0
1704716174980056,1499,1500,1262,1499,1000,0,0,0
1704716174986048,1499,1500,1262,1499,1000,0,0,0
1704716174992130,1499,1500,1262,1499,1000,0,0,0
1704716174998117,1499,1500,1262,1499,1000,0,0,0
1704716175004144,1499,1500,1262,1499,1000,0,0,0
1704716175010230,1499,1500,1262,1499,1000,0,0,0
1704716175016375,1499,1500,1262,1499,1000,0,0,0
1704716175022347,1499,1500,1262,1499,1000,0,0,0
1704716175028264,1499,1500,1262,1499,1000,0,0,0
1704716175034376,1499,1500,1262,1499,1000,0,0,0
1704716175040349,1499,1500,1262,1499,1000,0,0,0
1704716175046529,1499,1500,1262,1499,1000,0,0,0
1704716175052457,1499,1500,1262,1499,1000,0,0,0
1704716175058587,1499,1501,1262,1499,1000,0,0,0
1704716175064664,1499,1501,1262,1499,1000,0,0,0
1704716175070912,1499,1501,1262,1499,1000,0,0,0
1704716175076917,1499,1501,1262,1499,1000,0,0,0
1704716175083036,1499,1501,1262,1499,1000,0,0,0
1704716175089046,1499,1501,1262,1499,1000,0,0,0
1704716175095150,1499,1500,1263,1499,1000,0,0,0
1704716175101108,1499,1500,1263,1499,1000,0,0,0
1704716175107282,1499,1500,1263,1499,1000,0,0,0
1704716175113383,1499,1500,1263,1499,1000,0,0,0
1704716175119110,1499,1500,1263,1499,1000,0,0,0
1704716175125528,1499,1500,1263,1499,1000,0,0,0
1704716175131154,1499,1500,1263,1499,1000,0,0,0
1704716175137380,1499,1500,1263,1499,1000,0,0,0
1704716175143186,1499,1500,1263,1499,1000,0,0,0
1704716175149209,1500,1500,1263,1499,1000,0,0,0
1704716175155238,1500,1500,1263,1499,1000,0,0,0
1704716175161162,1500,1500,1263,1499,1000,0,0,0
1704716175167465,1500,1500,1263,1499,1000,0,0,0
1704716175173462,1499,1500,1263,1499,1000,0,0,0
1704716175179246,1499,1500,1262,1499,1000,0,0,0
1704716175185351,1499,1500,1262,1499,1000,0,0,0
1704716175191377,1499,1500,1262,1499,1000,0,0,0
1704716175197419,1499,1499,1262,1499,1000,0,0,0
1704716175203375,1499,1499,1262,1499,1000,0,0,0
1704716175209600,1499,1500,1261,1499,1000,0,0,0
1704716175215502,1499,1500,1261,1499,1000,0,0,0
1704716175222984,1499,1500,1261,1499,1000,0,0,0
1704716175227577,1499,1500,1261,1499,1000,0,0,0
1704716175233832,1499,1500,1261,1499,1000,0,0,0
1704716175239675,1500,1500,1261,1499,1000,0,0,0
1704716175245747,1500,1501,1261,1499,1000,0,0,0
1704716175251975,1500,1501,1261,1499,1000,0,0,0
1704716175257888,1500,1501,1261,1499,1000,0,0,0
1704716175263959,1500,1501,1261,1499,1000,0,0,0
1704716175270033,1500,1501,1262,1499,1000,0,0,0
1704716175276023,1500,1501,1262,1499,1000,0,0,0
1704716175282215,1500,1501,1262,1499,1000,0,0,0
1704716175288128,1500,1501,1262,1499,1000,0,0,0
1704716175294217,1500,1501,1262,1499,1000,0,0,0
1704716175300288,1500,1500,1262,1499,1000,0,0,0
1704716175306495,1499,1500,1263,1499,1000,0,0,0
1704716175312417,1499,1500,1263,1499,1000,0,0,0
1704716175318465,1499,1500,1263,1499,1000,0,0,0
1704716175324680,1499,1499,1263,1499,1000,0,0,0
1704716175330889,1499,1499,1263,1499,1000,0,0,0
1704716175336624,1499,1499,1263,1499,1000,0,0,0
1704716175342822,1499,1499,1263,1499,1000,0,0,0
1704716175348882,1499,1499,1263,1499,1000,0,0,0
1704716175354839,1499,1499,1263,1499,1000,0,0,0
1704716175360910,1499,1499,1263,1499,1000,0,0,0
1704716175366985,1499,1500,1264,1499,1000,0,0,0
1704716175373019,1500,1500,1264,1499,1000,0,0,0
1704716175379202,1500,1500,1264,1499,1000,0,0,0
1704716175385086,1500,1500,1264,1499,1000,0,0,0
1704716175391181,1500,1500,1264,1499,1000,0,0,0
1704716175397231,1500,1500,1264,1499,1000,0,0,0
1704716175403241,1500,1500,1263,1499,1000,0,0,0
1704716175409314,1500,1500,1263,1499,1000,0,0,0
1704716175415392,1500,1500,1263,1499,1000,0,0,0
1704716175421488,1500,1500,1263,1499,1000,0,0,0
1704716175427433,1500,1500,1263,1499,1000,0,0,0
1704716175433544,1499,1500,1263,1499,1000,0,0,0
1704716175439626,1499,1500,1263,1499,1000,0,0,0
1704716175445637,1499,1500,1263,1499,1000,0,0,0
1704716175451661,1499,1500,1263,1499,1000,0,0,0
1704716175457769,1499,1500,1263,1499,1000,0,0,0
1704716175463935,1499,1500,1263,1499,1000,0,0,0
1704716175469905,1499,1500,1263,1499,1000,0,0,0
1704716175475969,1499,1500,1263,1499,1000,0,0,0
1704716175482185,1499,1500,1263,1499,1000,0,0,0
1704716175488009,1499,1500,1263,1499,1000,0,0,0
1704716175494126,1500,1499,1263,1499,1000,0,0,0
1704716175500058,1499,1499,1263,1499,1000,0,0,0
1704716175506212,1499,1499,1263,1499,1000,0,0,0
1704716175512180,1500,1499,1263,1499,1000,0,0,0
1704716175518430,1500,1499,1263,1499,1000,0,0,0
1704716175524271,1500,1500,1263,1499,1000,0,0,0
1704716175530341,1500,1500,1263,1499,1000,0,0,0
1704716175536317,1500,1500,1263,1499,1000,0,0,0
1704716175542391,1500,1500,1263,1499,1000,0,0,0
1704716175548403,1500,1500,1263,1499,1000,0,0,0
1704716175554494,1500,1500,1263,1499,1000,0,0,0
1704716175560507,1500,1500,1263,1499,1000,0,0,0
1704716175566645,1500,1500,1263,1499,1000,0,0,0
1704716175572910,1500,1500,1263,1499,1000,0,0,0
1704716175578881,1500,1500,1263,1499,1000,0,0,0
1704716175584840,1499,1500,1263,1499,1000,0,0,0
1704716175590918,1499,1500,1263,1499,1000,0,0,0
1704716175596841,1499,1500,1262,1499,1000,0,0,0
1704716175602831,1499,1499,1262,1499,1000,0,0,0
1704716175608866,1499,1499,1262,1499,1000,0,0,0
1704716175614913,1499,1499,1262,1499,1000,0,0,0
1704716175620965,1499,1499,1262,1499,1000,0,0,0
1704716175626981,1499,1499,1262,1499,1000,0,0,0
1704716175633040,1499,1499,1262,1499,1000,0,0,0
1704716175639486,1499,1499,1262,1499,1000,0,0,0
1704716175645133,1499,1499,1262,1499,1000,0,0,0
1704716175651189,1500,1499,1262,1499,1000,0,0,0
1704716175657211,1500,1500,1262,1499,1000,0,0,0
1704716175663357,1500,1500,1262,1499,1000,0,0,0
1704716175669370,1500,1500,1262,1499,1000,0,0,0
1704716175675434,1500,1500,1261,1499,1000,0,0,0
1704716175681446,1500,1500,1261,1499,1000,0,0,0
1704716175687503,1500,1500,1261,1499,1000,0,0,0
1704716175693526,1500,1500,1261,1499,1000,0,0,0
1704716175699621,1500,1500,1261,1499,1000,0,0,0
1704716175705705,1500,1500,1261,1499,1000,0,0,0
1704716175711677,1500,1500,1261,1499,1000,0,0,0
1704716175717787,1500,1500,1261,1499,1000,0,0,0
1704716175723809,1499,1500,1261,1499,1000,0,0,0
1704716175729929,1499,1500,1261,1499,1000,0,0,0
1704716175735908,1499,1500,1261,1499,1000,0,0,0
1704716175742011,1499,1500,1262,1499,1000,0,0,0
1704716175748052,1499,1500,1262,1499,1000,0,0,0
1704716175754031,1498,1500,1262,1499,1000,0,0,0
1704716175760066,1498,1500,1262,1499,1000,0,0,0
1704716175766136,1497,1500,1262,1499,1000,0,0,0
1704716175772277,1496,1500,1261,1499,1000,0,0,0
1704716175778212,1496,1501,1261,1499,1000,0,0,0
1704716175784302,1496,1501,1261,1499,1000,0,0,0
1704716175790422,1495,1501,1261,1499,1000,0,0,0
1704716175796429,1496,1501,1261,1499,1000,0,0,0
1704716175802455,1496,1501,1261,1499,1000,0,0,0
1704716175808556,1496,1501,1261,1499,1000,0,0,0
1704716175814653,1497,1500,1261,1499,1000,0,0,0
1704716175820905,1498,1500,1262,1499,1000,0,0,0
1704716175826938,1500,1500,1262,1499,1000,0,0,0
1704716175832905,1501,1500,1263,1499,1000,0,0,0
1704716175839006,1502,1499,1263,1499,1000,0,0,0
1704716175844956,1503,1499,1263,1499,1000,0,0,0
1704716175851408,1504,1499,1264,1499,1000,0,0,0
1704716175857203,1504,1499,1264,1499,1000,0,0,0
1704716175863174,1504,1499,1264,1499,1000,0,0,0
1704716175869060,1504,1499,1264,1499,1000,0,0,0
1704716175875398,1503,1499,1265,1499,1000,0,0,0
1704716175881293,1503,1499,1265,1499,1000,0,0,0
1704716175887397,1502,1499,1265,1499,1000,0,0,0
1704716175893259,1501,1499,1265,1499,1000,0,0,0
1704716175899361,1500,1499,1265,1499,1000,0,0,0
1704716175905386,1500,1499,1265,1499,1000,0,0,0
1704716175911378,1499,1500,1265,1499,1000,0,0,0
1704716175917384,1499,1500,1265,1499,1000,0,0,0
1704716175923327,1498,1500,1265,1499,1000,0,0,0
1704716175929318,1498,1500,1265,1499,1000,0,0,0
1704716175935368,1498,1500,1264,1499,1000,0,0,0
1704716175941520,1498,1500,1264,1499,1000,0,0,0
1704716175947704,1498,1500,1264,1499,1000,0,0,0
1704716175953727,1499,1500,1264,1499,1000,0,0,0
1704716175959609,1499,1500,1264,1499,1000,0,0,0
1704716175965693,1499,1500,1264,1499,1000,0,0,0
1704716175971791,1499,1500,1264,1499,1000,0,0,0
1704716175977832,1500,1500,1263,1499,1000,0,0,0
1704716175983885,1500,1500,1263,1499,1000,0,0,0
1704716175990032,1500,1500,1263,1499,1000,0,0,0
1704716175995951,1500,1500,1263,1499,1000,0,0,0
1704716176002074,1500,1500,1263,1499,1000,0,0,0
1704716176008284,1500,1500,1262,1499,1000,0,0,0
1704716176014203,1500,1500,1262,1499,1000,0,0,0
1704716176020238,1500,1500,1262,1499,1000,0,0,0
1704716176026292,1500,1500,1262,1499,1000,0,0,0
1704716176032309,1500,1500,1262,1499,1000,0,0,0
1704716176038376,1500,1500,1262,1499,1000,0,0,0
1704716176044398,1500,1500,1262,1499,1000,0,0,0
1704716176050534,1500,1500,1262,1499,1000,0,0,0
1704716176056536,1500,1500,1262,1499,1000,0,0,0
1704716176062577,1499,1500,1262,1499,1000,0,0,0
1704716176068564,1499,1500,1262,1499,1000,0,0,0
1704716176074687,1499,1500,1262,1499,1000,0,0,0
1704716176080937,1499,1500,1262,1499,1000,0,0,0
1704716176086667,1499,1500,1262,1499,1000,0,0,0
1704716176092837,1499,1500,1263,1499,1000,0,0,0
1704716176098870,1499,1500,1263,1499,1000,0,0,0
1704716176104891,1499,1500,1263,1499,1000,0,0,0
1704716176110858,1499,1500,1263,1499,1000,0,0,0
1704716176116963,1499,1500,1263,1499,1000,0,0,0
1704716176123291,1499,1500,1263,1499,1000,0,0,0
1704716176128995,1499,1499,1263,1499,1000,0,0,0
1704716176135296,1500,1500,1263,1499,1000,0,0,0
1704716176141080,1500,1500,1263,1499,1000,0,0,0
1704716176147200,1500,1500,1263,1499,1000,0,0,0
1704716176153224,1500,1500,1263,1499,1000,0,0,0
1704716176159318,1500,1500,1263,1499,1000,0,0,0
1704716176165369,1500,1500,1263,1499,1000,0,0,0
1704716176171468,1500,1500,1263,1499,1000,0,0,0
1704716176177465,1500,1500,1263,1499,1000,0,0,0
1704716176183560,1500,1500,1263,1499,1000,0,0,0
1704716176189605,1499,1500,1263,1499,1000,0,0,0
1704716176195667,1499,1500,1263,1499,1000,0,0,0
1704716176201821,1499,1500,1263,1499,1000,0,0,0
1704716176207813,1499,1500,1263,1499,1000,0,0,0
1704716176214005,1499,1500,1263,1499,1000,0,0,0
1704716176220136,1499,1500,1263,1499,1000,0,0,0
1704716176226180,1499,1499,1263,1499,1000,0,0,0
1704716176232207,1499,1499,1263,1499,1000,0,0,0
1704716176238310,1499,1499,1262,1499,1000,0,0,0
1704716176244289,1499,1499,1262,1499,1000,0,0,0
1704716176250423,1499,1499,1262,1499,1000,0,0,0
1704716176256535,1499,1500,1262,1499,1000,0,0,0
1704716176262507,1500,1500,1262,1499,1000,0,0,0
1704716176268521,1500,1500,1261,1499,1000,0,0,0
1704716176274639,1500,1500,1261,1499,1000,0,0,0
1704716176280894,1500,1500,1261,1499,1000,0,0,0
1704716176286693,1500,1500,1261,1499,1000,0,0,0
1704716176293571,1500,1500,1261,1499,1000,0,0,0
1704716176298869,1500,1500,1261,1499,1000,0,0,0
1704716176304971,1499,1500,1261,1499,1000,0,0,0
1704716176310911,1499,1500,1262,1499,1000,0,0,0
1704716176317040,1499,1500,1262,1499,1000,0,0,0
1704716176323014,1499,1500,1262,1499,1000,0,0,0
1704716176329241,1499,1500,1262,1499,1000,0,0,0
1704716176335162,1499,1500,1262,1499,1000,0,0,0
1704716176341251,1499,1500,1262,1499,1000,0,0,0
1704716176347306,1499,1500,1262,1499,1000,0,0,0
1704716176353292,1499,1500,1262,1499,1000,0,0,0
1704716176359413,1499,1500,1262,1499,1000,0,0,0
1704716176365444,1499,1500,1262,1499,1000,0,0,0
1704716176371569,1499,1500,1262,1499,1000,0,0,0
1704716176377595,1499,1500,1262,1499,1000,0,0,0
1704716176383731,1499,1500,1262,1499,1000,0,0,0
1704716176389837,1499,1500,1262,1499,1000,0,0,0
1704716176395876,1500,1500,1262,1499,1000,0,0,0
1704716176402028,1500,1500,1262,1499,1000,0,0,0
1704716176408085,1500,1500,1262,1499,1000,0,0,0
1704716176414238,1500,1500,1262,1499,1000,0,0,0
1704716176420221,1499,1500,1262,1499,1000,0,0,0
1704716176426276,1499,1500,1262,1499,1000,0,0,0
1704716176432280,1499,1500,1262,1499,1000,0,0,0
1704716176438348,1499,1500,1262,1499,1000,0,0,0
1704716176444315,1499,1500,1262,1499,1000,0,0,0
1704716176450531,1499,1500,1262,1499,1000,0,0,0
1704716176456615,1499,1500,1262,1499,1000,0,0,0
1704716176462611,1499,1500,1261,1499,1000,0,0,0
1704716176468856,1499,1501,1261,1499,1000,0,0,0
1704716176474851,1499,1500,1261,1499,1000,0,0,0
1704716176481055,1499,1501,1260,1499,1000,0,0,0
1704716176486987,1499,1500,1260,1499,1000,0,0,0
1704716176493626,1499,1500,1260,1499,1000,0,0,0
1704716176499217,1499,1500,1260,1499,1000,0,0,0
1704716176505189,1499,1500,1260,1499,1000,0,0,0
1704716176511281,1499,1500,1260,1499,1000,0,0,0
1704716176517478,1499,1500,1260,1499,1000,0,0,0
1704716176523402,1499,1500,1260,1499,1000,0,0,0
1704716176529419,1499,1499,1260,1499,1000,0,0,0
1704716176535488,1499,1499,1260,1499,1000,0,0,0
1704716176541696,1499,1499,1260,1499,1000,0,0,0
1704716176547589,1499,1499,1260,1499,1000,0,0,0
1704716176553603,1499,1499,1260,1499,1000,0,0,0
1704716176559611,1499,1499,1260,1499,1000,0,0,0
1704716176565754,1499,1499,1261,1499,1000,0,0,0
1704716176572016,1499,1499,1261,1499,1000,0,0,0
1704716176577887,1499,1500,1262,1499,1000,0,0,0
1704716176583931,1499,1500,1262,1499,1000,0,0,0
1704716176590043,1499,1500,1262,1499,1000,0,0,0
1704716176596073,1500,1500,1263,1499,1000,0,0,0
1704716176602107,1500,1500,1263,1499,1000,0,0,0
1704716176608219,1500,1500,1264,1499,1000,0,0,0
1704716176614327,1500,1500,1264,1499,1000,0,0,0
1704716176620288,1500,1500,1264,1499,1000,0,0,0
1704716176626276,1500,1500,1265,1499,1000,0,0,0
1704716176632340,1499,1500,1265,1499,1000,0,0,0
1704716176638421,1500,1500,1265,1499,1000,0,0,0
1704716176644518,1500,1500,1265,1499,1000,0,0,0
1704716176650756,1499,1500,1265,1499,1000,0,0,0
1704716176656660,1499,1500,1265,1499,1000,0,0,0
1704716176662765,1499,1500,1265,1499,1000,0,0,0
1704716176668690,1499,1500,1265,1499,1000,0,0,0
1704716176674891,1499,1500,1264,1499,1000,0,0,0
1704716176681118,1499,1500,1264,1499,1000,0,0,0
1704716176686843,1499,1500,1264,1499,1000,0,0,0
1704716176692852,1499,1499,1264,1499,1000,0,0,0
1704716176699012,1499,1499,1264,1499,1000,0,0,0
1704716176705039,1499,1499,1264,1499,1000,0,0,0
1704716176711026,1499,1499,1263,1499,1000,0,0,0
1704716176717068,1499,1499,1263,1499,1000,0,0,0
1704716176723091,1499,1499,1263,1499,1000,0,0,0
1704716176729168,1499,1499,1263,1499,1000,0,0,0
1704716176735232,1499,1499,1263,1499,1000,0,0,0
1704716176741282,1499,1499,1263,1499,1000,0,0,0
1704716176747383,1499,1499,1263,1499,1000,0,0,0
1704716176753340,1499,1499,1263,1499,1000,0,0,0
1704716176759362,1499,1500,1263,1499,1000,0,0,0
1704716176765416,1500,1500,1263,1499,1000,0,0,0
1704716176771424,1500,1500,1263,1499,1000,0,0,0
1704716176777542,1500,1501,1263,1499,1000,0,0,0
1704716176783546,1501,1501,1263,1499,1000,0,0,0
1704716176789640,1501,1501,1263,1499,1000,0,0,0
1704716176795698,1501,1501,1263,1499,1000,0,0,0
1704716176801836,1501,1501,1263,1499,1000,0,0,0
1704716176807902,1501,1500,1263,1499,1000,0,0,0
1704716176814084,1500,1500,1263,1499,1000,0,0,0
1704716176820096,1500,1500,1263,1499,1000,0,0,0
1704716176826148,1500,1500,1263,1499,1000,0,0,0
1704716176832251,1500,1500,1263,1499,1000,0,0,0
1704716176838358,1500,1500,1263,1499,1000,0,0,0
1704716176844384,1499,1500,1263,1499,1000,0,0,0
1704716176850469,1499,1500,1263,1499,1000,0,0,0
1704716176856543,1499,1500,1263,1499,1000,0,0,0
1704716176862606,1499,1500,1263,1499,1000,0,0,0
1704716176868672,1499,1500,1263,1499,1000,0,0,0
1704716176874943,1499,1500,1263,1499,1000,0,0,0
1704716176881128,1499,1500,1263,1499,1000,0,0,0
1704716176886910,1499,1500,1263,1499,1000,0,0,0
1704716176892918,1499,1501,1263,1499,1000,0,0,0
1704716176899070,1499,1501,1263,1499,1000,0,0,0
1704716176905094,1500,1501,1263,1499,1000,0,0,0
1704716176911122,1500,1501,1263,1499,1000,0,0,0
1704716176917230,1500,1501,1263,1499,1000,0,0,0
1704716176923291,1500,1501,1263,1499,1000,0,0,0
1704716176929394,1500,1501,1263,1499,1000,0,0,0
1704716176935447,1500,1501,1262,1499,1000,0,0,0
1704716176941508,1500,1500,1262,1499,1000,0,0,0
1704716176947619,1500,1500,1262,1499,1000,0,0,0
1704716176953743,1500,1500,1262,1499,1000,0,0,0
1704716176959697,1500,1500,1262,1499,1000,0,0,0
1704716176965750,1500,1500,1262,1499,1000,0,0,0
1704716176971946,1500,1500,1262,1499,1000,0,0,0
1704716176977792,1500,1500,1262,1499,1000,0,0,0
1704716176983949,1501,1500,1262,1499,1000,0,0,0
1704716176990088,1501,1499,1262,1499,1000,0,0,0
1704716176996239,1501,1499,1262,1499,1000,0,0,0
1704716177002320,1501,1500,1262,1499,1000,0,0,0
1704716177008465,1500,1500,1262,1499,1000,0,0,0
