timestamp,roll,pitch,yaw,norm_thrust
1704716169474494,0.19921397,0.52136099,0.17320566,6.30499935
1704716169530492,-0.41371006,-0.89158916,0.14974764,10.80532837
1704716169538624,-0.43802965,-0.92100656,0.14470316,10.39899349
1704716169544465,-0.42769787,-0.89089888,0.14193076,10.12674427
1704716169550473,-0.40766114,-0.84974742,0.13608652,9.84272385
1704716169556639,-0.38089573,-0.79538786,0.12549320,9.54318142
1704716169562487,-0.34518692,-0.71363980,0.11446789,9.26668549
1704716169568501,-0.31649107,-0.58796340,0.10319546,8.98288441
1704716169574629,-0.26926053,-0.41808668,0.09456248,8.68432140
1704716169580489,-0.20017722,-0.21627378,0.09187309,8.39684010
1704716169590489,-0.05587885,0.13960409,0.09183554,7.93572235
1704716169596648,0.04582457,0.34733284,0.09271526,7.68595934
1704716169602483,0.14697862,0.51576698,0.09189060,7.48024940
1704716169608498,0.24323463,0.65328300,0.09031768,7.30203915
1704716169614509,0.32504416,0.75007069,0.08851068,7.16453409
1704716169620385,0.38555306,0.78254533,0.08566071,7.08015108
1704716169626517,0.42772782,0.75990695,0.08194063,7.02475262
1704716169632492,0.44262710,0.69883978,0.07859030,6.99194956
1704716169638522,0.43449193,0.60415453,0.07439791,6.99637985
1704716169646492,0.38178065,0.44861484,0.07002364,7.05081034
1704716169652554,0.31985578,0.32428098,0.06818666,7.13742399
1704716169658445,0.24556914,0.20610586,0.06611899,7.24914598
1704716169664590,0.16564745,0.09476767,0.06244600,7.40676451
1704716169670519,0.08864240,0.00187466,0.05898870,7.59054279
1704716169676494,0.01151968,-0.07968049,0.05638021,7.78708839
1704716169682497,-0.05837510,-0.13532668,0.05405717,8.01966381
1704716169688513,-0.11766686,-0.16936463,0.05125747,8.27250195
1704716169694470,-0.16449891,-0.18367234,0.04826859,8.51821327
1704716169700476,-0.17833678,-0.11468104,0.04612046,8.70777416
1704716169710443,-0.15961255,0.05985417,0.03927353,8.58495998
1704716169716517,-0.15014526,0.14673111,0.03627781,8.38831711
1704716169722477,-0.13717644,0.22547117,0.03464929,8.17483521
1704716169728518,-0.11986858,0.29510489,0.03401713,7.97728157
1704716169734456,-0.10164766,0.36090550,0.03308471,7.81930017
1704716169740444,-0.07481546,0.41127348,0.03191086,7.75684452
1704716169746825,-0.04771947,0.43368107,0.03018828,7.74539566
1704716169752471,-0.02237234,0.41196960,0.02958321,7.71221066
1704716169758499,0.00422283,0.36492994,0.02876422,7.69587898
1704716169764662,0.02517444,0.30436942,0.02809819,7.68998957
1704716169772545,0.04628522,0.21493262,0.02798613,7.68606806
1704716169778471,0.05896964,0.12884460,0.02778500,7.67708302
1704716169784615,0.06365129,0.01870565,0.02693292,7.68306398
1704716169790485,0.06343643,-0.09856977,0.02591850,7.69608355
1704716169796639,0.05832811,-0.21613893,0.02528156,7.70022631
1704716169802498,0.04689405,-0.32372677,0.02474505,7.71518135
1704716169808526,0.02916233,-0.42285973,0.02382082,7.73294353
1704716169814648,0.00737841,-0.50507736,0.02284245,7.74928761
1704716169820519,-0.01823586,-0.55089206,0.02181897,7.78407478
1704716169826503,-0.04776802,-0.56624496,0.02064186,7.82551241
1704716169836572,-0.09063551,-0.53021514,0.01913742,7.90009212
1704716169842482,-0.11088020,-0.46101660,0.01856669,7.96459389
1704716169848499,-0.12523757,-0.35797912,0.01789271,8.02862167
1704716169854478,-0.13522191,-0.23517403,0.01678544,8.07571507
1704716169860436,-0.13812821,-0.09132688,0.01547053,8.13853645
1704716169866441,-0.13068861,0.05361983,0.01505286,8.18726254
1704716169872617,-0.11532564,0.17562546,0.01571626,8.17281055
1704716169878492,-0.08639377,0.28811133,0.01589637,8.13824558
1704716169884533,-0.04830542,0.39767665,0.01535193,8.10320568
1704716169890483,-0.01111994,0.46703091,0.01577353,8.07006931
1704716169898492,0.04485992,0.48934433,0.01594932,8.03922081
1704716169904522,0.08853456,0.46974629,0.01598142,8.04077530
1704716169910511,0.12638059,0.42140308,0.01560069,8.07490444
1704716169916697,0.15142529,0.34364951,0.01506186,8.12553120
1704716169922509,0.16527337,0.24092436,0.01439880,8.19222355
1704716169928500,0.15935662,0.12338132,0.01380429,8.23927689
1704716169934532,0.13839608,0.00008821,0.01362086,8.25168037
1704716169940518,0.11208266,-0.10696030,0.01337221,8.26246166
1704716169946545,0.07918964,-0.20673496,0.01338413,8.25782013
1704716169952486,0.04039288,-0.30528378,0.01364116,8.23334217
1704716169962501,-0.03467701,-0.44267684,0.01240592,8.21996689
1704716169968484,-0.07831532,-0.49459058,0.01225485,8.23010635
1704716169974514,-0.12136343,-0.51838005,0.01159508,8.23771667
1704716169980526,-0.15657875,-0.50605094,0.01102918,8.26784229
1704716169986524,-0.18206996,-0.46196109,0.01036625,8.31179142
1704716169992490,-0.19601911,-0.39447823,0.00976528,8.35668087
1704716169998558,-0.19462763,-0.29222465,0.00902952,8.42747974
1704716170004569,-0.18034638,-0.17198171,0.00849587,8.50157452
1704716170010469,-0.15961988,-0.06101291,0.00831019,8.53538036
1704716170018530,-0.11436863,0.06495503,0.00818508,8.50871658
1704716170024529,-0.06689693,0.16993219,0.00850804,8.44887447
1704716170030437,-0.01344313,0.27949989,0.00865983,8.39041424
1704716170036517,0.04154809,0.36819389,0.00980748,8.34600544
1704716170042493,0.08926345,0.41019753,0.01080770,8.31024456
1704716170048514,0.13241512,0.41893047,0.01071816,8.28092670
1704716170054631,0.17867965,0.40970498,0.00949356,8.32989788
1704716170060483,0.22387469,0.39819574,0.00859184,8.43361759
1704716170066521,0.25048772,0.35722375,0.00754639,8.54367924
1704716170072518,0.25795135,0.29104221,0.00649174,8.64334583
1704716170082519,0.24526952,0.15650055,0.00378486,8.87184429
1704716170088535,0.20892635,0.07127226,0.00362919,8.97992039
1704716170094517,0.14864764,-0.02220838,0.00326197,9.00565338
1704716170100480,0.08187698,-0.12267824,0.00252883,9.00876141
1704716170106524,0.01513489,-0.21913013,0.00207646,8.99787045
1704716170112484,-0.05119002,-0.29626647,0.00199542,8.97861862
1704716170118690,-0.10927310,-0.34321457,0.00236817,8.97793198
1704716170124525,-0.15408990,-0.35428882,0.00304335,8.98117733
1704716170130537,-0.19341673,-0.34540883,0.00381794,8.97245502
1704716170136524,-0.21820639,-0.31176069,0.00442002,8.97380066
1704716170144866,-0.23676279,-0.23106802,0.00434461,9.00807381
1704716170150478,-0.23356046,-0.15990876,0.00384600,9.06060505
1704716170156637,-0.21580958,-0.08651882,0.00323963,9.11497784
1704716170162578,-0.18035352,-0.01991256,0.00355859,9.15739250
1704716170168517,-0.12865774,0.04667015,0.00372077,9.16347694
1704716170174525,-0.07044858,0.12640470,0.00375583,9.13698006
1704716170180524,-0.00253432,0.21055052,0.00440548,9.12388134
1704716170186494,0.06113734,0.27598867,0.00460386,9.12171459
1704716170192504,0.11813281,0.31257972,0.00495334,9.11909294
1704716170198530,0.16686928,0.32269865,0.00522939,9.14758682
1704716170208534,0.21272011,0.29088762,0.00467070,9.21812344
1704716170214535,0.21510771,0.24368124,0.00456654,9.26012897
1704716170220521,0.20516436,0.18400189,0.00441265,9.32404804
1704716170226482,0.18280798,0.12159336,0.00441370,9.39184475
1704716170232540,0.14645416,0.05211613,0.00445373,9.44990158
1704716170238475,0.10565314,-0.00910131,0.00452842,9.52299595
1704716170244684,0.06050954,-0.06367032,0.00461415,9.59830475
1704716170250489,0.01459591,-0.10969216,0.00466178,9.65678883
1704716170256535,-0.02797391,-0.14051799,0.00482526,9.72573853
1704716170262525,-0.06649629,-0.16055168,0.00467545,9.78913879
1704716170270543,-0.10762057,-0.16659443,0.00427128,9.85655689
1704716170276576,-0.13060698,-0.16002464,0.00363229,9.89455700
1704716170282427,-0.14251749,-0.13888994,0.00294329,9.93822861
1704716170288741,-0.14712310,-0.10776089,0.00231176,9.97782803
1704716170294510,-0.14580306,-0.07674023,0.00222162,9.99953747
1704716170300500,-0.13431017,-0.03693464,0.00224064,10.03000927
1704716170306534,-0.11443614,0.00577403,0.00252932,10.05606937
1704716170312551,-0.09352083,0.04405367,0.00328942,10.06501579
1704716170318506,-0.06995399,0.07714067,0.00389187,10.06953335
1704716170324523,-0.04619578,0.10007315,0.00455132,10.05690670
1704716170334515,-0.00460131,0.11707221,0.00539743,10.02161503
1704716170340480,0.01721362,0.11632020,0.00505674,9.99212456
1704716170346517,0.03243445,0.11027549,0.00461345,9.95714951
1704716170352476,0.04307038,0.09826576,0.00396281,9.91835499
1704716170354537,0.04885887,0.09473632,0.00377557,9.91830730
1704716170364521,0.09035756,0.07434364,0.00274699,9.95860100
1704716170370498,0.09208455,0.05197006,0.00267565,9.94742870
1704716170376691,0.09576001,0.02952003,0.00276234,9.95740891
1704716170382538,0.09406352,0.00434478,0.00263164,9.96002769
1704716170388554,0.08014417,-0.02084336,0.00211769,9.94016171
1704716170394523,0.06658663,-0.04227763,0.00151581,9.93337727
1704716170400511,0.04234278,-0.05860015,0.00115221,9.91501617
1704716170408616,0.01186860,-0.07738672,0.00084887,9.91262341
1704716170414543,-0.01495715,-0.08410589,0.00095039,9.89698124
1704716170420571,-0.03760412,-0.08022568,0.00110774,9.89309120
1704716170426574,-0.05797563,-0.07346992,0.00134791,9.89363098
1704716170432521,-0.07530957,-0.06423248,0.00131733,9.88394451
1704716170438544,-0.08182766,-0.04649138,0.00114752,9.88465881
1704716170444527,-0.07876699,-0.02735346,0.00112630,9.88914680
1704716170450506,-0.07153293,-0.00939735,0.00168108,9.88289833
1704716170456550,-0.05742925,0.00470189,0.00230545,9.88960361
1704716170462531,-0.04276489,0.01596453,0.00233304,9.89914227
1704716170472585,-0.02146281,0.03315983,0.00154502,9.90788364
1704716170478522,-0.00439410,0.03688210,0.00108173,9.92531395
1704716170484496,0.01258476,0.03996981,0.00062983,9.94034863
1704716170488589,0.02264436,0.04120711,0.00034264,9.94526482
1704716170496534,0.03996769,0.04355573,-0.00064793,9.95591450
1704716170502483,0.05156798,0.04325676,-0.00143715,9.97116947
1704716170508548,0.05399872,0.03993108,-0.00183722,9.97582912
1704716170514770,0.05460704,0.03891863,-0.00214021,9.99909973
1704716170520546,0.04916584,0.03420911,-0.00229109,10.01027393
1704716170526488,0.04376433,0.03154216,-0.00237185,10.03636742
1704716170532547,0.03660728,0.03371423,-0.00243654,10.05974007
1704716170540547,0.02534457,0.03192265,-0.00246820,10.07855797
1704716170546524,0.01376836,0.03735663,-0.00257916,10.10054207
1704716170552534,-0.00357031,0.03609530,-0.00269287,10.11023331
1704716170558559,-0.01658254,0.03180992,-0.00265605,10.13670158
1704716170564603,-0.02501748,0.02702723,-0.00241711,10.16144657
1704716170570549,-0.03438451,0.02384786,-0.00192564,10.17041397
1704716170576535,-0.03617755,0.02422691,-0.00171104,10.19837475
1704716170582538,-0.03644061,0.02313961,-0.00137807,10.22421551
1704716170588562,-0.03859173,0.01924918,-0.00102204,10.23094368
1704716170594499,-0.03601953,0.02221751,-0.00112583,10.25398350
1704716170604564,-0.03013401,0.02449558,-0.00130363,10.28611946
1704716170610467,-0.02618659,0.01929956,-0.00136155,10.28897095
1704716170616499,-0.01417384,0.01820136,-0.00152781,10.30580044
1704716170622629,0.00048545,0.01216612,-0.00168219,10.32651520
1704716170628522,0.00971947,0.00188073,-0.00176175,10.30967999
1704716170634609,0.01748203,-0.00901525,-0.00189000,10.29022312
1704716170640499,0.02321338,-0.01789110,-0.00189781,10.27006435
1704716170646573,0.02519028,-0.02736020,-0.00179328,10.24928665
1704716170652497,0.02500358,-0.03562103,-0.00156177,10.22851944
1704716170658539,0.02229184,-0.04223443,-0.00129124,10.20646000
1704716170664797,0.02835195,-0.03962528,-0.00116779,10.22646141
1704716170672525,0.03471990,-0.02602411,-0.00119676,10.27105522
1704716170678553,0.04608682,-0.02054669,-0.00142520,10.32840919
1704716170684528,0.04927542,-0.01533358,-0.00158963,10.36568356
1704716170690507,0.04469286,-0.01212578,-0.00186651,10.37094784
1704716170696565,0.04436200,-0.00692443,-0.00208569,10.39503670
1704716170702565,0.04236419,-0.01091583,-0.00222178,10.42121983
1704716170708541,0.03556974,-0.01807520,-0.00227027,10.41984653
1704716170714586,0.03360588,-0.02487612,-0.00257613,10.43088150
1704716170720613,0.03061475,-0.02965622,-0.00288683,10.43799877
1704716170730528,0.01922739,-0.04222263,-0.00313709,10.42654324
1704716170736507,0.01385173,-0.05265185,-0.00332616,10.42360592
1704716170742612,0.01099402,-0.05956805,-0.00323613,10.40801239
1704716170748620,0.00155701,-0.06086053,-0.00315843,10.37708664
1704716170754561,-0.00235296,-0.05562698,-0.00312071,10.35633659
1704716170760458,-0.00583804,-0.05042210,-0.00283614,10.31762505
1704716170766563,-0.00328692,-0.04121484,-0.00261858,10.29076195
1704716170772542,-0.00090273,-0.03383701,-0.00254835,10.26978493
1704716170778538,-0.00287664,-0.02715612,-0.00224809,10.23373795
1704716170784524,-0.00169685,-0.01543485,-0.00211695,10.21010780
1704716170792526,-0.00558397,-0.00196505,-0.00264356,10.18464661
1704716170798522,-0.00753651,-0.00286685,-0.00329462,10.17891407
1704716170804749,-0.00667032,-0.00645438,-0.00383749,10.17613220
1704716170810498,-0.00883574,-0.00635224,-0.00433284,10.17077160
1704716170816561,-0.00920525,-0.00413536,-0.00492771,10.19036007
1704716170822564,-0.00866847,0.00281956,-0.00539295,10.21356392
1704716170828519,-0.00749094,0.00123268,-0.00561443,10.22285557
1704716170834558,-0.00214669,0.00217045,-0.00555524,10.25310707
1704716170840563,-0.00316279,-0.00357884,-0.00554573,10.27455235
1704716170846559,-0.00013007,-0.01012564,-0.00564430,10.31714058
1704716170856566,0.00688009,-0.01308678,-0.00532461,10.37559891
1704716170862588,0.00929282,-0.00773805,-0.00528770,10.41902351
1704716170866537,0.00927869,-0.00704142,-0.00517914,10.44222164
1704716170874551,0.00833266,-0.00807615,-0.00495987,10.48157215
1704716170880604,0.01088637,-0.01075217,-0.00490244,10.51607513
1704716170886450,0.00807991,-0.01454158,-0.00503436,10.53334904
1704716170892539,0.00861155,-0.01844719,-0.00511404,10.56892300
1704716170898552,0.00773075,-0.02149889,-0.00526506,10.57821369
1704716170904547,0.01225259,-0.02062735,-0.00551681,10.59740353
1704716170912513,0.01978225,-0.02412456,-0.00563330,10.61215210
1704716170918488,0.02768364,-0.02185853,-0.00576879,10.62302017
1704716170924488,0.03488665,-0.01198035,-0.00602690,10.62539482
1704716170930595,0.03399064,-0.00448194,-0.00603613,10.61158848
1704716170936521,0.02746897,0.00169039,-0.00619718,10.57761288
1704716170942538,0.02017672,0.00875134,-0.00620546,10.53998947
1704716170948595,0.01206035,0.01494149,-0.00632644,10.49921417
1704716170954576,0.00544239,0.02010842,-0.00651015,10.45656013
1704716170960493,-0.00106243,0.02283757,-0.00658019,10.41332912
1704716170966558,-0.00699043,0.02619835,-0.00657940,10.36936855
1704716170974600,0.00287814,0.03701461,-0.00653391,10.36174011
1704716170978518,0.01803338,0.05394549,-0.00657998,10.37403488
1704716170988585,0.04745975,0.08160429,-0.00655875,10.41320705
1704716170994504,0.06335758,0.09981352,-0.00644807,10.42313385
1704716171000498,0.06729088,0.10487564,-0.00611953,10.41410160
1704716171006526,0.07266200,0.10602105,-0.00571668,10.42488670
1704716171012530,0.07728557,0.10373401,-0.00538047,10.43158817
1704716171018598,0.07669810,0.10397250,-0.00509916,10.42166615
1704716171024572,0.07512640,0.10566830,-0.00512807,10.43545246
1704716171030533,0.07501405,0.09808061,-0.00522261,10.45251369
1704716171036551,0.07194485,0.08860321,-0.00515467,10.45494747
1704716171042545,0.07349660,0.08867051,-0.00532151,10.47258949
1704716171050512,0.07191770,0.08000927,-0.00582944,10.49184418
1704716171056654,0.07557397,0.07678638,-0.00630565,10.51296616
1704716171062574,0.07599454,0.07564772,-0.00661814,10.54011059
1704716171068532,0.07130106,0.06851657,-0.00693694,10.55089951
1704716171074559,0.06955525,0.06716675,-0.00744634,10.57475853
1704716171080551,0.06129901,0.05739432,-0.00782156,10.58826733
1704716171086555,0.05609661,0.04863279,-0.00808291,10.61457920
1704716171092525,0.04997973,0.05123630,-0.00824119,10.63959694
1704716171098567,0.04268433,0.04546753,-0.00825294,10.65211868
1704716171104575,0.04257920,0.04202002,-0.00808329,10.67704678
1704716171114594,0.03804179,0.03492029,-0.00776028,10.71573830
1704716171120542,0.03284168,0.03097665,-0.00740799,10.72128296
1704716171126562,0.03473581,0.03048063,-0.00708998,10.74109936
1704716171132563,0.03700126,0.03695378,-0.00675648,10.75757408
1704716171138530,0.03588974,0.04252090,-0.00655400,10.75886440
1704716171144632,0.04174439,0.04899310,-0.00656404,10.76926231
1704716171150544,0.04662115,0.05887170,-0.00654991,10.77397156
1704716171156608,0.04564755,0.06249556,-0.00636024,10.76414013
1704716171162546,0.05068253,0.07001828,-0.00644259,10.76202965
1704716171170582,0.04992875,0.07517561,-0.00643681,10.75211239
1704716171176576,0.05368311,0.08073172,-0.00652362,10.74518681
1704716171182445,0.05636795,0.08103652,-0.00661629,10.74057198
1704716171188731,0.05349687,0.07668937,-0.00668397,10.71891212
1704716171194568,0.05252554,0.07660010,-0.00666543,10.70948505
1704716171198562,0.04803111,0.07661962,-0.00678022,10.69783878
1704716171206563,0.03908057,0.07474742,-0.00700094,10.67042446
1704716171212528,0.03018055,0.07195438,-0.00691100,10.65567398
1704716171218548,0.01872311,0.06670596,-0.00662956,10.62940979
1704716171224561,0.00769545,0.06203425,-0.00641669,10.61742592
1704716171234536,-0.01265013,0.05401710,-0.00611556,10.59102154
1704716171240515,-0.03012295,0.04543805,-0.00602685,10.56434822
1704716171246553,-0.04473432,0.03601743,-0.00581399,10.53934288
1704716171252543,-0.05564860,0.02576527,-0.00556377,10.51725674
1704716171258540,-0.06404330,0.01517728,-0.00525999,10.49737835
1704716171264551,-0.07013305,0.00444272,-0.00497770,10.48012829
1704716171270523,-0.07425641,-0.00505822,-0.00470521,10.46573639
1704716171276630,-0.07456851,-0.01176705,-0.00466626,10.45439720
1704716171278568,-0.07405949,-0.01382964,-0.00458891,10.45188713
1704716171288578,-0.04229035,0.00755126,-0.00495559,10.50515747
1704716171294538,-0.02274699,0.01337798,-0.00493582,10.55660343
1704716171302498,-0.00075265,0.03241110,-0.00517116,10.61158466
1704716171306619,0.00562676,0.03468626,-0.00502418,10.63036442
1704716171314540,0.01525879,0.04318308,-0.00495791,10.66261482
1704716171320537,0.01715239,0.04672212,-0.00495003,10.68120575
1704716171327150,0.01891050,0.04456243,-0.00500207,10.71343708
1704716171333247,0.02151462,0.04830246,-0.00510084,10.73762798
1704716171339293,0.01527060,0.04810481,-0.00535851,10.76549625
1704716171345229,0.00593140,0.04173981,-0.00533271,10.77799892
1704716171351238,-0.00494249,0.03779447,-0.00525486,10.79898453
1704716171357267,-0.01516415,0.02529276,-0.00525357,10.81917286
1704716171362627,-0.02554569,0.01582837,-0.00515378,10.82268429
1704716171372606,-0.04117175,-0.00542617,-0.00466660,10.83979988
1704716171378506,-0.04809120,-0.01677412,-0.00452660,10.83396435
1704716171384540,-0.05408648,-0.02241343,-0.00459248,10.83644772
1704716171390580,-0.05372328,-0.02750343,-0.00470779,10.83333683
1704716171396712,-0.05703152,-0.03250802,-0.00457821,10.82040787
1704716171402502,-0.05398407,-0.03219723,-0.00431764,10.81433201
1704716171408676,-0.04779138,-0.03359079,-0.00399212,10.80662537
1704716171414718,-0.03908778,-0.03080143,-0.00380137,10.78692341
1704716171420520,-0.02953967,-0.02991442,-0.00358225,10.77883816
1704716171426562,-0.01716448,-0.02068553,-0.00337767,10.76220798
1704716171432532,-0.01159009,-0.01354659,-0.00337148,10.73964405
1704716171440650,0.00015873,0.00056025,-0.00337184,10.71531296
1704716171446523,0.00272588,0.00851235,-0.00350791,10.69228077
1704716171452693,0.00502013,0.01192914,-0.00357401,10.67396545
1704716171458555,0.00463564,0.01863408,-0.00376690,10.65081406
1704716171464612,0.00441204,0.01841493,-0.00383656,10.63779736
1704716171470530,0.00531750,0.02175688,-0.00377551,10.62315464
1704716171476626,-0.00002178,0.02149654,-0.00371699,10.60634327
1704716171482552,-0.00056718,0.01625587,-0.00375434,10.60058403
1704716171488585,0.00275072,0.01359254,-0.00378176,10.59585571
1704716171494606,-0.00085551,0.00380297,-0.00382767,10.58945942
1704716171504573,0.00360632,-0.01203088,-0.00369333,10.59193516
1704716171510495,0.00754177,-0.02189483,-0.00363874,10.59943867
1704716171516583,0.00730933,-0.02666835,-0.00322714,10.59474564
1704716171522556,0.00854991,-0.02411864,-0.00278147,10.60318565
1704716171528538,0.01244238,-0.02211040,-0.00259447,10.60861206
1704716171534598,0.01027918,-0.02046653,-0.00233843,10.60830212
1704716171540543,0.01213053,-0.01122002,-0.00202541,10.61657238
1704716171546592,0.00622277,-0.00940065,-0.00188163,10.60752392
1704716171552534,0.00145860,-0.00666906,-0.00180085,10.59826469
1704716171558576,-0.00498075,-0.00177346,-0.00175799,10.58843708
1704716171566561,-0.01184190,0.00271243,-0.00205958,10.57432270
1704716171572769,-0.01535341,0.00396616,-0.00219821,10.56186867
1704716171578541,-0.01736850,0.00302084,-0.00217984,10.54943371
1704716171582541,-0.01621410,0.00212368,-0.00198368,10.54032326
1704716171584547,-0.01067740,0.00641208,-0.00203372,10.54429150
1704716171596596,0.01883454,0.02530098,-0.00223196,10.58044910
1704716171602535,0.04772890,0.03441726,-0.00243312,10.61979866
1704716171608581,0.06970771,0.05277392,-0.00229513,10.64293385
1704716171616454,0.08686711,0.05921629,-0.00201759,10.65244865
1704716171620547,0.09370010,0.06229059,-0.00178883,10.65337944
1704716171630563,0.09974173,0.06511550,-0.00161084,10.66343689
1704716171636523,0.09571306,0.05910373,-0.00156781,10.65566826
1704716171642521,0.09303171,0.05499203,-0.00147064,10.65644264
1704716171648555,0.08474307,0.04126482,-0.00142508,10.65514278
1704716171654524,0.07036220,0.02804829,-0.00126602,10.63786697
1704716171660543,0.05720859,0.01823025,-0.00099151,10.63361931
1704716171666541,0.04505106,0.00838475,-0.00058583,10.62398243
1704716171672573,0.03134100,0.00465333,-0.00026966,10.60342407
1704716171678553,0.02185181,0.00893777,-0.00013516,10.59273624
1704716171684581,0.01637641,0.01582256,-0.00025656,10.57724285
1704716171692546,0.00890814,0.01363775,-0.00021838,10.55498505
1704716171698595,0.00358174,0.01393543,-0.00026504,10.53196049
1704716171704800,0.00053416,0.01624438,-0.00019858,10.51881123
1704716171710534,0.00154307,0.01508866,-0.00016078,10.50515842
1704716171716568,-0.00058230,0.02054356,-0.00010757,10.48457718
1704716171722563,-0.00142542,0.03215584,-0.00029461,10.47396946
1704716171728560,0.00312794,0.04126356,-0.00073089,10.46172714
1704716171734586,0.00167449,0.04379078,-0.00091504,10.44919109
1704716171740535,0.00634108,0.04473215,-0.00083962,10.44564342
1704716171750543,0.01142232,0.04184777,-0.00055748,10.44362831
1704716171756617,0.00909379,0.03623390,-0.00034223,10.43781853
1704716171762540,0.01140857,0.04352998,-0.00030791,10.43668938
1704716171768559,0.01210738,0.04339593,-0.00026878,10.44373417
1704716171774591,0.00965695,0.03914630,-0.00005180,10.44271564
1704716171780564,0.01292090,0.04016098,0.00000634,10.44671249
1704716171786710,0.01319613,0.03735635,0.00006929,10.45836353
1704716171792547,0.00982145,0.03096686,0.00024949,10.46224689
1704716171798611,0.01023646,0.03182277,0.00044062,10.46961308
1704716171804588,0.00725975,0.03629194,0.00050703,10.48228455
1704716171812616,0.00438386,0.02861786,0.00059972,10.49182606
1704716171818536,-0.00110172,0.02328847,0.00074161,10.49693012
1704716171824732,-0.00364014,0.01606562,0.00081932,10.51110077
1704716171830551,-0.00284755,0.01228090,0.00077185,10.52093792
1704716171837390,-0.00353369,0.00432386,0.00071971,10.53397942
1704716171841341,-0.00345295,0.00078960,0.00075084,10.53865051
1704716171848576,-0.00161185,0.00438049,0.00098125,10.54104614
1704716171854598,-0.00537523,-0.00017141,0.00133314,10.53235722
1704716171860523,-0.01062968,-0.00295680,0.00169575,10.52216053
1704716171870533,-0.02193409,-0.00381305,0.00197701,10.50121307
1704716171876541,-0.03054990,-0.00226433,0.00218302,10.48707008
1704716171882563,-0.03719753,-0.00063642,0.00227630,10.47175598
1704716171888602,-0.04451150,0.00257957,0.00234779,10.45609665
1704716171890537,-0.04674294,0.00282296,0.00237754,10.45096588
1704716171900556,-0.00947331,0.03552428,0.00208784,10.49691200
1704716171906732,0.00812098,0.04553792,0.00202956,10.52109241
1704716171912536,0.01489662,0.05189733,0.00205543,10.52384377
1704716171918558,0.02954576,0.07468710,0.00207320,10.53093243
1704716171926555,0.03828586,0.08172394,0.00248879,10.54114914
1704716171932545,0.04561799,0.08319872,0.00257575,10.54738998
1704716171938634,0.04608328,0.08012475,0.00263079,10.54234028
1704716171944718,0.04617056,0.07526934,0.00242465,10.54939651
1704716171950538,0.04374738,0.06055191,0.00231390,10.55256462
1704716171956579,0.03549696,0.04573071,0.00221644,10.54395771
1704716171962567,0.02900610,0.03547803,0.00216258,10.54205990
1704716171968573,0.02112761,0.02091084,0.00229135,10.53837299
1704716171974587,0.01174445,0.01535841,0.00247321,10.52166367
1704716171980559,0.00548767,0.01382551,0.00244247,10.51417065
1704716171990537,-0.00352275,0.00948996,0.00243151,10.49149990
1704716171996591,-0.01203194,0.01039987,0.00250519,10.47522736
1704716172002528,-0.01422085,0.01137782,0.00241175,10.46549988
1704716172008528,-0.01225003,0.01084836,0.00240348,10.45651340
1704716172014750,-0.01534147,0.00915555,0.00262833,10.43979931
1704716172020654,-0.01174841,0.01140848,0.00287423,10.42487621
1704716172026575,-0.01108458,0.01488520,0.00303302,10.41377831
1704716172032557,-0.01226234,0.01421953,0.00321407,10.39654636
1704716172038597,-0.01049372,0.01896433,0.00331883,10.38189507
1704716172044548,-0.01510866,0.02146374,0.00326667,10.36774731
1704716172050523,-0.02316625,0.02069769,0.00316144,10.34981918
1704716172058558,-0.03387795,0.01822379,0.00321108,10.32911968
1704716172064708,-0.04380953,0.01611788,0.00320090,10.31559944
1704716172070549,-0.05173958,0.01364587,0.00314573,10.30434418
1704716172076573,-0.04673462,0.01254303,0.00289053,10.31455135
1704716172082580,-0.03341739,0.01697612,0.00266822,10.33092308
1704716172088592,-0.02401520,0.01885110,0.00245601,10.34832287
1704716172094564,-0.01793411,0.01820482,0.00246570,10.35102081
1704716172100560,-0.00497035,0.02109979,0.00261734,10.36660290
1704716172106591,0.00509980,0.02016608,0.00282305,10.38363457
1704716172116623,0.01441682,0.01911576,0.00339788,10.39593029
1704716172122606,0.02078819,0.01706748,0.00347812,10.41497231
1704716172128549,0.02277341,0.01045308,0.00336953,10.43213367
1704716172134728,0.01651745,0.00768300,0.00336327,10.43762302
1704716172140531,0.01371149,0.01139683,0.00314464,10.44762135
1704716172146595,0.00766920,0.00854886,0.00303917,10.46281528
1704716172152612,-0.00264688,0.00601605,0.00298033,10.46455669
1704716172158601,-0.01093705,0.01516671,0.00303319,10.47239971
1704716172164606,-0.02237607,0.01506110,0.00304007,10.46420956
1704716172170548,-0.03250308,0.01634393,0.00301496,10.45421791
1704716172178582,-0.04313859,0.01664360,0.00313690,10.43868732
1704716172184532,-0.04812023,0.01745287,0.00315900,10.42565060
1704716172190552,-0.05131765,0.01799996,0.00338840,10.41011238
1704716172196618,-0.05256072,0.01703970,0.00346250,10.39350128
1704716172204602,-0.04145426,0.02867150,0.00339957,10.39579773
1704716172208592,-0.01815028,0.04193900,0.00342538,10.41111279
1704716172214764,-0.00914842,0.04362368,0.00359943,10.40661621
1704716172220542,0.00543234,0.04434789,0.00355477,10.41198921
1704716172226569,0.01631643,0.05650221,0.00343433,10.40449142
1704716172232566,0.01997448,0.06014068,0.00340266,10.39460468
1704716172242566,0.02763483,0.06074065,0.00317194,10.39043522
1704716172248555,0.03361275,0.06229305,0.00308597,10.38227272
1704716172254582,0.02993856,0.05664537,0.00306891,10.37299633
1704716172260512,0.02854772,0.04505591,0.00312067,10.37187004
1704716172266559,0.02643540,0.03930039,0.00323270,10.36409473
1704716172272595,0.02127229,0.03291076,0.00334367,10.35136414
1704716172278682,0.01871837,0.02722958,0.00332729,10.34830189
1704716172284591,0.01610903,0.01875391,0.00331321,10.34357071
1704716172290550,0.00939718,0.01255171,0.00338980,10.33368587
1704716172296619,0.00687084,0.01062934,0.00333310,10.33153343
1704716172304587,0.00338142,0.00297821,0.00366704,10.32831860
1704716172310519,0.00039276,0.00377290,0.00393027,10.32739925
1704716172316685,-0.00660571,0.00290409,0.00410830,10.32414818
1704716172322741,-0.00932731,0.00637231,0.00421531,10.32628822
1704716172328583,-0.00992839,0.01217580,0.00439742,10.32932281
1704716172334599,-0.01403749,0.01474206,0.00442059,10.32876682
1704716172340558,-0.01553868,0.01770334,0.00446198,10.33200550
1704716172346632,-0.01591297,0.02948292,0.00447379,10.33052254
1704716172352545,-0.01805382,0.03266125,0.00446046,10.33029270
1704716172358585,-0.01751596,0.03109899,0.00451281,10.33983612
1704716172368571,-0.01412828,0.02903900,0.00433524,10.35146236
1704716172374599,-0.01490783,0.02755498,0.00440200,10.35654259
1704716172380566,-0.01380863,0.02082950,0.00441643,10.37025356
1704716172386588,-0.01008674,0.01245868,0.00440660,10.38025188
1704716172392541,-0.00922935,0.00778614,0.00445554,10.38174438
1704716172398541,-0.00574209,0.00934820,0.00458573,10.39204979
1704716172404707,-0.00208357,0.00428582,0.00471628,10.40313816
1704716172410528,-0.00198674,-0.00044581,0.00498962,10.40370369
1704716172416595,0.00095029,0.00316073,0.00518972,10.40992928
1704716172418539,0.00031061,0.00129552,0.00514961,10.40755367
1704716172430543,0.00201428,0.00636329,0.00503707,10.41271687
1704716172436577,-0.00072147,0.01053116,0.00502495,10.40458202
1704716172442584,-0.00398537,0.02060151,0.00489902,10.40322113
1704716172448595,-0.00676356,0.03094546,0.00499292,10.39864540
1704716172454640,-0.00983869,0.03621543,0.00515780,10.38664246
1704716172460556,-0.01062598,0.04334582,0.00534164,10.38226414
1704716172466605,-0.01612328,0.04412071,0.00568147,10.37031269
1704716172472573,-0.02381148,0.04091089,0.00586141,10.35192680
1704716172478587,-0.03145548,0.03551968,0.00582272,10.33536434
1704716172488626,-0.04552583,0.02421797,0.00595617,10.30928516
1704716172494538,-0.05212980,0.01639974,0.00622209,10.29433823
1704716172500521,-0.05703589,0.00908687,0.00646632,10.27960205
1704716172506558,-0.04447287,0.01083993,0.00646830,10.27960587
1704716172512547,-0.02560180,0.02742421,0.00641870,10.28654575
1704716172518633,-0.01049866,0.04210916,0.00617355,10.28863430
1704716172524593,-0.00024067,0.04264690,0.00585808,10.29644394
1704716172530571,0.00602643,0.03937935,0.00536830,10.29553986
1704716172536591,0.01828723,0.04263711,0.00492719,10.29691696
1704716172544588,0.02760449,0.04522867,0.00468311,10.30167198
1704716172548608,0.02945029,0.04082532,0.00458302,10.30576611
1704716172556751,0.03227306,0.03164848,0.00463975,10.31233120
1704716172562586,0.03311191,0.03138814,0.00474554,10.31900024
1704716172568584,0.02786942,0.02807154,0.00466261,10.33042908
1704716172574586,0.01835818,0.02045261,0.00463552,10.33759975
1704716172580567,0.01401391,0.01495546,0.00448089,10.34970474
1704716172586590,0.00937669,0.01584013,0.00435612,10.36195278
1704716172592589,-0.00054688,0.01228390,0.00411021,10.37078667
1704716172602576,-0.00845459,0.00769377,0.00399811,10.39325237
1704716172608593,-0.00748148,0.01055699,0.00386483,10.40455914
1704716172614678,-0.00918547,0.01010981,0.00360937,10.41196442
1704716172620546,-0.00689451,0.01235544,0.00343279,10.42292690
1704716172626614,-0.00288796,0.01760666,0.00324164,10.42993355
1704716172632645,-0.00310848,0.01965482,0.00315062,10.43138504
1704716172638610,0.00035368,0.02766685,0.00290852,10.43631935
1704716172644588,0.00406456,0.03650979,0.00292110,10.43594265
1704716172650575,0.00270449,0.03773866,0.00297393,10.43251610
1704716172656620,0.00377924,0.04089175,0.00293795,10.43311501
1704716172664619,0.00217922,0.04221542,0.00314431,10.42447853
1704716172670577,0.00251374,0.04446048,0.00318022,10.41750622
1704716172676532,-0.00115456,0.04001873,0.00336063,10.40856647
1704716172682747,-0.00310152,0.04005506,0.00332603,10.40271187
1704716172688629,-0.00252627,0.04144870,0.00323222,10.39693260
1704716172694584,-0.00752885,0.03439738,0.00322346,10.38822269
1704716172700576,-0.01052541,0.03034403,0.00304106,10.38274193
1704716172706625,-0.01073280,0.03152752,0.00282261,10.37185574
1704716172712584,-0.01425190,0.02758579,0.00270879,10.36212349
1704716172718604,-0.01384356,0.02218205,0.00265664,10.35738754
1704716172724646,-0.01336136,0.02013739,0.00255999,10.35224628
1704716172734570,-0.01501909,0.01970738,0.00257441,10.34466934
1704716172740559,-0.01390327,0.01880604,0.00249409,10.34685993
1704716172746624,-0.01298870,0.02037620,0.00252024,10.34589577
1704716172752558,-0.01467510,0.01900760,0.00247007,10.34360600
1704716172758613,-0.01427498,0.01790403,0.00246433,10.34533882
1704716172764625,-0.01115454,0.01684214,0.00259529,10.34481335
1704716172770546,-0.01110537,0.01725108,0.00267768,10.34087658
1704716172776634,-0.01186401,0.01556373,0.00267273,10.33773613
1704716172782614,-0.01746594,0.01109297,0.00288371,10.33240700
1704716172788608,-0.02321096,0.00547728,0.00292088,10.32742405
1704716172796651,-0.03205491,-0.00242597,0.00299443,10.32113743
1704716172802618,-0.03854933,-0.00985907,0.00298755,10.31635666
1704716172806643,-0.03918377,-0.01367104,0.00304448,10.31680202
1704716172814805,-0.03053102,-0.02166452,0.00334085,10.33066559
1704716172820562,-0.02013392,-0.02540126,0.00330888,10.34526730
1704716172826600,-0.00927519,-0.02677269,0.00325600,10.35725021
1704716172832592,-0.00267462,-0.02772076,0.00324483,10.36653137
1704716172838641,0.00684824,-0.02788947,0.00307807,10.38286781
1704716172844601,0.01287347,-0.02444570,0.00300122,10.39583683
1704716172850551,0.01451135,-0.01980606,0.00295444,10.40186214
1704716172856612,0.02014181,-0.01330364,0.00295202,10.41390324
1704716172862590,0.02380342,-0.00852170,0.00311040,10.42490101
1704716172872641,0.02377363,0.00438198,0.00332752,10.43039036
1704716172878604,0.02271005,0.01209249,0.00339288,10.43664742
1704716172884621,0.02167043,0.01687831,0.00329474,10.43926144
1704716172890580,0.01593000,0.01981423,0.00311646,10.43636703
1704716172896641,0.01346100,0.02453254,0.00301076,10.43820953
1704716172902535,0.01010479,0.02808033,0.00295267,10.43983936
1704716172908726,0.00079147,0.03090565,0.00294315,10.43371964
1704716172914627,-0.00450821,0.03600105,0.00274436,10.43236923
1704716172920549,-0.01309173,0.03255526,0.00253394,10.42655182
1704716172926606,-0.01767079,0.03374085,0.00239790,10.42172813
1704716172932605,-0.01923159,0.03520492,0.00238552,10.41488361
1704716172938610,-0.02354784,0.02887044,0.00234794,10.40467548
1704716172946637,-0.01962047,0.02655320,0.00244948,10.39442825
1704716172952580,-0.02042999,0.02073257,0.00245010,10.38279819
1704716172958580,-0.01362783,0.01637834,0.00243516,10.37266541
1704716172964801,-0.00397037,0.01323744,0.00241659,10.35875702
1704716172970572,0.00199939,0.00697454,0.00236850,10.34643936
1704716172976602,0.01091832,0.00021518,0.00224710,10.33543301
1704716172982618,0.01895737,-0.00618190,0.00218598,10.32476521
1704716172988615,0.01957078,-0.01014259,0.00190907,10.31542683
1704716172994630,0.02289539,-0.01091348,0.00189761,10.30934525
1704716173000587,0.02458674,-0.00826283,0.00181230,10.30507183
1704716173006658,0.02052561,-0.00568162,0.00182422,10.30126095
1704716173012589,0.01937124,-0.00164354,0.00164466,10.30184650
1704716173022602,0.01576798,0.00541163,0.00112933,10.30571365
1704716173028580,0.01172152,0.00779979,0.00130001,10.30987072
1704716173034557,0.01105798,0.01077054,0.00136279,10.31764030
1704716173040564,0.01222185,0.01299395,0.00144640,10.32628345
1704716173046617,0.00706583,0.01407662,0.00132776,10.33516598
1704716173052613,0.00650775,0.01714597,0.00123762,10.34959412
1704716173058618,0.00318450,0.01774319,0.00134494,10.36124706
1704716173064537,0.00410547,0.02266059,0.00147951,10.37739563
1704716173070679,0.00532177,0.02595661,0.00158909,10.39481258
1704716173076596,0.00145179,0.02665498,0.00164858,10.40554428
1704716173082576,-0.00098097,0.02557281,0.00137133,10.41403675
1704716173088681,-0.00689661,0.02062602,0.00147075,10.41843605
1704716173094579,-0.01274798,0.01502492,0.00159644,10.42179585
1704716173100553,-0.01930171,0.00965658,0.00182400,10.42425060
1704716173108574,-0.02509798,0.00095669,0.00192491,10.42575836
1704716173112574,-0.02714648,-0.00302757,0.00202279,10.42633820
1704716173120618,-0.00102581,0.02469783,0.00227115,10.44701195
1704716173126575,0.00558338,0.03286842,0.00258187,10.45444965
1704716173132677,0.01984900,0.04887070,0.00258137,10.46580315
1704716173138718,0.02735422,0.05651928,0.00269605,10.46665668
1704716173144598,0.03796116,0.06830948,0.00287197,10.47209740
1704716173150577,0.04531467,0.07205251,0.00307507,10.47612762
1704716173156631,0.04428253,0.06972186,0.00321129,10.47339916
1704716173162604,0.04496785,0.06976677,0.00323255,10.47367573
1704716173168600,0.04334370,0.06409211,0.00311573,10.47451496
1704716173174717,0.03447185,0.05411305,0.00305206,10.47047997
1704716173180596,0.03078234,0.04695329,0.00296823,10.46808147
1704716173186609,0.02611523,0.03771385,0.00286745,10.46621990
1704716173192576,0.01680523,0.02587153,0.00287714,10.46090603
1704716173200490,0.00774010,0.00926560,0.00274588,10.45454979
1704716173208603,0.00239040,-0.04078790,0.00267841,10.44944096
1704716173214725,-0.00782818,-0.09101926,0.00263451,10.44139862
1704716173220552,-0.01295967,-0.13338350,0.00273835,10.43501663
1704716173226580,-0.01510577,-0.17100544,0.00306930,10.42939472
1704716173232597,-0.02008675,-0.19670637,0.00322195,10.42147732
1704716173238621,-0.01723082,-0.20150141,0.00332336,10.41723919
1704716173244587,-0.01320311,-0.19279142,0.00318820,10.41462994
1704716173250595,-0.01386458,-0.17479289,0.00316738,10.41115665
1704716173256602,-0.00669032,-0.13777858,0.00305485,10.41126537
1704716173262559,-0.00316675,-0.09658612,0.00320021,10.40871429
1704716173268538,0.00455647,-0.04136327,0.00347450,10.41100025
1704716173274676,0.01120368,0.01609216,0.00375823,10.41287231
1704716173280606,0.01668049,0.07578818,0.00371046,10.41420460
1704716173286594,0.01721008,0.12026478,0.00327213,10.41271019
1704716173292588,0.02171479,0.16590826,0.00276132,10.41506577
1704716173298613,0.02100915,0.19572255,0.00274834,10.41187954
1704716173304637,0.02260094,0.22544235,0.00292930,10.41259766
1704716173310567,0.02229187,0.23915465,0.00311384,10.41333199
1704716173316741,0.01484311,0.22994950,0.00310147,10.40672588
1704716173322647,0.01083788,0.22007112,0.00303507,10.40367603
1704716173328610,0.00807821,0.20352410,0.00310989,10.40012836
1704716173334659,-0.00152051,0.16976425,0.00336969,10.39245415
1704716173340604,-0.00548844,0.13991842,0.00359636,10.38940620
1704716173346646,-0.00785810,0.10895583,0.00402938,10.38539410
1704716173354661,-0.01151573,0.06253393,0.00419732,10.37835026
1704716173360568,-0.00977849,0.03653751,0.00403316,10.37368965
1704716173366640,-0.01050479,0.00573798,0.00390432,10.36571503
1704716173372646,-0.00484097,-0.01244708,0.00351082,10.36090469
1704716173378597,-0.00506331,-0.03139493,0.00308679,10.35334301
1704716173384597,-0.00226599,-0.03028665,0.00275325,10.34803677
1704716173390569,-0.00671591,-0.04092737,0.00274470,10.33992958
1704716173396511,-0.01198892,-0.04437751,0.00288055,10.33282280
1704716173402562,-0.01703596,-0.04241630,0.00291286,10.32697964
1704716173408586,-0.02223376,-0.03653096,0.00293797,10.32278061
1704716173414646,-0.02842261,-0.02819433,0.00292920,10.31984138
1704716173420637,-0.03412479,-0.01905410,0.00275798,10.31862831
1704716173426661,-0.04186237,-0.00865351,0.00254921,10.31950665
1704716173434638,-0.03127401,0.03207967,0.00227204,10.33185577
1704716173438723,-0.00501802,0.08613303,0.00212482,10.35117435
1704716173444744,0.01211008,0.12377096,0.00215203,10.36986732
1704716173450592,0.01830974,0.14077842,0.00224221,10.38224125
1704716173456863,0.02877819,0.16004229,0.00261371,10.40231228
1704716173462841,0.03659654,0.16632530,0.00317628,10.42278576
1704716173468782,0.03662905,0.15739995,0.00362731,10.43747139
1704716173474691,0.03636580,0.14453743,0.00368536,10.45572376
1704716173480656,0.03112967,0.12523806,0.00369525,10.47152996
1704716173486674,0.01943251,0.09638701,0.00381376,10.48135757
1704716173492621,0.00977831,0.06711455,0.00407162,10.49363232
1704716173498687,-0.00156255,0.03444679,0.00425617,10.49940395
1704716173504953,-0.00718287,0.00659965,0.00431264,10.50670052
1704716173510635,-0.01276231,-0.01544895,0.00426269,10.51180363
1704716173516957,-0.01724011,-0.03556833,0.00453809,10.51357651
1704716173522633,-0.02403769,-0.05048555,0.00478233,10.51072598
1704716173528626,-0.02335914,-0.05754270,0.00499588,10.50839138
1704716173534627,-0.02610829,-0.06236621,0.00528829,10.50199032
1704716173540600,-0.02365280,-0.06080008,0.00526208,10.49664211
1704716173546654,-0.01810584,-0.05649424,0.00515749,10.49071789
1704716173552575,-0.01680960,-0.04917781,0.00497172,10.48339176
1704716173558677,-0.01006140,-0.03779276,0.00478035,10.47889805
1704716173564649,-0.00313035,-0.02117497,0.00461229,10.47455502
1704716173570582,0.00183150,-0.00735332,0.00451104,10.46866989
1704716173576619,0.00985045,0.00728603,0.00451308,10.46616077
1704716173582630,0.01664387,0.02267580,0.00457297,10.46434593
1704716173588634,0.02005961,0.03156888,0.00466013,10.46024036
1704716173594647,0.02547574,0.04031430,0.00463986,10.45939159
1704716173600602,0.02746210,0.04663480,0.00467567,10.45918846
1704716173604614,0.02704479,0.04825368,0.00464872,10.45820999
1704716173612622,0.01984763,0.04290999,0.00476825,10.45458126
1704716173618613,0.01308483,0.03609233,0.00487216,10.45311451
1704716173624643,0.00775109,0.03028440,0.00495213,10.45722294
1704716173630611,0.00264484,0.02189047,0.00493136,10.46263504
1704716173636685,-0.00596761,0.01167555,0.00500445,10.46440792
1704716173642606,-0.01010242,0.00291442,0.00496789,10.47193813
1704716173648675,-0.01453786,-0.00604260,0.00515443,10.48123074
1704716173654637,-0.01896569,-0.01547274,0.00512165,10.48737335
1704716173660563,-0.01772715,-0.01815361,0.00509123,10.49845409
1704716173666649,-0.01739247,-0.02102356,0.00502762,10.51011562
1704716173672639,-0.01835511,-0.02442738,0.00492602,10.51661682
1704716173678625,-0.01636185,-0.02352963,0.00481981,10.52624798
1704716173684629,-0.01315069,-0.02248265,0.00500722,10.53479671
1704716173690608,-0.01266643,-0.02079289,0.00529662,10.53783417
1704716173696686,-0.01213030,-0.01705182,0.00552867,10.53911209
1704716173702591,-0.01198843,-0.01487457,0.00572122,10.53595352
1704716173708637,-0.01162495,-0.01266769,0.00592796,10.53249454
1704716173714640,-0.01339805,-0.01024185,0.00611873,10.52881145
1704716173720591,-0.01621830,-0.00857823,0.00610154,10.52465725
1704716173726615,-0.01981080,-0.00741734,0.00593589,10.52033997
1704716173732630,-0.02236026,-0.00788948,0.00582246,10.51623821
1704716173740547,-0.01206028,-0.00294743,0.00591788,10.52491570
1704716173744619,0.00612319,0.00070532,0.00603599,10.53873158
1704716173750605,0.01760004,0.00447202,0.00619788,10.54708290
1704716173756665,0.01990258,0.00270732,0.00627376,10.54761124
1704716173766643,0.03015433,-0.00229938,0.00600423,10.55052471
1704716173772668,0.03287289,-0.00574154,0.00584942,10.55038834
1704716173778631,0.02770705,-0.01244219,0.00574855,10.54545116
1704716173784626,0.02318092,-0.01679870,0.00568125,10.54276180
1704716173790586,0.01598513,-0.02040363,0.00565605,10.53948498
1704716173796637,0.00293760,-0.02468706,0.00544767,10.53322506
1704716173802680,-0.00777455,-0.02704557,0.00534885,10.52986431
1704716173808634,-0.01675949,-0.02927775,0.00542833,10.52828789
1704716173814634,-0.02731644,-0.02961175,0.00558640,10.52358341
1704716173820592,-0.03017948,-0.02737171,0.00550536,10.52248955
1704716173826628,-0.03019784,-0.02242684,0.00543296,10.52167606
1704716173832605,-0.03109378,-0.01722467,0.00522672,10.51842976
1704716173838670,-0.02556740,-0.00896092,0.00526574,10.51923656
1704716173844593,-0.01730777,-0.00149147,0.00529618,10.52170753
1704716173850597,-0.01148647,0.00408344,0.00547924,10.52128124
1704716173856623,-0.00150422,0.00973319,0.00555371,10.52588558
1704716173862629,0.00693113,0.01397188,0.00566120,10.53146744
1704716173868613,0.01191768,0.01622539,0.00560810,10.53443909
1704716173874618,0.01834621,0.01946409,0.00546650,10.54156780
1704716173880659,0.02366555,0.01828584,0.00542116,10.54939461
1704716173886613,0.02546817,0.01536984,0.00526469,10.55305576
1704716173892640,0.02833262,0.01167022,0.00526013,10.56028366
1704716173898673,0.02668455,0.00661391,0.00534622,10.56405926
1704716173904707,0.02552988,0.00297889,0.00533367,10.57053375
1704716173910643,0.02375752,0.00084733,0.00539792,10.57573414
1704716173916649,0.01691454,-0.00067137,0.00552254,10.57673645
1704716173922689,0.01054251,0.00262693,0.00551844,10.57919788
1704716173928655,0.00313018,0.00678102,0.00536683,10.58044338
1704716173934705,-0.00569555,0.00919580,0.00541384,10.57774258
1704716173940659,-0.01219368,0.01315304,0.00550513,10.57694340
1704716173946598,-0.01855807,0.01749873,0.00547265,10.57489395
1704716173952594,-0.02629149,0.01947963,0.00548213,10.56989670
1704716173958663,-0.03036772,0.02406178,0.00564545,10.56700516
1704716173964576,-0.03177579,0.02661484,0.00567551,10.56413174
1704716173970595,-0.03533983,0.02651385,0.00546295,10.55804634
1704716173976583,-0.03275691,0.02705276,0.00537390,10.55431175
1704716173982544,-0.02783760,0.02621750,0.00539614,10.55041599
1704716173988619,-0.02467434,0.02359329,0.00537253,10.54326916
1704716173994575,-0.01767915,0.02242943,0.00544510,10.53816223
1704716174000588,-0.01470469,0.01958524,0.00550473,10.53036594
1704716174006625,-0.01809422,0.01458498,0.00562007,10.51987362
1704716174012547,-0.02111875,0.01007883,0.00565229,10.51004410
1704716174018580,-0.02114345,0.00632125,0.00573738,10.50008678
1704716174024530,-0.02283951,0.00146269,0.00594233,10.49047279
1704716174030557,-0.02641390,-0.00252759,0.00605500,10.48082638
1704716174036535,-0.02439857,-0.00254966,0.00627768,10.47482491
1704716174042612,-0.00146648,0.00952449,0.00614128,10.48439884
1704716174048607,0.01712403,0.01710681,0.00610530,10.49068260
1704716174054681,0.02550702,0.02008660,0.00590199,10.48973751
1704716174060644,0.03791652,0.02717797,0.00574728,10.49532604
1704716174066768,0.04797243,0.03405767,0.00587667,10.50073719
1704716174072858,0.04920847,0.03718880,0.00613950,10.50230598
1704716174078784,0.05072328,0.04167165,0.00615808,10.50852585
1704716174084858,0.04877606,0.04425739,0.00607709,10.51369095
1704716174090612,0.03868317,0.04352760,0.00603364,10.51486301
1704716174096898,0.02985596,0.04352408,0.00617173,10.51955128
1704716174102793,0.01991183,0.04362838,0.00611166,10.52340126
1704716174108640,0.00467235,0.04097344,0.00601940,10.52301407
1704716174114734,-0.00751171,0.04015244,0.00589670,10.52517414
1704716174120612,-0.01535899,0.03955417,0.00600040,10.52590370
1704716174126620,-0.02432742,0.03631303,0.00615057,10.52154064
1704716174132643,-0.02814301,0.03504588,0.00612023,10.51996899
1704716174138681,-0.03280727,0.03120300,0.00617919,10.51434708
1704716174144634,-0.03383189,0.03065733,0.00607190,10.51307774
1704716174150606,-0.03166383,0.02965644,0.00608874,10.51274967
1704716174156663,-0.03173685,0.02759562,0.00614318,10.50902367
1704716174162630,-0.02713840,0.02721095,0.00612435,10.50938702
1704716174168624,-0.02010459,0.02805429,0.00629049,10.51046467
1704716174174653,-0.01326650,0.02732136,0.00648762,10.50714779
1704716174180645,-0.00445316,0.02930411,0.00649338,10.50868130
1704716174186636,0.00306279,0.03113258,0.00659938,10.51067162
1704716174192634,0.00787069,0.02891525,0.00676253,10.50861931
1704716174198681,0.01403761,0.02957355,0.00648158,10.51095581
1704716174204649,0.01832608,0.03125107,0.00600726,10.51369286
1704716174210604,0.01762268,0.02924397,0.00538940,10.51372051
1704716174216657,0.01906314,0.03134033,0.00481662,10.51774216
1704716174222646,0.02117889,0.03214635,0.00431934,10.52200222
1704716174228616,0.01844529,0.02844503,0.00406106,10.52204037
1704716174234635,0.01877599,0.02653043,0.00402378,10.52513027
1704716174240620,0.01631235,0.02531321,0.00404941,10.52778912
1704716174246667,0.00913589,0.02222540,0.00407021,10.52659798
1704716174252641,0.00509618,0.02160190,0.00399552,10.52864456
1704716174260582,-0.00310096,0.01890742,0.00398333,10.52997494
1704716174266663,-0.00700011,0.01893421,0.00397663,10.53285789
1704716174272642,-0.01248791,0.01494093,0.00394821,10.53334713
1704716174278593,-0.01508357,0.01370526,0.00392751,10.53692245
1704716174284661,-0.01517853,0.01198866,0.00410160,10.54010010
1704716174290603,-0.01797927,0.00940070,0.00419790,10.53977871
1704716174296734,-0.01741067,0.00971007,0.00424359,10.54069233
1704716174302717,-0.01643731,0.01180476,0.00421562,10.53955936
1704716174308627,-0.01677281,0.01294348,0.00425638,10.53520203
1704716174314540,-0.01903688,0.01265687,0.00432738,10.52732468
1704716174320600,-0.02055833,0.01323181,0.00429973,10.51886082
1704716174326591,-0.02131265,0.01369472,0.00448494,10.50997162
1704716174332581,-0.01227014,0.02414165,0.00444756,10.50738716
1704716174338605,-0.00649531,0.03590556,0.00446437,10.50168228
1704716174342649,0.00569961,0.05376258,0.00466605,10.50309944
1704716174350599,0.01548972,0.06802775,0.00479608,10.50022125
1704716174356862,0.01816259,0.07424993,0.00501528,10.49581337
1704716174362647,0.02487131,0.08342724,0.00491037,10.49504375
1704716174368691,0.02854441,0.08657334,0.00476104,10.49582291
1704716174374696,0.02774974,0.08078651,0.00470806,10.49473000
1704716174380690,0.02743646,0.07603665,0.00465238,10.49792194
1704716174386649,0.02526810,0.06693904,0.00457078,10.50190449
1704716174392647,0.01979317,0.05327580,0.00452104,10.50286198
1704716174398654,0.01780495,0.03974973,0.00441865,10.50774956
1704716174404661,0.01304310,0.02527783,0.00432677,10.51274395
1704716174410620,0.00423450,0.00843295,0.00444524,10.51467514
1704716174416665,-0.00024621,-0.00419928,0.00470144,10.51765347
1704716174422650,-0.00452675,-0.01424250,0.00488583,10.52046776
1704716174428648,-0.01202553,-0.02386590,0.00493588,10.51978683
1704716174434653,-0.01332453,-0.02530258,0.00498546,10.52003670
1704716174440626,-0.01535985,-0.02587076,0.00509228,10.52068996
1704716174446671,-0.01777863,-0.02526866,0.00528948,10.51874924
1704716174452640,-0.01359664,-0.02187802,0.00553410,10.51998615
1704716174458665,-0.01523532,-0.01733696,0.00556123,10.51856232
1704716174464683,-0.01315023,-0.00894013,0.00551828,10.51827908
1704716174470625,-0.01038132,0.00298301,0.00551024,10.51678753
1704716174476644,-0.00998108,0.01221891,0.00546334,10.51189232
1704716174482646,-0.00645844,0.02466044,0.00549746,10.50829315
1704716174488666,-0.00405768,0.03633232,0.00572622,10.50534534
1704716174494714,-0.00512818,0.04199509,0.00584339,10.50075912
1704716174500634,-0.00235532,0.04916822,0.00590264,10.49958134
1704716174506659,-0.00136489,0.05578936,0.00601007,10.49922180
1704716174512630,-0.00331276,0.05501767,0.00614148,10.49759579
1704716174518655,-0.00188296,0.05651429,0.00612465,10.50020981
1704716174528644,-0.00179765,0.05688392,0.00599263,10.50473976
1704716174534639,-0.00573601,0.05031863,0.00593816,10.50714684
1704716174540591,-0.00500729,0.04627419,0.00604317,10.51210403
1704716174546685,-0.00454981,0.04061667,0.00610175,10.51703930
1704716174552637,-0.00468175,0.02962473,0.00612856,10.51983356
1704716174558667,-0.00000578,0.02048277,0.00618879,10.52516460
1704716174564663,0.00460622,0.01074978,0.00624415,10.53022099
1704716174570606,0.00706711,-0.00004006,0.00623542,10.53237915
1704716174576624,0.01197210,-0.00789221,0.00625207,10.53622341
1704716174582631,0.01367995,-0.01046065,0.00629249,10.53879452
1704716174588689,0.00984694,-0.01452718,0.00646228,10.53860378
1704716174594607,0.00954612,-0.01513947,0.00655443,10.53954983
1704716174600604,0.00918430,-0.01427719,0.00655256,10.53984642
1704716174606656,0.00565946,-0.01434532,0.00636392,10.53721619
1704716174612633,0.00511563,-0.01201787,0.00594075,10.53652191
1704716174618627,0.00165446,-0.01028948,0.00535980,10.53383732
1704716174624659,-0.00149230,-0.00770712,0.00494274,10.53367615
1704716174630624,-0.00166218,-0.00573115,0.00455737,10.53309917
1704716174636696,-0.00516438,-0.00575297,0.00453431,10.53001404
1704716174642636,-0.00790927,-0.00393206,0.00466147,10.52904701
1704716174648644,-0.00875741,-0.00624066,0.00490733,10.52790737
1704716174654771,-0.01243871,-0.00827304,0.00499836,10.52391720
1704716174660582,-0.01207580,-0.00884464,0.00509016,10.52302933
1704716174666657,-0.01061541,-0.01029597,0.00496859,10.52224636
1704716174673047,-0.01416305,-0.01306996,0.00482716,10.51795197
1704716174678827,-0.01177847,-0.01494776,0.00488387,10.51661396
1704716174684665,-0.00979694,-0.01560395,0.00498220,10.51553822
1704716174690617,-0.01178715,-0.01755687,0.00503012,10.51264095
1704716174696693,-0.00951700,-0.01639714,0.00491841,10.51288223
1704716174702628,-0.00802162,-0.01412954,0.00479445,10.51385498
1704716174708658,-0.00972728,-0.01363972,0.00470240,10.51205444
1704716174714720,-0.00632988,-0.00908075,0.00454481,10.51291180
1704716174720630,-0.00297827,-0.00472780,0.00429249,10.51408958
1704716174726641,-0.00365724,-0.00084085,0.00417152,10.51211357
1704716174732646,-0.00056966,0.00381122,0.00396227,10.51318550
1704716174738678,-0.00222806,0.00457078,0.00401161,10.51109600
1704716174744637,-0.00085918,0.00552385,0.00412130,10.51179028
1704716174750636,0.00102989,0.00653185,0.00433711,10.51285458
1704716174758648,-0.00023137,0.00538551,0.00454764,10.51258183
1704716174764653,0.00074110,0.00503829,0.00471744,10.51490211
1704716174770614,-0.00373325,0.00208072,0.00486859,10.51481056
1704716174776608,-0.00491529,0.00308118,0.00492383,10.51875305
1704716174782640,-0.00537105,0.00318959,0.00497739,10.52331257
1704716174788640,-0.00855833,0.00239181,0.00487805,10.52469635
1704716174794608,-0.00736363,0.00399060,0.00496778,10.52891922
1704716174800674,-0.00806394,0.00421310,0.00522592,10.53273869
1704716174806748,-0.01290940,0.00294965,0.00535289,10.53301144
1704716174812731,-0.01291977,0.00254854,0.00549541,10.53565407
1704716174819465,-0.01308791,0.00415442,0.00544021,10.53642273
1704716174824689,-0.01495249,0.00268456,0.00547685,10.53526974
1704716174830689,-0.01574480,0.00403692,0.00559533,10.53607368
1704716174836809,-0.01940561,0.00373923,0.00576138,10.53387356
1704716174842832,-0.01778232,0.00595208,0.00590624,10.53465366
1704716174848880,-0.01633264,0.00854342,0.00582837,10.53655434
1704716174854668,-0.01885980,0.00811853,0.00568559,10.53648376
1704716174860631,-0.01761499,0.01171448,0.00565895,10.53909302
1704716174866688,-0.01574101,0.01293484,0.00564062,10.54236507
1704716174872680,-0.01497659,0.01184051,0.00559911,10.54232216
1704716174878628,-0.00952808,0.01183092,0.00557419,10.54472733
1704716174884657,-0.00418645,0.01005239,0.00556185,10.54742527
1704716174890644,-0.00374265,0.00662013,0.00561836,10.54761505
1704716174896673,-0.00055887,0.00816858,0.00562532,10.54931068
1704716174902626,-0.00034299,0.01012842,0.00549669,10.55142403
1704716174908662,-0.00406093,0.00997085,0.00555843,10.55145264
1704716174914682,-0.00418767,0.01469310,0.00544875,10.55343437
1704716174920627,-0.00440694,0.01871197,0.00532791,10.55578899
1704716174926665,-0.00521578,0.02022748,0.00529050,10.55575275
1704716174932659,-0.00261917,0.02385225,0.00537275,10.55749798
1704716174938701,-0.00403487,0.02653371,0.00541076,10.55724525
1704716174944622,-0.00147149,0.02785467,0.00531668,10.55889034
1704716174950631,0.00137424,0.02786843,0.00537479,10.55983543
1704716174956678,0.00020560,0.02548914,0.00547807,10.55821991
1704716174962658,0.00185350,0.02450921,0.00555742,10.55793285
1704716174968669,0.00372648,0.02506607,0.00568390,10.55621719
1704716174974675,0.00099463,0.02226768,0.00581350,10.55163860
1704716174980653,-0.00083000,0.02266599,0.00591018,10.54834938
1704716174986647,-0.00167654,0.02450193,0.00593714,10.54462051
1704716174992636,-0.00380424,0.02298719,0.00594133,10.53911686
1704716174998671,-0.00288322,0.02143751,0.00607588,10.53514671
1704716175004678,-0.00226789,0.02039431,0.00618656,10.52992916
1704716175010627,-0.00403036,0.01602715,0.00625610,10.52284813
1704716175016668,-0.00423788,0.01440930,0.00640418,10.51635075
1704716175022661,-0.00438792,0.01380826,0.00650581,10.50955391
1704716175028659,-0.00671975,0.00873481,0.00651636,10.50138855
1704716175034657,-0.00566950,0.00659501,0.00638901,10.49583149
1704716175040632,-0.00404722,0.00457022,0.00624756,10.49122047
1704716175046680,-0.00433959,0.00429902,0.00590578,10.48555374
1704716175052628,-0.00183810,0.00889316,0.00552521,10.48343277
1704716175058739,-0.00274223,0.01030314,0.00492173,10.48058987
1704716175064725,-0.00111639,0.01442470,0.00469974,10.48111057
1704716175070658,-0.00139013,0.01813654,0.00455305,10.48296642
1704716175076654,-0.00521744,0.01879845,0.00447254,10.48344421
1704716175082677,-0.00578763,0.02182425,0.00448035,10.48631668
1704716175088706,-0.00731009,0.02783906,0.00451767,10.48970032
1704716175094621,-0.01015780,0.02953832,0.00444255,10.49183369
1704716175100636,-0.00821006,0.03489997,0.00437981,10.49568558
1704716175106725,-0.00629382,0.03826299,0.00438050,10.49929428
1704716175110603,-0.00608279,0.03871845,0.00443395,10.50115204
1704716175122678,-0.00545171,0.03600901,0.00474972,10.50710011
1704716175128681,-0.00615535,0.03629651,0.00496603,10.51181221
1704716175134674,-0.01054484,0.03145476,0.00518550,10.51597309
1704716175140657,-0.01089711,0.02987575,0.00513670,10.52182007
1704716175146719,-0.01149234,0.02769823,0.00528703,10.52853870
1704716175152651,-0.01520863,0.02333731,0.00519621,10.53437042
1704716175158683,-0.01339275,0.02293722,0.00513684,10.54049969
1704716175164681,-0.01135953,0.02348965,0.00510675,10.54496002
1704716175170619,-0.01203572,0.02157460,0.00517744,10.54684830
1704716175176650,-0.00780522,0.02351241,0.00535319,10.54724598
1704716175182653,-0.00327843,0.02399975,0.00531917,10.54621029
1704716175188683,-0.00306718,0.02104736,0.00545414,10.54424000
1704716175194627,0.00037668,0.02158078,0.00556936,10.54180241
1704716175200657,0.00232401,0.02194322,0.00556184,10.53839397
1704716175206689,0.00076048,0.01745485,0.00571865,10.53388405
1704716175212648,0.00049096,0.01662212,0.00584185,10.52894211
1704716175218648,-0.00308181,0.01298069,0.00583206,10.52306271
1704716175224669,-0.00466803,0.01279561,0.00562592,10.51581287
1704716175230632,-0.01060169,0.00971315,0.00564773,10.50749588
1704716175236651,-0.01845961,0.00156135,0.00574673,10.49937153
1704716175242653,-0.02685777,-0.00543905,0.00581541,10.49104118
1704716175248659,-0.02325585,0.00032890,0.00595627,10.48322105
1704716175254732,-0.02377466,0.00230367,0.00607096,10.47583294
1704716175260623,-0.01880549,0.00848963,0.00619917,10.47080994
1704716175266670,-0.01310392,0.01385782,0.00609380,10.46657944
1704716175272882,-0.01065035,0.01502439,0.00596367,10.46253681
1704716175278672,-0.00406516,0.02028681,0.00599467,10.46227837
1704716175284705,0.00175770,0.02942980,0.00611094,10.46255779
1704716175290640,0.00460491,0.03454813,0.00624129,10.46212101
1704716175296743,0.01055262,0.04404595,0.00624248,10.46501637
1704716175302703,0.01494548,0.05096145,0.00625583,10.46975422
1704716175308730,0.01503477,0.05068384,0.00617632,10.47392654
1704716175314721,0.01706043,0.05308877,0.00626399,10.48219109
1704716175320689,0.01766179,0.05215875,0.00650319,10.49120045
1704716175326690,0.01283964,0.04719003,0.00659647,10.49754047
1704716175332654,0.01097391,0.04332474,0.00671168,10.50575924
1704716175338705,0.00426831,0.03415906,0.00657264,10.51175785
1704716175344658,-0.00012928,0.02708363,0.00615445,10.51874542
1704716175350608,-0.00628853,0.01842293,0.00585863,10.52534580
1704716175356762,-0.01478572,0.00813410,0.00564218,10.52946854
1704716175362646,-0.01720800,0.00319550,0.00551822,10.53480816
1704716175368729,-0.01886671,-0.00191087,0.00540809,10.53964329
1704716175374921,-0.02425066,-0.00846133,0.00522857,10.54238224
1704716175380698,-0.02352998,-0.01190988,0.00520543,10.54638958
1704716175386941,-0.02111347,-0.01065909,0.00527872,10.55049896
1704716175392678,-0.02036212,-0.01000460,0.00525766,10.55301285
1704716175398717,-0.01372259,-0.00564521,0.00526622,10.55636406
1704716175404694,-0.00653169,-0.00041192,0.00531686,10.55985832
1704716175410628,-0.00273682,0.00207564,0.00538462,10.56076145
1704716175416701,0.00721615,0.00550851,0.00534884,10.56220913
1704716175422691,0.01550048,0.00781559,0.00534681,10.56329441
1704716175428664,0.01765040,0.00841273,0.00545888,10.56202316
