timestamp,roll,pitch,thrust,yaw,aux1,aux2,aux3,aux4
1704704259673634,1500,1500,1000,1500,1000,0,0,0
1704704259676784,1500,1500,1000,1500,1000,0,0,0
1704704259679637,1500,1500,1000,1500,1000,0,0,0
1704704259683796,1500,1500,1000,1500,1000,0,0,0
1704704259685759,1500,1500,1000,1500,1000,0,0,0
1704704259688616,1500,1500,1000,1500,1000,0,0,0
1704704259691892,1500,1500,1000,1500,1000,0,0,0
1704704259694813,1500,1500,1000,1500,1000,0,0,0
1704704259697506,1500,1500,1000,1500,1000,0,0,0
1704704259700699,1500,1500,1000,1500,1000,0,0,0
1704704259703780,1500,1500,1000,1500,1000,0,0,0
1704704259706576,1500,1500,1000,1500,1000,0,0,0
1704704259710048,1500,1500,1000,1500,1000,0,0,0
1704704259712590,1500,1500,1000,1500,1000,0,0,0
1704704259715590,1500,1500,1000,1500,1000,0,0,0
1704704259718651,1500,1500,1000,1500,1000,0,0,0
1704704259721652,1500,1500,1000,1500,1000,0,0,0
1704704259724875,1500,1500,1000,1500,1000,0,0,0
1704704259728179,1500,1500,1000,1500,1000,0,0,0
1704704259730581,1500,1500,1000,1500,1000,0,0,0
1704704259734058,1500,1500,1000,1500,1000,0,0,0
1704704259736797,1500,1500,1000,1500,1000,0,0,0
1704704259739525,1500,1500,1000,1500,1000,0,0,0
1704704259742768,1500,1500,1000,1500,1000,0,0,0
1704704259745802,1500,1500,1000,1500,1000,0,0,0
1704704259748851,1500,1500,1000,1500,1000,0,0,0
1704704259751822,1500,1500,1000,1500,1000,0,0,0
1704704259754553,1500,1500,1000,1500,1000,0,0,0
1704704259757730,1500,1500,1000,1500,1000,0,0,0
1704704259769878,1502,1504,1142,1499,1000,0,0,0
1704704259777374,1497,1492,1253,1499,1000,0,0,0
1704704259783756,1496,1491,1260,1499,1000,0,0,0
1704704259790159,1496,1491,1255,1499,1000,0,0,0
1704704259796474,1496,1491,1249,1499,1000,0,0,0
1704704259803125,1497,1491,1238,1499,1000,0,0,0
1704704259809448,1497,1492,1231,1499,1000,0,0,0
1704704259816000,1496,1493,1224,1499,1000,0,0,0
1704704259822454,1497,1494,1217,1499,1000,0,0,0
1704704259828643,1497,1497,1211,1499,1000,0,0,0
1704704259834943,1498,1500,1205,1499,1000,0,0,0
1704704259841285,1499,1502,1200,1499,1000,0,0,0
1704704259847761,1500,1505,1195,1499,1000,0,0,0
1704704259853971,1501,1507,1192,1499,1000,0,0,0
1704704259860703,1502,1509,1190,1499,1000,0,0,0
1704704259866795,1503,1510,1189,1499,1000,0,0,0
1704704259872993,1504,1510,1188,1499,1000,0,0,0
1704704259879208,1504,1510,1188,1499,1000,0,0,0
1704704259885567,1505,1509,1189,1499,1000,0,0,0
1704704259891909,1505,1507,1191,1499,1000,0,0,0
1704704259898110,1504,1505,1192,1499,1000,0,0,0
1704704259904562,1503,1502,1193,1499,1000,0,0,0
1704704259910821,1502,1499,1194,1499,1000,0,0,0
1704704259917066,1499,1495,1195,1499,1000,0,0,0
1704704259923437,1498,1492,1195,1499,1000,0,0,0
1704704259929685,1496,1490,1194,1499,1000,0,0,0
1704704259936128,1495,1489,1194,1499,1000,0,0,0
1704704259942460,1493,1487,1193,1499,1000,0,0,0
1704704259948703,1493,1487,1193,1499,1000,0,0,0
1704704259955024,1492,1488,1193,1499,1000,0,0,0
1704704259961410,1493,1490,1193,1499,1000,0,0,0
1704704259967819,1494,1494,1194,1499,1000,0,0,0
1704704259974068,1496,1497,1194,1499,1000,0,0,0
1704704259980370,1498,1500,1194,1499,1000,0,0,0
1704704259986535,1500,1504,1194,1499,1000,0,0,0
1704704259992941,1502,1507,1193,1499,1000,0,0,0
1704704259999389,1505,1510,1193,1499,1000,0,0,0
1704704260005576,1507,1512,1193,1499,1000,0,0,0
1704704260011849,1509,1513,1193,1499,1000,0,0,0
1704704260018507,1511,1513,1193,1499,1000,0,0,0
1704704260024667,1512,1512,1194,1499,1000,0,0,0
1704704260031215,1512,1509,1196,1499,1000,0,0,0
1704704260037209,1512,1506,1197,1499,1000,0,0,0
1704704260043477,1510,1503,1197,1499,1000,0,0,0
1704704260049774,1508,1500,1199,1499,1000,0,0,0
1704704260056194,1505,1497,1200,1499,1000,0,0,0
1704704260062442,1502,1494,1200,1499,1000,0,0,0
1704704260068677,1498,1492,1200,1499,1000,0,0,0
1704704260075013,1495,1490,1200,1499,1000,0,0,0
1704704260081307,1493,1489,1200,1499,1000,0,0,0
1704704260087623,1490,1489,1199,1499,1000,0,0,0
1704704260093886,1488,1490,1199,1499,1000,0,0,0
1704704260100546,1487,1491,1199,1499,1000,0,0,0
1704704260106566,1487,1494,1199,1499,1000,0,0,0
1704704260112880,1487,1496,1200,1499,1000,0,0,0
1704704260119267,1489,1499,1200,1499,1000,0,0,0
1704704260125542,1491,1502,1201,1499,1000,0,0,0
1704704260131853,1494,1505,1201,1499,1000,0,0,0
1704704260138132,1498,1507,1202,1499,1000,0,0,0
1704704260144534,1501,1509,1202,1499,1000,0,0,0
1704704260150946,1507,1511,1202,1499,1000,0,0,0
1704704260157164,1510,1511,1202,1499,1000,0,0,0
1704704260163491,1513,1511,1203,1499,1000,0,0,0
1704704260169763,1515,1509,1203,1499,1000,0,0,0
1704704260176152,1516,1508,1204,1499,1000,0,0,0
1704704260182495,1516,1505,1205,1499,1000,0,0,0
1704704260188588,1515,1503,1206,1499,1000,0,0,0
1704704260194905,1513,1500,1207,1499,1000,0,0,0
1704704260201211,1511,1497,1208,1499,1000,0,0,0
1704704260207580,1507,1494,1210,1499,1000,0,0,0
1704704260213818,1503,1492,1210,1499,1000,0,0,0
1704704260220174,1500,1491,1211,1499,1000,0,0,0
1704704260226397,1496,1491,1211,1499,1000,0,0,0
1704704260232618,1493,1491,1211,1499,1000,0,0,0
1704704260238948,1490,1491,1211,1499,1000,0,0,0
1704704260245208,1489,1492,1211,1499,1000,0,0,0
1704704260251539,1487,1494,1211,1499,1000,0,0,0
1704704260257896,1486,1496,1211,1499,1000,0,0,0
1704704260264082,1486,1498,1211,1499,1000,0,0,0
1704704260270504,1487,1501,1212,1499,1000,0,0,0
1704704260276887,1490,1504,1214,1499,1000,0,0,0
1704704260283042,1493,1506,1214,1499,1000,0,0,0
1704704260289342,1496,1507,1215,1499,1000,0,0,0
1704704260295573,1499,1508,1216,1499,1000,0,0,0
1704704260301924,1502,1508,1216,1499,1000,0,0,0
1704704260308264,1505,1508,1217,1499,1000,0,0,0
1704704260314514,1507,1507,1218,1499,1000,0,0,0
1704704260320867,1509,1505,1218,1499,1000,0,0,0
1704704260327139,1510,1504,1219,1499,1000,0,0,0
1704704260333568,1511,1501,1219,1499,1000,0,0,0
1704704260339874,1511,1500,1220,1499,1000,0,0,0
1704704260346014,1509,1497,1221,1499,1000,0,0,0
1704704260352510,1508,1496,1222,1499,1000,0,0,0
1704704260358642,1506,1494,1223,1499,1000,0,0,0
1704704260364837,1503,1493,1223,1499,1000,0,0,0
1704704260371153,1501,1493,1224,1499,1000,0,0,0
1704704260377460,1498,1493,1225,1499,1000,0,0,0
1704704260383783,1495,1493,1225,1499,1000,0,0,0
1704704260390043,1493,1494,1225,1499,1000,0,0,0
1704704260396382,1491,1495,1226,1499,1000,0,0,0
1704704260402868,1490,1496,1226,1499,1000,0,0,0
1704704260408930,1489,1499,1227,1499,1000,0,0,0
1704704260415351,1490,1501,1228,1499,1000,0,0,0
1704704260421405,1490,1503,1229,1499,1000,0,0,0
1704704260427720,1492,1504,1230,1499,1000,0,0,0
1704704260433952,1494,1505,1232,1499,1000,0,0,0
1704704260440257,1496,1505,1233,1499,1000,0,0,0
1704704260446502,1498,1505,1234,1499,1000,0,0,0
1704704260452870,1501,1505,1234,1499,1000,0,0,0
1704704260459086,1503,1504,1235,1499,1000,0,0,0
1704704260465364,1505,1504,1236,1499,1000,0,0,0
1704704260471642,1507,1503,1237,1499,1000,0,0,0
1704704260477982,1508,1501,1238,1499,1000,0,0,0
1704704260484697,1508,1500,1239,1499,1000,0,0,0
1704704260490561,1508,1499,1240,1499,1000,0,0,0
1704704260496907,1507,1497,1241,1499,1000,0,0,0
1704704260503304,1506,1496,1241,1499,1000,0,0,0
1704704260509532,1505,1496,1242,1499,1000,0,0,0
1704704260515828,1503,1495,1242,1499,1000,0,0,0
1704704260522030,1501,1495,1243,1499,1000,0,0,0
1704704260528540,1499,1496,1244,1499,1000,0,0,0
1704704260534803,1497,1497,1245,1499,1000,0,0,0
1704704260541028,1496,1498,1245,1499,1000,0,0,0
1704704260547284,1495,1499,1245,1500,1000,0,0,0
1704704260553569,1494,1500,1246,1500,1000,0,0,0
1704704260559868,1494,1501,1246,1500,1000,0,0,0
1704704260566150,1495,1502,1246,1500,1000,0,0,0
1704704260572594,1495,1503,1247,1500,1000,0,0,0
1704704260578772,1496,1503,1247,1500,1000,0,0,0
1704704260585125,1498,1503,1247,1499,1000,0,0,0
1704704260591431,1499,1503,1247,1499,1000,0,0,0
1704704260597808,1500,1503,1247,1499,1000,0,0,0
1704704260604156,1502,1503,1247,1499,1000,0,0,0
1704704260610614,1502,1502,1247,1499,1000,0,0,0
1704704260617130,1503,1502,1247,1499,1000,0,0,0
1704704260623149,1504,1501,1246,1499,1000,0,0,0
1704704260629415,1504,1500,1246,1500,1000,0,0,0
1704704260635849,1504,1499,1246,1500,1000,0,0,0
1704704260642327,1504,1499,1246,1500,1000,0,0,0
1704704260648700,1503,1498,1246,1500,1000,0,0,0
1704704260654900,1502,1498,1245,1499,1000,0,0,0
1704704260661130,1501,1498,1245,1499,1000,0,0,0
1704704260667389,1500,1498,1244,1499,1000,0,0,0
1704704260673730,1499,1498,1244,1499,1000,0,0,0
1704704260679921,1499,1499,1243,1499,1000,0,0,0
1704704260686438,1498,1499,1243,1499,1000,0,0,0
1704704260692538,1498,1499,1243,1499,1000,0,0,0
1704704260698858,1498,1500,1243,1499,1000,0,0,0
1704704260705160,1498,1500,1243,1500,1000,0,0,0
1704704260711571,1498,1500,1243,1500,1000,0,0,0
1704704260717869,1498,1500,1244,1500,1000,0,0,0
1704704260724167,1499,1500,1244,1500,1000,0,0,0
1704704260730419,1500,1500,1244,1499,1000,0,0,0
1704704260736801,1500,1500,1245,1499,1000,0,0,0
1704704260743171,1501,1500,1245,1499,1000,0,0,0
1704704260749543,1502,1500,1245,1499,1000,0,0,0
1704704260755764,1502,1500,1246,1499,1000,0,0,0
1704704260762280,1502,1500,1247,1499,1000,0,0,0
1704704260768419,1502,1500,1247,1499,1000,0,0,0
1704704260774758,1502,1500,1248,1499,1000,0,0,0
1704704260781182,1502,1500,1248,1499,1000,0,0,0
1704704260787372,1501,1500,1249,1499,1000,0,0,0
1704704260793752,1501,1499,1250,1499,1000,0,0,0
1704704260800080,1500,1499,1250,1499,1000,0,0,0
1704704260806405,1500,1499,1250,1499,1000,0,0,0
1704704260812689,1500,1499,1251,1499,1000,0,0,0
1704704260819072,1499,1499,1251,1499,1000,0,0,0
1704704260825373,1499,1499,1251,1499,1000,0,0,0
1704704260831716,1499,1500,1252,1499,1000,0,0,0
1704704260838162,1499,1500,1252,1499,1000,0,0,0
1704704260844399,1499,1500,1252,1499,1000,0,0,0
1704704260850649,1499,1500,1252,1499,1000,0,0,0
1704704260857077,1500,1500,1252,1499,1000,0,0,0
1704704260863291,1500,1500,1252,1499,1000,0,0,0
1704704260869700,1500,1500,1252,1499,1000,0,0,0
1704704260875985,1501,1500,1252,1499,1000,0,0,0
1704704260882511,1501,1500,1252,1499,1000,0,0,0
1704704260888798,1501,1499,1252,1499,1000,0,0,0
1704704260895082,1501,1499,1252,1499,1000,0,0,0
1704704260901353,1501,1498,1251,1499,1000,0,0,0
1704704260907707,1501,1498,1252,1499,1000,0,0,0
1704704260914007,1501,1498,1252,1499,1000,0,0,0
1704704260920379,1501,1498,1252,1499,1000,0,0,0
1704704260926584,1500,1499,1252,1499,1000,0,0,0
1704704260932884,1500,1499,1252,1499,1000,0,0,0
1704704260939210,1500,1499,1252,1499,1000,0,0,0
1704704260945612,1499,1499,1253,1499,1000,0,0,0
1704704260951937,1499,1499,1253,1499,1000,0,0,0
1704704260958174,1499,1499,1253,1499,1000,0,0,0
1704704260964465,1499,1499,1254,1499,1000,0,0,0
1704704260970636,1499,1498,1254,1499,1000,0,0,0
1704704260976958,1499,1498,1254,1499,1000,0,0,0
1704704260983175,1499,1498,1254,1499,1000,0,0,0
1704704260989431,1500,1498,1254,1499,1000,0,0,0
1704704260995746,1500,1497,1255,1499,1000,0,0,0
1704704261002348,1500,1497,1255,1499,1000,0,0,0
1704704261008523,1500,1497,1255,1499,1000,0,0,0
1704704261014624,1500,1497,1255,1499,1000,0,0,0
1704704261021027,1500,1497,1255,1499,1000,0,0,0
1704704261027229,1500,1497,1255,1499,1000,0,0,0
1704704261033370,1500,1497,1255,1499,1000,0,0,0
1704704261039613,1500,1497,1254,1499,1000,0,0,0
1704704261045846,1500,1498,1254,1499,1000,0,0,0
1704704261052495,1500,1498,1255,1499,1000,0,0,0
1704704261058500,1500,1499,1254,1499,1000,0,0,0
1704704261064757,1500,1499,1255,1499,1000,0,0,0
1704704261071013,1500,1499,1255,1499,1000,0,0,0
1704704261077396,1500,1500,1255,1499,1000,0,0,0
1704704261083680,1500,1500,1255,1499,1000,0,0,0
1704704261089904,1500,1500,1255,1499,1000,0,0,0
1704704261096234,1500,1500,1255,1499,1000,0,0,0
1704704261102633,1500,1500,1255,1499,1000,0,0,0
1704704261108998,1500,1500,1256,1499,1000,0,0,0
1704704261115394,1500,1499,1256,1499,1000,0,0,0
1704704261121629,1499,1499,1257,1499,1000,0,0,0
1704704261128031,1499,1499,1257,1499,1000,0,0,0
1704704261134246,1499,1499,1257,1499,1000,0,0,0
1704704261140564,1499,1499,1258,1499,1000,0,0,0
1704704261146779,1499,1500,1258,1499,1000,0,0,0
1704704261153194,1499,1500,1258,1499,1000,0,0,0
1704704261159297,1499,1501,1259,1499,1000,0,0,0
1704704261165584,1499,1501,1259,1499,1000,0,0,0
1704704261171834,1499,1501,1259,1499,1000,0,0,0
1704704261178213,1499,1502,1259,1499,1000,0,0,0
1704704261184473,1499,1502,1259,1499,1000,0,0,0
1704704261190820,1499,1502,1260,1499,1000,0,0,0
1704704261196925,1500,1502,1260,1499,1000,0,0,0
1704704261203222,1500,1502,1260,1499,1000,0,0,0
1704704261209567,1500,1502,1260,1499,1000,0,0,0
1704704261215897,1500,1502,1260,1499,1000,0,0,0
1704704261222091,1500,1502,1260,1499,1000,0,0,0
1704704261228423,1500,1502,1260,1499,1000,0,0,0
1704704261234544,1501,1502,1260,1499,1000,0,0,0
1704704261240830,1501,1502,1260,1499,1000,0,0,0
1704704261247125,1501,1502,1260,1499,1000,0,0,0
1704704261253554,1501,1502,1260,1499,1000,0,0,0
1704704261259833,1501,1502,1260,1499,1000,0,0,0
1704704261265965,1502,1502,1260,1499,1000,0,0,0
1704704261272420,1502,1502,1261,1500,1000,0,0,0
1704704261278569,1502,1501,1261,1500,1000,0,0,0
1704704261285752,1502,1501,1261,1500,1000,0,0,0
1704704261291085,1502,1501,1261,1500,1000,0,0,0
1704704261297342,1501,1501,1261,1500,1000,0,0,0
1704704261303721,1501,1501,1261,1500,1000,0,0,0
1704704261310008,1501,1501,1261,1500,1000,0,0,0
1704704261316504,1501,1500,1261,1500,1000,0,0,0
1704704261322691,1501,1500,1261,1500,1000,0,0,0
1704704261328961,1501,1500,1261,1500,1000,0,0,0
1704704261335257,1501,1500,1261,1500,1000,0,0,0
1704704261342038,1501,1500,1261,1500,1000,0,0,0
1704704261347925,1501,1501,1262,1500,1000,0,0,0
1704704261354053,1501,1501,1262,1500,1000,0,0,0
1704704261360289,1501,1501,1262,1500,1000,0,0,0
1704704261366530,1501,1501,1263,1500,1000,0,0,0
1704704261372910,1501,1501,1263,1500,1000,0,0,0
1704704261379231,1502,1502,1264,1500,1000,0,0,0
1704704261385714,1502,1502,1264,1500,1000,0,0,0
1704704261392093,1502,1502,1265,1500,1000,0,0,0
1704704261398541,1502,1502,1265,1500,1000,0,0,0
1704704261404601,1502,1502,1266,1500,1000,0,0,0
1704704261411317,1502,1501,1267,1500,1000,0,0,0
1704704261417268,1502,1501,1267,1500,1000,0,0,0
1704704261423631,1502,1501,1268,1500,1000,0,0,0
1704704261429810,1502,1501,1268,1500,1000,0,0,0
1704704261436243,1502,1501,1268,1500,1000,0,0,0
1704704261442532,1502,1501,1269,1500,1000,0,0,0
1704704261448958,1502,1500,1269,1500,1000,0,0,0
1704704261455145,1502,1500,1269,1500,1000,0,0,0
1704704261461514,1502,1500,1269,1500,1000,0,0,0
1704704261467878,1502,1499,1269,1500,1000,0,0,0
1704704261474082,1502,1499,1269,1500,1000,0,0,0
1704704261480414,1501,1499,1269,1500,1000,0,0,0
1704704261486657,1501,1499,1268,1500,1000,0,0,0
1704704261492990,1501,1498,1268,1500,1000,0,0,0
1704704261499409,1501,1498,1268,1500,1000,0,0,0
1704704261505622,1501,1498,1267,1500,1000,0,0,0
1704704261511901,1501,1498,1267,1500,1000,0,0,0
1704704261518189,1501,1498,1266,1500,1000,0,0,0
1704704261524580,1501,1499,1266,1500,1000,0,0,0
1704704261530873,1501,1499,1265,1500,1000,0,0,0
1704704261537178,1501,1499,1264,1500,1000,0,0,0
1704704261543492,1501,1500,1264,1500,1000,0,0,0
1704704261549902,1501,1500,1264,1500,1000,0,0,0
1704704261556101,1501,1500,1263,1500,1000,0,0,0
1704704261562597,1501,1501,1263,1500,1000,0,0,0
1704704261568841,1501,1501,1263,1500,1000,0,0,0
1704704261574970,1501,1501,1262,1500,1000,0,0,0
1704704261581328,1501,1501,1262,1500,1000,0,0,0
1704704261587694,1500,1501,1262,1500,1000,0,0,0
1704704261594145,1500,1500,1262,1500,1000,0,0,0
1704704261600497,1500,1500,1262,1500,1000,0,0,0
1704704261606597,1499,1500,1262,1500,1000,0,0,0
1704704261612917,1499,1500,1263,1500,1000,0,0,0
1704704261619260,1499,1499,1263,1500,1000,0,0,0
1704704261625613,1499,1499,1264,1500,1000,0,0,0
1704704261631855,1499,1499,1264,1500,1000,0,0,0
1704704261638106,1499,1499,1264,1500,1000,0,0,0
1704704261644434,1499,1499,1265,1500,1000,0,0,0
1704704261650769,1499,1499,1266,1500,1000,0,0,0
1704704261658474,1499,1499,1266,1500,1000,0,0,0
1704704261663535,1499,1499,1266,1500,1000,0,0,0
1704704261669712,1499,1499,1267,1500,1000,0,0,0
1704704261675979,1500,1499,1267,1500,1000,0,0,0
1704704261682520,1500,1499,1267,1500,1000,0,0,0
1704704261688547,1500,1499,1268,1500,1000,0,0,0
1704704261694860,1500,1499,1268,1500,1000,0,0,0
1704704261701182,1500,1499,1268,1500,1000,0,0,0
1704704261707759,1500,1499,1268,1500,1000,0,0,0
1704704261713774,1500,1499,1267,1500,1000,0,0,0
1704704261720474,1499,1499,1267,1500,1000,0,0,0
1704704261726521,1499,1499,1267,1500,1000,0,0,0
1704704261732588,1499,1499,1267,1500,1000,0,0,0
1704704261738836,1499,1499,1266,1500,1000,0,0,0
1704704261745215,1499,1499,1266,1500,1000,0,0,0
1704704261751520,1499,1499,1265,1500,1000,0,0,0
1704704261757776,1499,1499,1265,1500,1000,0,0,0
1704704261764061,1499,1499,1264,1500,1000,0,0,0
1704704261770444,1499,1499,1264,1500,1000,0,0,0
1704704261776627,1499,1499,1263,1500,1000,0,0,0
1704704261782936,1499,1499,1262,1500,1000,0,0,0
1704704261789461,1499,1499,1262,1500,1000,0,0,0
1704704261795569,1499,1499,1261,1500,1000,0,0,0
1704704261801872,1500,1499,1261,1499,1000,0,0,0
1704704261808303,1500,1499,1261,1499,1000,0,0,0
1704704261814490,1500,1499,1261,1499,1000,0,0,0
1704704261820765,1500,1499,1260,1499,1000,0,0,0
1704704261827166,1501,1499,1261,1499,1000,0,0,0
1704704261833455,1501,1499,1261,1499,1000,0,0,0
1704704261839757,1501,1499,1261,1499,1000,0,0,0
1704704261846059,1501,1499,1261,1499,1000,0,0,0
1704704261852531,1501,1500,1261,1499,1000,0,0,0
1704704261858516,1501,1500,1261,1499,1000,0,0,0
1704704261864836,1501,1500,1262,1499,1000,0,0,0
1704704261871124,1501,1500,1262,1499,1000,0,0,0
1704704261877395,1501,1500,1262,1499,1000,0,0,0
1704704261883702,1501,1500,1263,1499,1000,0,0,0
1704704261889914,1501,1500,1263,1499,1000,0,0,0
1704704261896283,1501,1500,1263,1499,1000,0,0,0
1704704261902601,1500,1500,1264,1499,1000,0,0,0
1704704261908957,1500,1499,1264,1499,1000,0,0,0
1704704261915118,1500,1499,1264,1499,1000,0,0,0
1704704261921326,1500,1499,1264,1499,1000,0,0,0
1704704261927723,1501,1499,1265,1499,1000,0,0,0
1704704261933976,1501,1499,1265,1499,1000,0,0,0
1704704261940236,1501,1499,1265,1499,1000,0,0,0
1704704261946440,1501,1499,1265,1499,1000,0,0,0
1704704261952905,1501,1499,1264,1499,1000,0,0,0
1704704261959107,1500,1499,1264,1499,1000,0,0,0
1704704261965432,1500,1500,1264,1499,1000,0,0,0
1704704261971772,1500,1500,1264,1499,1000,0,0,0
1704704261977985,1500,1500,1264,1499,1000,0,0,0
1704704261984451,1500,1500,1264,1499,1000,0,0,0
1704704261990651,1500,1500,1263,1499,1000,0,0,0
1704704261996928,1500,1500,1263,1499,1000,0,0,0
1704704262003176,1500,1500,1263,1499,1000,0,0,0
1704704262009327,1500,1500,1263,1499,1000,0,0,0
1704704262015665,1500,1500,1262,1499,1000,0,0,0
1704704262021847,1500,1500,1262,1499,1000,0,0,0
1704704262028203,1500,1500,1261,1499,1000,0,0,0
1704704262034534,1500,1500,1261,1499,1000,0,0,0
1704704262040755,1500,1500,1260,1499,1000,0,0,0
1704704262046922,1500,1500,1260,1499,1000,0,0,0
1704704262053209,1500,1500,1260,1499,1000,0,0,0
1704704262059432,1500,1500,1259,1499,1000,0,0,0
1704704262065706,1500,1500,1259,1499,1000,0,0,0
1704704262072007,1500,1500,1259,1499,1000,0,0,0
1704704262078289,1500,1500,1259,1499,1000,0,0,0
1704704262084527,1500,1501,1259,1499,1000,0,0,0
1704704262090829,1500,1501,1259,1499,1000,0,0,0
1704704262097100,1500,1501,1259,1499,1000,0,0,0
1704704262103512,1500,1501,1259,1499,1000,0,0,0
1704704262109676,1500,1501,1259,1499,1000,0,0,0
1704704262115936,1500,1500,1259,1499,1000,0,0,0
1704704262122355,1500,1501,1259,1499,1000,0,0,0
1704704262128480,1500,1500,1259,1499,1000,0,0,0
1704704262134716,1500,1500,1259,1499,1000,0,0,0
1704704262140981,1500,1500,1259,1499,1000,0,0,0
1704704262147342,1500,1500,1259,1499,1000,0,0,0
1704704262153739,1500,1500,1260,1499,1000,0,0,0
1704704262159921,1500,1500,1260,1499,1000,0,0,0
1704704262166188,1499,1500,1260,1499,1000,0,0,0
1704704262172530,1499,1500,1260,1499,1000,0,0,0
1704704262178822,1499,1500,1260,1499,1000,0,0,0
1704704262185085,1500,1499,1260,1499,1000,0,0,0
1704704262191424,1500,1499,1261,1499,1000,0,0,0
1704704262197674,1500,1499,1261,1499,1000,0,0,0
1704704262203975,1500,1499,1261,1499,1000,0,0,0
1704704262210241,1500,1500,1261,1499,1000,0,0,0
1704704262216508,1500,1500,1261,1499,1000,0,0,0
1704704262222749,1500,1500,1261,1499,1000,0,0,0
1704704262229025,1500,1500,1261,1499,1000,0,0,0
1704704262235386,1500,1500,1261,1499,1000,0,0,0
1704704262241752,1500,1500,1261,1499,1000,0,0,0
1704704262247971,1500,1500,1261,1499,1000,0,0,0
1704704262254233,1500,1500,1260,1499,1000,0,0,0
1704704262260542,1500,1500,1260,1499,1000,0,0,0
1704704262267004,1500,1500,1260,1499,1000,0,0,0
1704704262273203,1500,1500,1260,1499,1000,0,0,0
1704704262279382,1500,1500,1260,1499,1000,0,0,0
1704704262285788,1500,1500,1260,1499,1000,0,0,0
1704704262292022,1500,1500,1260,1499,1000,0,0,0
1704704262298250,1500,1500,1259,1499,1000,0,0,0
1704704262304560,1499,1500,1259,1499,1000,0,0,0
1704704262310852,1499,1500,1259,1499,1000,0,0,0
1704704262317251,1499,1500,1258,1499,1000,0,0,0
1704704262323347,1499,1500,1258,1499,1000,0,0,0
1704704262329601,1499,1500,1257,1499,1000,0,0,0
1704704262336121,1499,1499,1257,1499,1000,0,0,0
1704704262342434,1499,1499,1256,1499,1000,0,0,0
1704704262348596,1499,1499,1256,1499,1000,0,0,0
1704704262354788,1499,1499,1256,1499,1000,0,0,0
1704704262361180,1499,1499,1256,1499,1000,0,0,0
1704704262367563,1500,1499,1255,1499,1000,0,0,0
1704704262373821,1500,1499,1255,1499,1000,0,0,0
1704704262380083,1500,1499,1255,1499,1000,0,0,0
1704704262386430,1500,1499,1255,1499,1000,0,0,0
1704704262392951,1500,1499,1255,1499,1000,0,0,0
1704704262399089,1500,1499,1255,1499,1000,0,0,0
1704704262405426,1500,1500,1256,1499,1000,0,0,0
1704704262411648,1500,1502,1258,1499,1000,0,0,0
1704704262417990,1500,1502,1261,1499,1000,0,0,0
1704704262424460,1500,1503,1262,1499,1000,0,0,0
1704704262430671,1500,1502,1263,1499,1000,0,0,0
1704704262437079,1500,1502,1263,1499,1000,0,0,0
1704704262443360,1500,1502,1263,1499,1000,0,0,0
1704704262449634,1500,1501,1263,1499,1000,0,0,0
1704704262455922,1500,1500,1263,1499,1000,0,0,0
1704704262462395,1500,1500,1262,1499,1000,0,0,0
1704704262468569,1500,1499,1262,1499,1000,0,0,0
1704704262474860,1500,1498,1261,1499,1000,0,0,0
1704704262481210,1500,1498,1260,1499,1000,0,0,0
1704704262487536,1500,1498,1259,1499,1000,0,0,0
1704704262493848,1500,1498,1258,1499,1000,0,0,0
1704704262500173,1500,1498,1257,1499,1000,0,0,0
1704704262506426,1499,1498,1256,1499,1000,0,0,0
1704704262512745,1499,1498,1255,1499,1000,0,0,0
1704704262519087,1499,1499,1254,1499,1000,0,0,0
1704704262525365,1499,1499,1254,1499,1000,0,0,0
1704704262531676,1499,1500,1253,1499,1000,0,0,0
1704704262537994,1499,1500,1253,1499,1000,0,0,0
1704704262544443,1499,1500,1253,1499,1000,0,0,0
1704704262550642,1499,1501,1253,1499,1000,0,0,0
1704704262557422,1499,1502,1256,1499,1000,0,0,0
1704704262563707,1499,1502,1257,1499,1000,0,0,0
1704704262569998,1499,1501,1257,1499,1000,0,0,0
1704704262576440,1499,1501,1257,1499,1000,0,0,0
1704704262582660,1499,1501,1257,1499,1000,0,0,0
1704704262588958,1499,1501,1257,1499,1000,0,0,0
1704704262595293,1499,1500,1257,1499,1000,0,0,0
1704704262601626,1499,1499,1258,1499,1000,0,0,0
1704704262607964,1499,1499,1258,1499,1000,0,0,0
1704704262614245,1499,1499,1258,1499,1000,0,0,0
1704704262620565,1499,1498,1258,1499,1000,0,0,0
1704704262626917,1499,1498,1258,1499,1000,0,0,0
1704704262633169,1499,1498,1257,1499,1000,0,0,0
1704704262639459,1499,1498,1257,1499,1000,0,0,0
1704704262645710,1499,1498,1257,1499,1000,0,0,0
1704704262652046,1499,1498,1257,1499,1000,0,0,0
1704704262658542,1499,1498,1257,1499,1000,0,0,0
1704704262664706,1500,1498,1257,1499,1000,0,0,0
1704704262671012,1500,1498,1256,1499,1000,0,0,0
1704704262677322,1500,1499,1256,1499,1000,0,0,0
1704704262683678,1500,1499,1256,1499,1000,0,0,0
1704704262690479,1500,1499,1256,1499,1000,0,0,0
1704704262696293,1500,1500,1256,1499,1000,0,0,0
1704704262702671,1500,1500,1258,1499,1000,0,0,0
1704704262708836,1500,1501,1261,1499,1000,0,0,0
1704704262715181,1500,1501,1263,1499,1000,0,0,0
1704704262721550,1500,1501,1263,1499,1000,0,0,0
1704704262727910,1500,1501,1263,1499,1000,0,0,0
1704704262734067,1500,1501,1263,1499,1000,0,0,0
1704704262740503,1500,1501,1262,1499,1000,0,0,0
1704704262746596,1500,1500,1262,1499,1000,0,0,0
1704704262752870,1500,1500,1262,1499,1000,0,0,0
1704704262759144,1500,1499,1261,1499,1000,0,0,0
1704704262765262,1500,1499,1261,1499,1000,0,0,0
1704704262771556,1500,1499,1260,1499,1000,0,0,0
1704704262777805,1500,1498,1259,1499,1000,0,0,0
1704704262784258,1500,1498,1259,1499,1000,0,0,0
1704704262790754,1500,1498,1258,1499,1000,0,0,0
1704704262796863,1500,1498,1257,1499,1000,0,0,0
1704704262803086,1500,1499,1257,1499,1000,0,0,0
1704704262809242,1500,1499,1256,1499,1000,0,0,0
1704704262815572,1500,1499,1255,1499,1000,0,0,0
1704704262821715,1500,1499,1255,1499,1000,0,0,0
1704704262828030,1500,1499,1255,1499,1000,0,0,0
1704704262834482,1500,1500,1254,1499,1000,0,0,0
1704704262840810,1500,1500,1254,1499,1000,0,0,0
1704704262846903,1500,1501,1255,1499,1000,0,0,0
1704704262853235,1500,1502,1255,1499,1000,0,0,0
1704704262859606,1500,1502,1256,1499,1000,0,0,0
1704704262865906,1500,1502,1257,1499,1000,0,0,0
1704704262872064,1500,1502,1257,1499,1000,0,0,0
1704704262878442,1500,1502,1258,1499,1000,0,0,0
1704704262884667,1500,1501,1258,1499,1000,0,0,0
1704704262890982,1500,1501,1258,1499,1000,0,0,0
1704704262897290,1500,1500,1258,1499,1000,0,0,0
1704704262903569,1500,1499,1258,1499,1000,0,0,0
1704704262909819,1500,1499,1258,1499,1000,0,0,0
1704704262916176,1500,1498,1258,1499,1000,0,0,0
1704704262922547,1500,1498,1258,1499,1000,0,0,0
1704704262928714,1500,1498,1258,1499,1000,0,0,0
1704704262934880,1500,1497,1258,1499,1000,0,0,0
1704704262941082,1500,1498,1258,1499,1000,0,0,0
1704704262947568,1500,1498,1259,1499,1000,0,0,0
1704704262953595,1501,1498,1259,1499,1000,0,0,0
1704704262959834,1501,1499,1258,1499,1000,0,0,0
1704704262966126,1501,1499,1258,1499,1000,0,0,0
1704704262972499,1501,1499,1258,1499,1000,0,0,0
1704704262978641,1501,1499,1257,1499,1000,0,0,0
1704704262985005,1501,1500,1257,1499,1000,0,0,0
1704704262991319,1501,1500,1257,1499,1000,0,0,0
1704704262997629,1501,1500,1256,1499,1000,0,0,0
1704704263003868,1501,1500,1256,1499,1000,0,0,0
1704704263010101,1500,1500,1256,1499,1000,0,0,0
1704704263016504,1500,1500,1256,1499,1000,0,0,0
1704704263022675,1500,1500,1255,1499,1000,0,0,0
1704704263028937,1500,1499,1255,1499,1000,0,0,0
1704704263035305,1500,1499,1255,1499,1000,0,0,0
1704704263041596,1500,1499,1255,1499,1000,0,0,0
1704704263047842,1501,1499,1255,1499,1000,0,0,0
1704704263054040,1501,1499,1255,1499,1000,0,0,0
1704704263060496,1501,1499,1255,1499,1000,0,0,0
1704704263066688,1501,1499,1255,1499,1000,0,0,0
1704704263072835,1501,1499,1256,1499,1000,0,0,0
1704704263079111,1501,1499,1256,1499,1000,0,0,0
1704704263085383,1501,1499,1256,1499,1000,0,0,0
1704704263091693,1500,1499,1256,1499,1000,0,0,0
1704704263097812,1500,1500,1257,1499,1000,0,0,0
1704704263104446,1500,1502,1261,1499,1000,0,0,0
1704704263110662,1500,1502,1262,1499,1000,0,0,0
1704704263116912,1500,1502,1262,1499,1000,0,0,0
1704704263123203,1500,1502,1263,1499,1000,0,0,0
1704704263129393,1500,1502,1263,1499,1000,0,0,0
1704704263135724,1500,1501,1263,1499,1000,0,0,0
1704704263142110,1500,1501,1263,1499,1000,0,0,0
1704704263148160,1500,1500,1263,1499,1000,0,0,0
1704704263154440,1500,1499,1262,1499,1000,0,0,0
1704704263160633,1501,1499,1262,1499,1000,0,0,0
1704704263166921,1501,1498,1261,1499,1000,0,0,0
1704704263173491,1501,1498,1260,1499,1000,0,0,0
1704704263179450,1501,1498,1259,1499,1000,0,0,0
1704704263185784,1501,1498,1258,1499,1000,0,0,0
1704704263192070,1501,1498,1257,1499,1000,0,0,0
1704704263198305,1501,1498,1256,1499,1000,0,0,0
1704704263204570,1501,1498,1255,1499,1000,0,0,0
1704704263211001,1501,1499,1255,1499,1000,0,0,0
1704704263217091,1501,1499,1254,1499,1000,0,0,0
1704704263223305,1500,1499,1253,1499,1000,0,0,0
1704704263229459,1500,1500,1253,1499,1000,0,0,0
1704704263235683,1500,1500,1252,1499,1000,0,0,0
1704704263241861,1500,1500,1252,1499,1000,0,0,0
1704704263248031,1500,1500,1252,1499,1000,0,0,0
1704704263254190,1500,1500,1252,1499,1000,0,0,0
1704704263260471,1500,1500,1252,1499,1000,0,0,0
1704704263266759,1500,1500,1252,1499,1000,0,0,0
1704704263272968,1500,1500,1252,1499,1000,0,0,0
1704704263279069,1500,1500,1252,1499,1000,0,0,0
1704704263285329,1500,1500,1253,1499,1000,0,0,0
1704704263291676,1500,1500,1253,1499,1000,0,0,0
1704704263297749,1500,1499,1254,1499,1000,0,0,0
1704704263303953,1500,1499,1254,1499,1000,0,0,0
1704704263310131,1500,1499,1254,1499,1000,0,0,0
1704704263316564,1500,1498,1255,1499,1000,0,0,0
1704704263322707,1500,1498,1257,1499,1000,0,0,0
1704704263329016,1500,1498,1258,1499,1000,0,0,0
1704704263335131,1500,1498,1259,1499,1000,0,0,0
1704704263341336,1500,1498,1259,1499,1000,0,0,0
1704704263347461,1500,1499,1260,1499,1000,0,0,0
1704704263353704,1500,1499,1260,1499,1000,0,0,0
1704704263359898,1500,1499,1261,1499,1000,0,0,0
1704704263366141,1500,1499,1262,1499,1000,0,0,0
1704704263372176,1500,1499,1262,1499,1000,0,0,0
1704704263378452,1500,1499,1262,1499,1000,0,0,0
1704704263384687,1500,1500,1262,1499,1000,0,0,0
1704704263390957,1500,1500,1262,1499,1000,0,0,0
1704704263397035,1500,1500,1262,1499,1000,0,0,0
1704704263403282,1500,1500,1262,1499,1000,0,0,0
1704704263409454,1500,1500,1261,1499,1000,0,0,0
1704704263415617,1500,1500,1261,1499,1000,0,0,0
1704704263421693,1500,1500,1260,1499,1000,0,0,0
1704704263427886,1500,1500,1259,1499,1000,0,0,0
1704704263434093,1500,1500,1259,1499,1000,0,0,0
1704704263440206,1500,1500,1258,1499,1000,0,0,0
1704704263446329,1500,1500,1258,1499,1000,0,0,0
1704704263452678,1500,1500,1257,1499,1000,0,0,0
1704704263458729,1500,1500,1257,1499,1000,0,0,0
1704704263464882,1500,1500,1257,1499,1000,0,0,0
1704704263471022,1500,1499,1256,1499,1000,0,0,0
1704704263477214,1500,1499,1256,1499,1000,0,0,0
1704704263483306,1501,1499,1256,1499,1000,0,0,0
1704704263489432,1501,1499,1256,1499,1000,0,0,0
1704704263495675,1501,1499,1256,1499,1000,0,0,0
1704704263501756,1501,1499,1256,1499,1000,0,0,0
1704704263507813,1501,1499,1256,1499,1000,0,0,0
1704704263513829,1500,1499,1257,1499,1000,0,0,0
1704704263519973,1500,1499,1257,1499,1000,0,0,0
1704704263526036,1500,1499,1257,1499,1000,0,0,0
1704704263532151,1500,1499,1258,1499,1000,0,0,0
1704704263538206,1500,1499,1258,1499,1000,0,0,0
1704704263544477,1500,1499,1258,1499,1000,0,0,0
1704704263550518,1500,1499,1259,1499,1000,0,0,0
1704704263556521,1500,1499,1259,1499,1000,0,0,0
1704704263562529,1500,1499,1260,1499,1000,0,0,0
1704704263568616,1500,1499,1260,1499,1000,0,0,0
1704704263574704,1500,1500,1260,1499,1000,0,0,0
1704704263580801,1499,1500,1261,1499,1000,0,0,0
1704704263586887,1499,1500,1261,1499,1000,0,0,0
1704704263593017,1499,1500,1261,1499,1000,0,0,0
1704704263599108,1500,1500,1261,1499,1000,0,0,0
1704704263605210,1500,1500,1261,1499,1000,0,0,0
1704704263611348,1500,1500,1261,1499,1000,0,0,0
1704704263617385,1500,1500,1262,1499,1000,0,0,0
1704704263623424,1499,1500,1262,1499,1000,0,0,0
1704704263629470,1499,1500,1263,1499,1000,0,0,0
1704704263635740,1499,1500,1263,1499,1000,0,0,0
1704704263641896,1499,1500,1263,1499,1000,0,0,0
1704704263647849,1499,1500,1263,1499,1000,0,0,0
1704704263654004,1499,1500,1262,1499,1000,0,0,0
1704704263660082,1499,1500,1262,1499,1000,0,0,0
1704704263666322,1499,1500,1262,1499,1000,0,0,0
1704704263672757,1499,1500,1262,1499,1000,0,0,0
1704704263678465,1499,1500,1262,1499,1000,0,0,0
1704704263684803,1499,1500,1261,1499,1000,0,0,0
1704704263690746,1499,1500,1261,1499,1000,0,0,0
1704704263696901,1500,1500,1261,1499,1000,0,0,0
1704704263702898,1500,1500,1260,1499,1000,0,0,0
1704704263708975,1499,1500,1260,1499,1000,0,0,0
1704704263715104,1499,1500,1260,1499,1000,0,0,0
1704704263721082,1499,1500,1259,1499,1000,0,0,0
1704704263727025,1499,1500,1259,1499,1000,0,0,0
1704704263733401,1499,1500,1259,1499,1000,0,0,0
1704704263739175,1499,1500,1259,1499,1000,0,0,0
1704704263745324,1499,1499,1258,1499,1000,0,0,0
1704704263751380,1499,1499,1258,1499,1000,0,0,0
1704704263758872,1499,1499,1258,1499,1000,0,0,0
1704704263764341,1499,1500,1259,1499,1000,0,0,0
1704704263770268,1500,1500,1260,1499,1000,0,0,0
1704704263776339,1499,1500,1261,1499,1000,0,0,0
1704704263782716,1499,1500,1261,1499,1000,0,0,0
1704704263788477,1499,1500,1261,1499,1000,0,0,0
1704704263794575,1499,1500,1261,1499,1000,0,0,0
1704704263800740,1499,1500,1262,1499,1000,0,0,0
1704704263806738,1499,1500,1262,1499,1000,0,0,0
1704704263812822,1500,1500,1262,1499,1000,0,0,0
1704704263818946,1500,1499,1261,1499,1000,0,0,0
1704704263825111,1500,1499,1261,1499,1000,0,0,0
1704704263831092,1500,1499,1261,1499,1000,0,0,0
1704704263837304,1500,1499,1261,1499,1000,0,0,0
1704704263846628,1500,1498,1261,1499,1000,0,0,0
1704704263849552,1500,1498,1261,1499,1000,0,0,0
1704704263855573,1500,1498,1261,1499,1000,0,0,0
1704704263861650,1500,1498,1260,1499,1000,0,0,0
1704704263867703,1500,1499,1260,1499,1000,0,0,0
1704704263873837,1500,1499,1260,1499,1000,0,0,0
1704704263879835,1500,1499,1260,1499,1000,0,0,0
1704704263885876,1500,1499,1260,1499,1000,0,0,0
1704704263891949,1500,1499,1260,1499,1000,0,0,0
1704704263897923,1500,1499,1260,1499,1000,0,0,0
1704704263904041,1500,1500,1260,1499,1000,0,0,0
1704704263910038,1500,1500,1260,1499,1000,0,0,0
1704704263916171,1500,1500,1260,1499,1000,0,0,0
1704704263922163,1499,1500,1260,1499,1000,0,0,0
1704704263928999,1499,1501,1262,1499,1000,0,0,0
1704704263935105,1499,1501,1263,1499,1000,0,0,0
1704704263941426,1498,1502,1264,1499,1000,0,0,0
1704704263947147,1498,1502,1264,1499,1000,0,0,0
1704704263953262,1499,1501,1264,1499,1000,0,0,0
1704704263959344,1499,1501,1264,1499,1000,0,0,0
1704704263965371,1499,1501,1264,1499,1000,0,0,0
1704704263971535,1500,1500,1264,1499,1000,0,0,0
1704704263977730,1500,1500,1264,1499,1000,0,0,0
1704704263983762,1500,1500,1263,1499,1000,0,0,0
1704704263989759,1501,1499,1263,1499,1000,0,0,0
1704704263995860,1501,1499,1263,1499,1000,0,0,0
1704704264001898,1501,1499,1262,1499,1000,0,0,0
1704704264008047,1501,1498,1262,1499,1000,0,0,0
1704704264014165,1501,1498,1261,1499,1000,0,0,0
1704704264020291,1501,1498,1260,1499,1000,0,0,0
1704704264026503,1501,1499,1260,1499,1000,0,0,0
1704704264034234,1501,1499,1259,1499,1000,0,0,0
1704704264038492,1501,1499,1258,1499,1000,0,0,0
1704704264044612,1501,1499,1258,1499,1000,0,0,0
1704704264050656,1500,1500,1257,1499,1000,0,0,0
1704704264057096,1500,1500,1257,1499,1000,0,0,0
1704704264062707,1500,1500,1257,1499,1000,0,0,0
1704704264068920,1500,1500,1257,1499,1000,0,0,0
1704704264075096,1499,1501,1259,1499,1000,0,0,0
1704704264081015,1499,1502,1259,1499,1000,0,0,0
1704704264086919,1499,1502,1259,1499,1000,0,0,0
1704704264093169,1499,1502,1260,1499,1000,0,0,0
1704704264099406,1499,1502,1260,1499,1000,0,0,0
1704704264105208,1499,1501,1260,1499,1000,0,0,0
1704704264111359,1500,1501,1260,1499,1000,0,0,0
1704704264117408,1500,1501,1260,1499,1000,0,0,0
1704704264123519,1500,1500,1260,1499,1000,0,0,0
1704704264129647,1500,1500,1261,1499,1000,0,0,0
1704704264135882,1500,1499,1261,1499,1000,0,0,0
1704704264141898,1501,1499,1261,1499,1000,0,0,0
1704704264147901,1501,1499,1261,1499,1000,0,0,0
1704704264153892,1501,1499,1260,1499,1000,0,0,0
1704704264160054,1501,1499,1260,1499,1000,0,0,0
1704704264166149,1501,1499,1260,1499,1000,0,0,0
1704704264172432,1501,1499,1260,1499,1000,0,0,0
1704704264178360,1501,1499,1260,1499,1000,0,0,0
1704704264184511,1501,1500,1260,1499,1000,0,0,0
1704704264190339,1501,1500,1259,1499,1000,0,0,0
1704704264196558,1501,1500,1259,1499,1000,0,0,0
1704704264202549,1500,1500,1259,1499,1000,0,0,0
1704704264208606,1500,1501,1259,1499,1000,0,0,0
1704704264214667,1500,1501,1259,1499,1000,0,0,0
1704704264220783,1500,1501,1259,1499,1000,0,0,0
1704704264226979,1500,1501,1259,1499,1000,0,0,0
1704704264232952,1500,1501,1259,1499,1000,0,0,0
1704704264238804,1500,1501,1259,1499,1000,0,0,0
1704704264245039,1500,1501,1260,1499,1000,0,0,0
1704704264251037,1500,1501,1260,1499,1000,0,0,0
1704704264257020,1500,1501,1260,1499,1000,0,0,0
1704704264263023,1500,1501,1260,1499,1000,0,0,0
1704704264269222,1500,1500,1260,1499,1000,0,0,0
1704704264275288,1501,1500,1260,1499,1000,0,0,0
1704704264281385,1501,1500,1260,1499,1000,0,0,0
1704704264287411,1501,1499,1260,1499,1000,0,0,0
1704704264293454,1501,1499,1260,1499,1000,0,0,0
1704704264299890,1501,1499,1260,1499,1000,0,0,0
1704704264305517,1501,1499,1260,1499,1000,0,0,0
1704704264311593,1501,1499,1260,1499,1000,0,0,0
1704704264317704,1501,1499,1260,1499,1000,0,0,0
1704704264323769,1501,1500,1260,1499,1000,0,0,0
1704704264329646,1500,1500,1259,1499,1000,0,0,0
1704704264335812,1500,1500,1259,1499,1000,0,0,0
1704704264341836,1500,1500,1259,1499,1000,0,0,0
1704704264347886,1500,1500,1259,1499,1000,0,0,0
1704704264353941,1500,1501,1259,1499,1000,0,0,0
1704704264360110,1500,1501,1259,1499,1000,0,0,0
1704704264366289,1500,1501,1259,1499,1000,0,0,0
1704704264372455,1500,1501,1259,1499,1000,0,0,0
1704704264378164,1500,1501,1259,1499,1000,0,0,0
1704704264384340,1500,1500,1259,1499,1000,0,0,0
1704704264390297,1500,1500,1259,1499,1000,0,0,0
1704704264396376,1500,1500,1259,1499,1000,0,0,0
1704704264402567,1500,1500,1259,1499,1000,0,0,0
1704704264408582,1500,1500,1259,1499,1000,0,0,0
1704704264414532,1499,1500,1259,1499,1000,0,0,0
1704704264420638,1499,1499,1259,1499,1000,0,0,0
1704704264426660,1499,1499,1260,1499,1000,0,0,0
1704704264433530,1499,1499,1260,1499,1000,0,0,0
1704704264438790,1499,1499,1260,1499,1000,0,0,0
1704704264444834,1499,1499,1260,1499,1000,0,0,0
1704704264450897,1499,1499,1260,1499,1000,0,0,0
1704704264456933,1499,1499,1260,1499,1000,0,0,0
1704704264462959,1499,1499,1260,1499,1000,0,0,0
1704704264469106,1499,1500,1260,1499,1000,0,0,0
1704704264475220,1499,1500,1260,1499,1000,0,0,0
1704704264481219,1499,1500,1260,1499,1000,0,0,0
1704704264487343,1499,1500,1260,1499,1000,0,0,0
1704704264493557,1499,1500,1260,1499,1000,0,0,0
1704704264499493,1499,1500,1260,1499,1000,0,0,0
1704704264505529,1499,1500,1260,1499,1000,0,0,0
1704704264511680,1499,1499,1261,1499,1000,0,0,0
1704704264517797,1499,1499,1261,1499,1000,0,0,0
1704704264523882,1499,1499,1261,1499,1000,0,0,0
1704704264529925,1499,1499,1261,1499,1000,0,0,0
1704704264536157,1499,1499,1261,1499,1000,0,0,0
1704704264542135,1499,1499,1261,1499,1000,0,0,0
1704704264548216,1499,1499,1261,1499,1000,0,0,0
1704704264554291,1499,1499,1261,1499,1000,0,0,0
1704704264560523,1499,1500,1261,1499,1000,0,0,0
1704704264566591,1499,1499,1261,1499,1000,0,0,0
1704704264572674,1499,1499,1261,1499,1000,0,0,0
1704704264578603,1499,1499,1261,1499,1000,0,0,0
1704704264584560,1499,1499,1261,1499,1000,0,0,0
1704704264590617,1499,1499,1261,1499,1000,0,0,0
1704704264596806,1499,1499,1261,1499,1000,0,0,0
1704704264602872,1499,1499,1261,1499,1000,0,0,0
1704704264609050,1499,1499,1261,1499,1000,0,0,0
1704704264615017,1499,1499,1260,1499,1000,0,0,0
1704704264621178,1499,1499,1260,1499,1000,0,0,0
1704704264627190,1500,1499,1260,1499,1000,0,0,0
1704704264633406,1500,1499,1260,1499,1000,0,0,0
1704704264639323,1500,1499,1260,1499,1000,0,0,0
1704704264645373,1500,1499,1260,1499,1000,0,0,0
1704704264651436,1500,1499,1260,1499,1000,0,0,0
1704704264657475,1500,1499,1260,1499,1000,0,0,0
1704704264663495,1500,1499,1260,1499,1000,0,0,0
1704704264670274,1500,1499,1260,1499,1000,0,0,0
1704704264676670,1500,1499,1260,1499,1000,0,0,0
1704704264682529,1500,1500,1260,1499,1000,0,0,0
1704704264687719,1499,1500,1260,1499,1000,0,0,0
1704704264693937,1499,1501,1261,1499,1000,0,0,0
1704704264700055,1499,1501,1261,1499,1000,0,0,0
1704704264706183,1499,1500,1261,1499,1000,0,0,0
1704704264712181,1499,1500,1261,1499,1000,0,0,0
1704704264719063,1499,1500,1261,1499,1000,0,0,0
1704704264724597,1499,1500,1261,1499,1000,0,0,0
1704704264730531,1499,1499,1261,1499,1000,0,0,0
1704704264736697,1499,1499,1261,1499,1000,0,0,0
1704704264742697,1499,1499,1261,1499,1000,0,0,0
1704704264748800,1499,1498,1261,1499,1000,0,0,0
1704704264754812,1500,1498,1261,1499,1000,0,0,0
1704704264761049,1500,1498,1261,1499,1000,0,0,0
1704704264767307,1500,1498,1261,1499,1000,0,0,0
1704704264773233,1500,1498,1261,1499,1000,0,0,0
1704704264779305,1500,1498,1261,1499,1000,0,0,0
1704704264785519,1500,1498,1261,1499,1000,0,0,0
1704704264791628,1500,1499,1261,1499,1000,0,0,0
1704704264797862,1499,1499,1261,1499,1000,0,0,0
1704704264803870,1499,1499,1260,1499,1000,0,0,0
1704704264809874,1499,1500,1260,1499,1000,0,0,0
1704704264815939,1499,1500,1260,1499,1000,0,0,0
1704704264821864,1499,1500,1260,1499,1000,0,0,0
1704704264828064,1499,1500,1260,1499,1000,0,0,0
1704704264834023,1499,1500,1260,1499,1000,0,0,0
1704704264839899,1499,1500,1259,1499,1000,0,0,0
1704704264845958,1499,1500,1259,1499,1000,0,0,0
1704704264852018,1499,1500,1259,1499,1000,0,0,0
1704704264858003,1499,1500,1259,1499,1000,0,0,0
1704704264864735,1500,1500,1259,1499,1000,0,0,0
1704704264870057,1500,1499,1259,1499,1000,0,0,0
1704704264876019,1500,1499,1259,1499,1000,0,0,0
1704704264882112,1500,1499,1259,1499,1000,0,0,0
1704704264888078,1500,1499,1259,1499,1000,0,0,0
1704704264894164,1500,1499,1259,1499,1000,0,0,0
1704704264900265,1500,1499,1259,1499,1000,0,0,0
1704704264906290,1500,1499,1259,1499,1000,0,0,0
1704704264912487,1501,1499,1259,1499,1000,0,0,0
1704704264918577,1501,1499,1260,1499,1000,0,0,0
1704704264924969,1501,1499,1260,1499,1000,0,0,0
1704704264930550,1500,1499,1260,1499,1000,0,0,0
1704704264936581,1500,1499,1260,1499,1000,0,0,0
1704704264942641,1500,1499,1260,1499,1000,0,0,0
1704704264948631,1500,1499,1260,1499,1000,0,0,0
1704704264954605,1500,1499,1260,1499,1000,0,0,0
1704704264960785,1500,1499,1260,1499,1000,0,0,0
1704704264966777,1500,1499,1260,1499,1000,0,0,0
1704704264972886,1500,1499,1260,1499,1000,0,0,0
1704704264978951,1500,1499,1260,1499,1000,0,0,0
1704704264985116,1500,1499,1260,1499,1000,0,0,0
1704704264991326,1500,1499,1260,1499,1000,0,0,0
1704704264997335,1500,1499,1260,1499,1000,0,0,0
1704704265003466,1501,1500,1260,1499,1000,0,0,0
1704704265009492,1501,1500,1260,1499,1000,0,0,0
1704704265015529,1501,1500,1260,1499,1000,0,0,0
1704704265021571,1500,1500,1260,1499,1000,0,0,0
1704704265027688,1500,1500,1260,1499,1000,0,0,0
1704704265033831,1500,1500,1260,1499,1000,0,0,0
1704704265039944,1500,1499,1260,1499,1000,0,0,0
1704704265046008,1500,1499,1260,1499,1000,0,0,0
1704704265052124,1500,1500,1260,1499,1000,0,0,0
1704704265058214,1500,1500,1260,1499,1000,0,0,0
1704704265064397,1500,1500,1260,1499,1000,0,0,0
1704704265070335,1500,1500,1260,1499,1000,0,0,0
1704704265076664,1500,1500,1260,1499,1000,0,0,0
1704704265082822,1500,1500,1260,1499,1000,0,0,0
1704704265088579,1500,1500,1260,1499,1000,0,0,0
1704704265094680,1500,1500,1260,1499,1000,0,0,0
1704704265100762,1500,1500,1260,1499,1000,0,0,0
1704704265106761,1500,1500,1260,1499,1000,0,0,0
1704704265112773,1500,1500,1260,1499,1000,0,0,0
1704704265118817,1500,1500,1260,1499,1000,0,0,0
1704704265124872,1500,1500,1260,1499,1000,0,0,0
1704704265131123,1500,1500,1260,1499,1000,0,0,0
1704704265137015,1500,1500,1259,1499,1000,0,0,0
1704704265142989,1500,1500,1259,1499,1000,0,0,0
1704704265149001,1500,1500,1259,1499,1000,0,0,0
1704704265155111,1500,1500,1259,1499,1000,0,0,0
1704704265161094,1500,1500,1259,1499,1000,0,0,0
1704704265167064,1500,1500,1259,1499,1000,0,0,0
1704704265173602,1500,1500,1259,1499,1000,0,0,0
1704704265179097,1500,1500,1260,1499,1000,0,0,0
1704704265185163,1500,1500,1260,1499,1000,0,0,0
1704704265191476,1500,1500,1260,1499,1000,0,0,0
1704704265197296,1500,1500,1260,1499,1000,0,0,0
1704704265203452,1501,1500,1260,1499,1000,0,0,0
1704704265209494,1501,1499,1260,1499,1000,0,0,0
1704704265215541,1501,1499,1260,1499,1000,0,0,0
1704704265221524,1501,1499,1260,1499,1000,0,0,0
1704704265227627,1501,1499,1260,1499,1000,0,0,0
1704704265233893,1501,1499,1260,1499,1000,0,0,0
1704704265239719,1500,1499,1260,1499,1000,0,0,0
1704704265245805,1500,1500,1260,1499,1000,0,0,0
1704704265251950,1500,1500,1260,1499,1000,0,0,0
1704704265258030,1500,1500,1260,1499,1000,0,0,0
1704704265264047,1500,1500,1260,1499,1000,0,0,0
1704704265270001,1500,1500,1260,1499,1000,0,0,0
1704704265276069,1500,1500,1260,1499,1000,0,0,0
1704704265282122,1500,1500,1260,1499,1000,0,0,0
1704704265288158,1500,1500,1260,1499,1000,0,0,0
1704704265294179,1500,1500,1260,1499,1000,0,0,0
1704704265300325,1500,1500,1260,1499,1000,0,0,0
1704704265306319,1500,1500,1260,1499,1000,0,0,0
1704704265312552,1500,1500,1260,1499,1000,0,0,0
1704704265318563,1500,1500,1260,1499,1000,0,0,0
1704704265324623,1500,1500,1260,1499,1000,0,0,0
1704704265330561,1500,1499,1260,1499,1000,0,0,0
1704704265336668,1500,1499,1260,1499,1000,0,0,0
1704704265342695,1500,1499,1260,1499,1000,0,0,0
1704704265348724,1500,1499,1260,1499,1000,0,0,0
1704704265354758,1500,1499,1260,1499,1000,0,0,0
1704704265360946,1500,1499,1259,1499,1000,0,0,0
1704704265367003,1500,1499,1259,1499,1000,0,0,0
1704704265373040,1500,1499,1260,1499,1000,0,0,0
1704704265379116,1500,1499,1260,1499,1000,0,0,0
1704704265385237,1500,1500,1260,1499,1000,0,0,0
1704704265391313,1500,1500,1260,1499,1000,0,0,0
1704704265397295,1500,1500,1260,1499,1000,0,0,0
1704704265403406,1500,1500,1260,1499,1000,0,0,0
1704704265409539,1500,1500,1260,1499,1000,0,0,0
1704704265415896,1500,1500,1260,1499,1000,0,0,0
1704704265421856,1500,1500,1260,1499,1000,0,0,0
1704704265427947,1500,1500,1260,1499,1000,0,0,0
1704704265434275,1500,1500,1260,1499,1000,0,0,0
1704704265440051,1500,1500,1260,1499,1000,0,0,0
1704704265446139,1500,1500,1260,1499,1000,0,0,0
1704704265452123,1500,1500,1260,1499,1000,0,0,0
1704704265458278,1500,1499,1260,1499,1000,0,0,0
1704704265464347,1499,1499,1260,1499,1000,0,0,0
1704704265470346,1499,1499,1260,1499,1000,0,0,0
1704704265479313,1499,1499,1260,1499,1000,0,0,0
1704704265482749,1499,1499,1260,1499,1000,0,0,0
1704704265488536,1500,1499,1260,1499,1000,0,0,0
1704704265494539,1500,1499,1260,1499,1000,0,0,0
1704704265500595,1500,1499,1260,1499,1000,0,0,0
1704704265506661,1500,1499,1260,1499,1000,0,0,0
1704704265512730,1500,1499,1260,1499,1000,0,0,0
1704704265518821,1500,1499,1260,1499,1000,0,0,0
1704704265524934,1500,1499,1260,1499,1000,0,0,0
1704704265531038,1500,1499,1261,1499,1000,0,0,0
1704704265537092,1500,1499,1261,1499,1000,0,0,0
1704704265543119,1500,1499,1261,1499,1000,0,0,0
1704704265549252,1500,1499,1261,1499,1000,0,0,0
1704704265555282,1500,1499,1261,1499,1000,0,0,0
1704704265567398,1500,1499,1261,1499,1000,0,0,0
1704704265573577,1500,1499,1261,1499,1000,0,0,0
1704704265579745,1500,1499,1261,1499,1000,0,0,0
1704704265585896,1499,1499,1261,1499,1000,0,0,0
1704704265592039,1499,1498,1261,1499,1000,0,0,0
1704704265598148,1499,1498,1261,1499,1000,0,0,0
1704704265604297,1499,1498,1261,1499,1000,0,0,0
1704704265613780,1499,1499,1261,1499,1000,0,0,0
1704704265623514,1499,1499,1260,1499,1000,0,0,0
1704704265632751,1499,1499,1260,1499,1000,0,0,0
1704704265641733,1499,1499,1260,1499,1000,0,0,0
1704704265651976,1500,1499,1260,1499,1000,0,0,0
1704704265661713,1500,1499,1261,1499,1000,0,0,0
1704704265670410,1500,1499,1261,1499,1000,0,0,0
1704704265679098,1500,1499,1261,1499,1000,0,0,0
1704704265685564,1500,1499,1261,1499,1000,0,0,0
1704704265692870,1500,1499,1261,1499,1000,0,0,0
1704704265699103,1500,1499,1261,1499,1000,0,0,0
1704704265705131,1500,1499,1261,1499,1000,0,0,0
1704704265711548,1500,1499,1261,1499,1000,0,0,0
1704704265717433,1499,1499,1262,1499,1000,0,0,0
1704704265723640,1499,1499,1262,1499,1000,0,0,0
1704704265729688,1499,1499,1262,1499,1000,0,0,0
1704704265735845,1499,1499,1262,1499,1000,0,0,0
1704704265742048,1499,1499,1262,1499,1000,0,0,0
1704704265748179,1499,1499,1262,1499,1000,0,0,0
1704704265754393,1499,1499,1262,1499,1000,0,0,0
1704704265760641,1499,1499,1262,1499,1000,0,0,0
1704704265766730,1499,1499,1262,1499,1000,0,0,0
1704704265772847,1500,1499,1262,1499,1000,0,0,0
1704704265779123,1500,1500,1262,1499,1000,0,0,0
1704704265785357,1500,1500,1262,1499,1000,0,0,0
1704704265791633,1500,1500,1262,1499,1000,0,0,0
1704704265797271,1500,1500,1262,1499,1000,0,0,0
1704704265803485,1501,1500,1262,1499,1000,0,0,0
1704704265809625,1501,1500,1262,1499,1000,0,0,0
1704704265815707,1501,1500,1262,1499,1000,0,0,0
1704704265821733,1501,1500,1262,1499,1000,0,0,0
1704704265827832,1501,1500,1262,1499,1000,0,0,0
1704704265834149,1501,1500,1262,1499,1000,0,0,0
1704704265840185,1500,1500,1262,1499,1000,0,0,0
1704704265846218,1500,1500,1262,1499,1000,0,0,0
1704704265852843,1500,1500,1262,1499,1000,0,0,0
1704704265858675,1500,1500,1262,1499,1000,0,0,0
1704704265864663,1500,1500,1263,1499,1000,0,0,0
1704704265870853,1500,1500,1263,1499,1000,0,0,0
1704704265876919,1500,1500,1263,1499,1000,0,0,0
1704704265883092,1500,1500,1263,1499,1000,0,0,0
1704704265889180,1500,1500,1263,1499,1000,0,0,0
1704704265895307,1500,1500,1263,1499,1000,0,0,0
1704704265901443,1500,1500,1263,1499,1000,0,0,0
1704704265907678,1500,1500,1263,1499,1000,0,0,0
1704704265913749,1500,1500,1263,1499,1000,0,0,0
1704704265919919,1500,1500,1263,1499,1000,0,0,0
1704704265925981,1500,1499,1263,1499,1000,0,0,0
1704704265932109,1500,1499,1263,1499,1000,0,0,0
1704704265938076,1500,1499,1263,1499,1000,0,0,0
1704704265944201,1500,1499,1263,1499,1000,0,0,0
1704704265950728,1501,1499,1263,1499,1000,0,0,0
1704704265956567,1501,1499,1263,1499,1000,0,0,0
1704704265962653,1501,1499,1263,1499,1000,0,0,0
1704704265968654,1501,1500,1263,1499,1000,0,0,0
1704704265974848,1501,1500,1263,1499,1000,0,0,0
1704704265981008,1501,1500,1263,1499,1000,0,0,0
1704704265987139,1501,1500,1263,1499,1000,0,0,0
1704704265993280,1501,1500,1263,1499,1000,0,0,0
1704704265999719,1501,1500,1262,1499,1000,0,0,0
1704704266005457,1501,1500,1262,1499,1000,0,0,0
1704704266011628,1501,1500,1262,1499,1000,0,0,0
1704704266017681,1501,1500,1262,1499,1000,0,0,0
1704704266023958,1501,1500,1262,1499,1000,0,0,0
1704704266029869,1501,1499,1263,1499,1000,0,0,0
1704704266036091,1501,1499,1263,1499,1000,0,0,0
1704704266042249,1501,1499,1263,1499,1000,0,0,0
1704704266048452,1500,1499,1263,1499,1000,0,0,0
1704704266054503,1500,1499,1263,1499,1000,0,0,0
1704704266060757,1500,1499,1263,1499,1000,0,0,0
1704704266066823,1500,1500,1264,1499,1000,0,0,0
1704704266072922,1501,1500,1264,1499,1000,0,0,0
1704704266078934,1501,1500,1264,1499,1000,0,0,0
1704704266085120,1501,1500,1264,1499,1000,0,0,0
1704704266091181,1501,1500,1264,1499,1000,0,0,0
1704704266097243,1501,1500,1264,1499,1000,0,0,0
1704704266103499,1501,1500,1264,1499,1000,0,0,0
1704704266109738,1501,1500,1264,1499,1000,0,0,0
1704704266115720,1501,1500,1263,1499,1000,0,0,0
1704704266121701,1501,1500,1263,1499,1000,0,0,0
1704704266127880,1501,1500,1263,1499,1000,0,0,0
1704704266134107,1501,1500,1263,1499,1000,0,0,0
1704704266140170,1501,1500,1263,1499,1000,0,0,0
1704704266146344,1501,1500,1263,1499,1000,0,0,0
1704704266152690,1501,1500,1263,1499,1000,0,0,0
1704704266158640,1501,1500,1263,1499,1000,0,0,0
1704704266164658,1501,1500,1263,1499,1000,0,0,0
1704704266170737,1500,1500,1263,1499,1000,0,0,0
1704704266176916,1500,1500,1263,1499,1000,0,0,0
1704704266183009,1500,1500,1262,1499,1000,0,0,0
1704704266189135,1500,1500,1262,1499,1000,0,0,0
1704704266195325,1500,1500,1262,1499,1000,0,0,0
1704704266201430,1500,1500,1262,1499,1000,0,0,0
1704704266207626,1500,1500,1262,1499,1000,0,0,0
1704704266213681,1500,1500,1262,1499,1000,0,0,0
1704704266219873,1500,1500,1262,1499,1000,0,0,0
1704704266226012,1500,1500,1262,1499,1000,0,0,0
1704704266232234,1499,1500,1262,1499,1000,0,0,0
1704704266238179,1499,1500,1262,1499,1000,0,0,0
1704704266244302,1499,1500,1262,1499,1000,0,0,0
1704704266250393,1499,1500,1261,1499,1000,0,0,0
1704704266256632,1499,1500,1261,1499,1000,0,0,0
1704704266262741,1499,1500,1261,1499,1000,0,0,0
1704704266268862,1499,1500,1261,1499,1000,0,0,0
1704704266275156,1499,1500,1261,1499,1000,0,0,0
1704704266281162,1499,1500,1261,1499,1000,0,0,0
1704704266287277,1499,1500,1261,1499,1000,0,0,0
1704704266293517,1499,1500,1261,1499,1000,0,0,0
1704704266300692,1500,1500,1261,1499,1000,0,0,0
1704704266305706,1500,1500,1261,1499,1000,0,0,0
1704704266311874,1500,1500,1261,1499,1000,0,0,0
1704704266318042,1500,1499,1261,1499,1000,0,0,0
1704704266324235,1500,1499,1261,1499,1000,0,0,0
1704704266330264,1500,1500,1261,1499,1000,0,0,0
1704704266336594,1500,1500,1261,1499,1000,0,0,0
1704704266342768,1500,1500,1260,1499,1000,0,0,0
1704704266348914,1500,1500,1260,1499,1000,0,0,0
1704704266355016,1500,1500,1260,1499,1000,0,0,0
1704704266361083,1500,1500,1260,1499,1000,0,0,0
1704704266367217,1500,1500,1261,1499,1000,0,0,0
1704704266373407,1500,1500,1261,1499,1000,0,0,0
1704704266379386,1500,1500,1261,1499,1000,0,0,0
1704704266385578,1500,1500,1261,1499,1000,0,0,0
1704704266391887,1500,1500,1261,1499,1000,0,0,0
1704704266397753,1500,1500,1261,1499,1000,0,0,0
1704704266403823,1500,1500,1261,1499,1000,0,0,0
1704704266410784,1501,1500,1261,1499,1000,0,0,0
1704704266416633,1500,1499,1261,1499,1000,0,0,0
1704704266422203,1500,1499,1261,1499,1000,0,0,0
1704704266428387,1500,1499,1261,1499,1000,0,0,0
1704704266434560,1500,1499,1261,1499,1000,0,0,0
1704704266441506,1500,1499,1261,1499,1000,0,0,0
1704704266446700,1500,1499,1262,1499,1000,0,0,0
1704704266452906,1500,1499,1262,1499,1000,0,0,0
1704704266459079,1499,1499,1262,1499,1000,0,0,0
1704704266465219,1499,1499,1262,1499,1000,0,0,0
1704704266471281,1499,1499,1262,1499,1000,0,0,0
1704704266477267,1499,1499,1262,1499,1000,0,0,0
1704704266483405,1499,1500,1262,1499,1000,0,0,0
1704704266489464,1499,1500,1262,1499,1000,0,0,0
1704704266495572,1499,1500,1262,1499,1000,0,0,0
1704704266501732,1499,1500,1262,1499,1000,0,0,0
1704704266507762,1499,1500,1262,1499,1000,0,0,0
1704704266513809,1499,1500,1262,1499,1000,0,0,0
1704704266520002,1499,1500,1262,1499,1000,0,0,0
1704704266526018,1499,1500,1262,1499,1000,0,0,0
1704704266532108,1499,1500,1262,1499,1000,0,0,0
1704704266538247,1499,1500,1262,1499,1000,0,0,0
1704704266544587,1499,1500,1262,1499,1000,0,0,0
1704704266550607,1499,1500,1262,1499,1000,0,0,0
1704704266556720,1499,1500,1262,1499,1000,0,0,0
1704704266562772,1499,1500,1262,1499,1000,0,0,0
1704704266568953,1499,1500,1262,1499,1000,0,0,0
1704704266575206,1499,1500,1262,1499,1000,0,0,0
1704704266581178,1499,1500,1262,1499,1000,0,0,0
1704704266587298,1499,1500,1262,1499,1000,0,0,0
1704704266593531,1499,1500,1262,1499,1000,0,0,0
1704704266599509,1499,1500,1261,1499,1000,0,0,0
1704704266605585,1499,1500,1261,1499,1000,0,0,0
1704704266611672,1499,1500,1261,1499,1000,0,0,0
1704704266617772,1500,1500,1261,1499,1000,0,0,0
1704704266623936,1500,1500,1261,1499,1000,0,0,0
1704704266629874,1500,1500,1261,1499,1000,0,0,0
1704704266636075,1500,1500,1261,1499,1000,0,0,0
1704704266642184,1500,1500,1261,1499,1000,0,0,0
1704704266648841,1500,1500,1261,1499,1000,0,0,0
1704704266654383,1500,1500,1261,1499,1000,0,0,0
1704704266660593,1500,1500,1261,1499,1000,0,0,0
1704704266666719,1500,1499,1261,1499,1000,0,0,0
1704704266672902,1500,1499,1261,1499,1000,0,0,0
1704704266678916,1499,1499,1261,1499,1000,0,0,0
1704704266685124,1499,1499,1261,1499,1000,0,0,0
1704704266691312,1499,1500,1261,1499,1000,0,0,0
1704704266697192,1499,1500,1261,1499,1000,0,0,0
1704704266703193,1499,1500,1261,1499,1000,0,0,0
1704704266709465,1499,1500,1261,1499,1000,0,0,0
1704704266715668,1500,1500,1261,1499,1000,0,0,0
1704704266721615,1500,1500,1261,1499,1000,0,0,0
1704704266727808,1500,1500,1261,1499,1000,0,0,0
1704704266733798,1500,1500,1261,1499,1000,0,0,0
1704704266739967,1500,1500,1261,1499,1000,0,0,0
1704704266745974,1500,1500,1261,1499,1000,0,0,0
1704704266752142,1500,1500,1261,1499,1000,0,0,0
1704704266758403,1500,1500,1261,1499,1000,0,0,0
1704704266764414,1500,1500,1261,1499,1000,0,0,0
1704704266770595,1500,1500,1261,1499,1000,0,0,0
1704704266776603,1500,1500,1261,1499,1000,0,0,0
1704704266782730,1500,1500,1261,1499,1000,0,0,0
1704704266788590,1500,1500,1261,1499,1000,0,0,0
1704704266794675,1500,1500,1261,1499,1000,0,0,0
1704704266801011,1500,1500,1261,1499,1000,0,0,0
1704704266807161,1500,1500,1261,1499,1000,0,0,0
1704704266813208,1500,1499,1262,1499,1000,0,0,0
1704704266819428,1500,1499,1262,1499,1000,0,0,0
1704704266825485,1500,1499,1262,1499,1000,0,0,0
1704704266831559,1500,1499,1262,1499,1000,0,0,0
1704704266837630,1500,1499,1262,1499,1000,0,0,0
1704704266843785,1500,1499,1262,1499,1000,0,0,0
1704704266850057,1500,1499,1262,1499,1000,0,0,0
1704704266855908,1500,1499,1262,1499,1000,0,0,0
1704704266862076,1500,1499,1262,1499,1000,0,0,0
1704704266868154,1500,1499,1262,1499,1000,0,0,0
1704704266874365,1501,1499,1262,1499,1000,0,0,0
1704704266880274,1500,1499,1262,1499,1000,0,0,0
1704704266886413,1500,1499,1262,1499,1000,0,0,0
1704704266892845,1500,1499,1262,1499,1000,0,0,0
1704704266898602,1500,1500,1263,1499,1000,0,0,0
1704704266904648,1500,1500,1263,1499,1000,0,0,0
1704704266910826,1500,1500,1263,1499,1000,0,0,0
1704704266916814,1500,1500,1263,1499,1000,0,0,0
1704704266922852,1500,1500,1263,1499,1000,0,0,0
1704704266929106,1500,1500,1263,1499,1000,0,0,0
1704704266935381,1500,1500,1263,1499,1000,0,0,0
1704704266941552,1500,1500,1263,1499,1000,0,0,0
1704704266947360,1500,1500,1263,1499,1000,0,0,0
1704704266953476,1500,1500,1263,1499,1000,0,0,0
1704704266959477,1500,1500,1263,1499,1000,0,0,0
1704704266965809,1500,1500,1263,1499,1000,0,0,0
1704704266971705,1500,1500,1263,1499,1000,0,0,0
1704704266977796,1500,1499,1263,1499,1000,0,0,0
1704704266983953,1500,1499,1263,1499,1000,0,0,0
1704704266990014,1500,1499,1263,1499,1000,0,0,0
1704704266996159,1500,1499,1262,1499,1000,0,0,0
1704704267002264,1500,1499,1262,1499,1000,0,0,0
1704704267008679,1500,1499,1262,1499,1000,0,0,0
1704704267014422,1500,1500,1262,1499,1000,0,0,0
1704704267020612,1500,1500,1262,1499,1000,0,0,0
1704704267026643,1500,1500,1262,1499,1000,0,0,0
1704704267033238,1500,1500,1262,1499,1000,0,0,0
1704704267039038,1500,1500,1262,1499,1000,0,0,0
1704704267045137,1500,1500,1263,1499,1000,0,0,0
1704704267051091,1500,1500,1263,1499,1000,0,0,0
1704704267057247,1500,1500,1263,1499,1000,0,0,0
1704704267063129,1500,1500,1263,1499,1000,0,0,0
1704704267069240,1500,1500,1263,1499,1000,0,0,0
1704704267075285,1500,1500,1263,1499,1000,0,0,0
1704704267081230,1500,1500,1263,1499,1000,0,0,0
1704704267087291,1501,1500,1263,1499,1000,0,0,0
1704704267093308,1500,1500,1263,1499,1000,0,0,0
1704704267099355,1500,1500,1263,1499,1000,0,0,0
1704704267105508,1500,1500,1263,1499,1000,0,0,0
1704704267115636,1500,1497,1263,1499,1000,0,0,0
1704704267121900,1500,1497,1263,1499,1000,0,0,0
1704704267128340,1500,1497,1263,1499,1000,0,0,0
1704704267134627,1499,1497,1263,1499,1000,0,0,0
1704704267140964,1499,1497,1263,1499,1000,0,0,0
1704704267147218,1499,1497,1263,1499,1000,0,0,0
1704704267153526,1499,1497,1263,1499,1000,0,0,0
1704704267159871,1499,1497,1263,1499,1000,0,0,0
1704704267166168,1499,1498,1262,1499,1000,0,0,0
1704704267172857,1499,1498,1262,1499,1000,0,0,0
1704704267178834,1499,1498,1262,1499,1000,0,0,0
1704704267185123,1499,1499,1262,1499,1000,0,0,0
1704704267191500,1499,1499,1261,1499,1000,0,0,0
1704704267197739,1500,1499,1261,1499,1000,0,0,0
1704704267204094,1500,1499,1261,1499,1000,0,0,0
1704704267210451,1500,1499,1261,1499,1000,0,0,0
1704704267216724,1500,1498,1260,1499,1000,0,0,0
1704704267222982,1500,1498,1260,1499,1000,0,0,0
1704704267229243,1500,1498,1260,1499,1000,0,0,0
1704704267235533,1500,1498,1261,1499,1000,0,0,0
1704704267241932,1500,1497,1261,1499,1000,0,0,0
1704704267248188,1500,1497,1261,1499,1000,0,0,0
1704704267254555,1500,1497,1261,1499,1000,0,0,0
1704704267260817,1500,1497,1261,1499,1000,0,0,0
1704704267267227,1500,1496,1262,1499,1000,0,0,0
1704704267273309,1500,1496,1262,1499,1000,0,0,0
1704704267279635,1500,1496,1262,1499,1000,0,0,0
1704704267286076,1499,1496,1262,1499,1000,0,0,0
1704704267292606,1499,1496,1263,1499,1000,0,0,0
1704704267298672,1499,1496,1263,1499,1000,0,0,0
1704704267304912,1499,1497,1263,1499,1000,0,0,0
1704704267311246,1499,1497,1263,1499,1000,0,0,0
1704704267317484,1499,1497,1264,1499,1000,0,0,0
1704704267323834,1499,1497,1264,1499,1000,0,0,0
1704704267330072,1499,1497,1264,1499,1000,0,0,0
1704704267336448,1499,1497,1264,1499,1000,0,0,0
1704704267342683,1499,1497,1264,1499,1000,0,0,0
1704704267348976,1499,1497,1264,1499,1000,0,0,0
1704704267355289,1499,1497,1264,1499,1000,0,0,0
