timestamp,roll,pitch,yaw,norm_thrust
1704704259762204,0.10162978,0.15304312,0.00900756,6.33744717
1704704259822212,-0.10695787,-0.27148920,0.00625964,10.63534546
1704704259826282,-0.11154027,-0.27933896,0.00613149,10.45750999
1704704259832226,-0.10411286,-0.27636576,0.00593793,10.20225048
1704704259838208,-0.10026094,-0.27033645,0.00524696,9.94072056
1704704259848378,-0.09054548,-0.26326782,0.00421646,9.47862148
1704704259854188,-0.09242304,-0.24638930,0.00130828,9.21819687
1704704259860200,-0.09757195,-0.21325764,-0.00006930,8.95260620
1704704259866492,-0.09386896,-0.15495202,0.00119211,8.66915321
1704704259872215,-0.07691310,-0.07733163,0.00325701,8.42399502
1704704259878250,-0.05223520,0.01096392,0.00616583,8.19390488
1704704259884262,-0.02714243,0.09540446,0.00850764,7.99831629
1704704259892264,0.01443383,0.19420427,0.00932182,7.80237818
1704704259898238,0.04896932,0.25779179,0.00940113,7.68128729
1704704259904184,0.08281080,0.30858091,0.00939648,7.60543776
1704704259910410,0.11520706,0.33972961,0.00937361,7.56154060
1704704259916263,0.13978155,0.34471527,0.00872092,7.54075241
1704704259922214,0.15595129,0.32474157,0.00759786,7.55521107
1704704259928321,0.16241764,0.28765297,0.00640818,7.58830786
1704704259934281,0.15836541,0.22977266,0.00497926,7.64873219
1704704259940248,0.14230002,0.15491791,0.00350337,7.71305943
1704704259946331,0.11244223,0.07208703,0.00263081,7.75528812
1704704259952201,0.07167997,-0.01360269,0.00235373,7.78611088
1704704259962194,-0.00904998,-0.15778919,0.00230533,7.81452227
1704704259968286,-0.05628077,-0.23251420,0.00329576,7.80712271
1704704259974268,-0.10448511,-0.29488382,0.00429449,7.79164839
1704704259980213,-0.15409556,-0.34810516,0.00485703,7.77441549
1704704259986370,-0.19537474,-0.38206306,0.00599284,7.75591946
1704704259992213,-0.21959049,-0.37887916,0.00672449,7.75067663
1704704259998244,-0.22740467,-0.34262368,0.00698294,7.74782991
1704704260004198,-0.21448924,-0.28412822,0.00724853,7.74591017
1704704260012226,-0.16681638,-0.16666183,0.00762445,7.77313137
1704704260018217,-0.11248897,-0.07042947,0.00819969,7.77772570
1704704260024298,-0.04796836,0.04122949,0.00820322,7.78423023
1704704260030239,0.02085975,0.14566910,0.00800139,7.76960230
1704704260036230,0.09601769,0.24692245,0.00771919,7.75824261
1704704260042246,0.17379428,0.33443046,0.00770709,7.74671173
1704704260048247,0.24862711,0.39494300,0.00807094,7.72839832
1704704260054229,0.31545499,0.42796257,0.00818707,7.73152351
1704704260060263,0.36965245,0.42830911,0.00793551,7.74833107
1704704260066301,0.40384471,0.39273053,0.00718610,7.77010822
1704704260076267,0.40811884,0.28337494,0.00510399,7.84865427
1704704260082206,0.37520468,0.20144294,0.00467486,7.89418459
1704704260088201,0.32062382,0.10474740,0.00337740,7.92151308
1704704260094250,0.24386194,0.00153279,0.00246331,7.96515799
1704704260100306,0.15147978,-0.09784774,0.00279261,8.00834370
1704704260106395,0.05325255,-0.18509404,0.00410807,8.02586555
1704704260112218,-0.04214025,-0.24750088,0.00547441,8.03415012
1704704260118280,-0.13929683,-0.29400951,0.00696515,8.02427387
1704704260124245,-0.22921704,-0.32500729,0.00813999,8.00072575
1704704260130231,-0.31043124,-0.32956272,0.00883945,7.99483061
1704704260138224,-0.38257754,-0.30227196,0.00913298,7.98063898
1704704260144190,-0.40875775,-0.25090963,0.00899884,7.98545456
1704704260150289,-0.40788931,-0.17929083,0.00867351,8.00010586
1704704260156246,-0.38135758,-0.10157516,0.00850277,8.00561047
1704704260162228,-0.32598028,-0.00737907,0.00822782,8.03001308
1704704260168246,-0.24878393,0.08628808,0.00791554,8.04756069
1704704260174275,-0.14995128,0.17990686,0.00773606,8.08079338
1704704260180246,-0.04250901,0.25139922,0.00812254,8.09966946
1704704260186340,0.07031474,0.30564862,0.00863706,8.08699608
1704704260196217,0.25870913,0.36604530,0.00852478,8.10342979
1704704260202200,0.35615647,0.36982492,0.01048369,8.12165260
1704704260208247,0.43193454,0.35046843,0.01124252,8.12504292
1704704260214232,0.48794308,0.30922392,0.01101141,8.15216637
1704704260220228,0.51742065,0.25178006,0.01044683,8.18542480
1704704260226484,0.51659775,0.17789480,0.00968383,8.20764732
1704704260232231,0.48764056,0.09511292,0.00850687,8.25028992
1704704260238247,0.43078923,0.00586876,0.00679742,8.30043030
1704704260244273,0.35130188,-0.07950804,0.00559270,8.34017944
1704704260252212,0.21532485,-0.18122160,0.00493158,8.41151524
1704704260258248,0.10936773,-0.23732683,0.00532762,8.44338608
1704704260264196,0.00321797,-0.26794443,0.00590559,8.46898556
1704704260270399,-0.10655099,-0.27726540,0.00653378,8.47243500
1704704260276255,-0.20548701,-0.27114850,0.00676988,8.45959187
1704704260282239,-0.29297391,-0.25048515,0.00676531,8.46391296
1704704260288210,-0.35201514,-0.21959145,0.00691367,8.45197296
1704704260294258,-0.39525521,-0.16865334,0.00619567,8.45106316
1704704260300303,-0.41968599,-0.09998043,0.00502483,8.46327877
1704704260306249,-0.41718280,-0.02998234,0.00382863,8.47690201
1704704260312226,-0.38542449,0.04147857,0.00296123,8.50805950
1704704260322194,-0.28292513,0.15453300,0.00121803,8.56678581
1704704260328242,-0.20078605,0.20767668,0.00227994,8.60038853
1704704260334254,-0.10491404,0.24044317,0.00357327,8.63629532
1704704260340286,-0.00077437,0.25768310,0.00456613,8.66209602
1704704260346227,0.09915784,0.26253343,0.00500683,8.67965412
1704704260352168,0.19227497,0.25303367,0.00585379,8.71848774
1704704260356997,0.24580668,0.22973961,0.00659573,8.73570919
1704704260364378,0.30468798,0.17986006,0.00619642,8.75071716
1704704260370262,0.33781356,0.12696977,0.00555229,8.76574707
1704704260378228,0.35412237,0.04461721,0.00322858,8.79401493
1704704260382243,0.34909859,0.00169932,0.00259820,8.81737041
1704704260390235,0.30773759,-0.07586654,0.00115090,8.86453152
1704704260394247,0.27292174,-0.11122644,0.00156424,8.89499474
1704704260402291,0.18110606,-0.17233118,0.00108237,8.93380737
1704704260408276,0.10517947,-0.20240703,0.00181753,8.96065998
1704704260414249,0.02735485,-0.21131834,0.00284561,8.98980331
1704704260420264,-0.05394866,-0.20437032,0.00351488,9.00509548
1704704260426294,-0.13650897,-0.18993412,0.00357572,9.00525951
1704704260432229,-0.21383342,-0.16317691,0.00327840,9.02523041
1704704260438289,-0.27227268,-0.12977785,0.00337394,9.05314445
1704704260444236,-0.30363965,-0.09249811,0.00375192,9.06143761
1704704260454209,-0.31893840,-0.00174735,0.00327932,9.09350395
1704704260460264,-0.30773991,0.05790780,0.00310636,9.13150120
1704704260466266,-0.28030768,0.10841637,0.00241074,9.16977787
1704704260472210,-0.23507170,0.15257007,0.00237098,9.23343277
1704704260478237,-0.17759040,0.17957368,0.00324722,9.29499245
1704704260484252,-0.10940547,0.18669061,0.00415075,9.32631779
1704704260490542,-0.02585749,0.18435892,0.00400885,9.36455154
1704704260496243,0.05200785,0.17391443,0.00395831,9.40263557
1704704260502225,0.12513939,0.15449733,0.00406932,9.42868042
1704704260508290,0.18924527,0.12752169,0.00422835,9.47150326
1704704260514243,0.23419347,0.09481055,0.00434787,9.51399231
1704704260522204,0.26620406,0.04498084,0.00405126,9.55657578
1704704260528219,0.27059251,0.00549347,0.00387476,9.57860470
1704704260534251,0.26062971,-0.03435845,0.00302116,9.61219215
1704704260540275,0.23593839,-0.07232659,0.00241058,9.64606571
1704704260546261,0.19896010,-0.10309481,0.00199248,9.66770458
1704704260552238,0.15303311,-0.12455276,0.00171941,9.70241642
1704704260556264,0.11670704,-0.13443987,0.00157060,9.72168350
1704704260564243,0.03925235,-0.13694972,0.00162226,9.75787830
1704704260570260,-0.01582768,-0.12394588,0.00175489,9.78639793
1704704260580257,-0.09320205,-0.08245353,0.00055586,9.81654263
1704704260586257,-0.12885970,-0.05163022,0.00004295,9.81997681
1704704260592221,-0.15590981,-0.01305982,-0.00085190,9.83523846
1704704260598263,-0.16993587,0.02497292,-0.00159191,9.85067940
1704704260604353,-0.16637978,0.05412806,-0.00193826,9.85279751
1704704260610206,-0.15434526,0.07967667,-0.00163866,9.87020874
1704704260616403,-0.13051844,0.09988345,-0.00112654,9.88700104
1704704260622206,-0.09754862,0.11017605,-0.00052441,9.88995552
1704704260628268,-0.05730793,0.11798622,0.00029643,9.90429020
1704704260634254,-0.01653914,0.12012839,0.00091661,9.91582775
1704704260642284,0.03556813,0.11160436,0.00128932,9.91426086
1704704260648212,0.06837298,0.09996399,0.00141777,9.90117073
1704704260654356,0.09561274,0.08364392,0.00114748,9.89566994
1704704260660273,0.11737319,0.06190898,0.00058768,9.89074135
1704704260666282,0.13363726,0.03835205,-0.00003935,9.87636662
1704704260672240,0.14092155,0.01422675,-0.00052341,9.87142944
1704704260678265,0.13889909,-0.00533061,-0.00083485,9.86472607
1704704260684255,0.12922950,-0.02244498,-0.00102523,9.84999084
1704704260690275,0.10941559,-0.03496484,-0.00052220,9.84232521
1704704260696266,0.08527771,-0.04259732,0.00008444,9.83188343
1704704260706258,0.04242261,-0.04897596,0.00108469,9.79967690
1704704260712220,0.01616455,-0.04453364,0.00159671,9.78556156
1704704260718286,-0.00659246,-0.03565411,0.00151225,9.77032948
1704704260724356,-0.02750948,-0.02661516,0.00144841,9.74749756
1704704260730210,-0.04348642,-0.01421230,0.00147250,9.73986053
1704704260736279,-0.05480995,-0.00181878,0.00095885,9.73482227
1704704260742245,-0.06302825,0.00818894,0.00031477,9.72586441
1704704260748237,-0.06175178,0.01840814,-0.00040794,9.73408794
1704704260756258,-0.05265285,0.02459071,-0.00055164,9.74870205
1704704260762262,-0.03779442,0.02250773,-0.00059192,9.76867580
1704704260768290,-0.01827381,0.02330159,-0.00034297,9.77348232
1704704260774412,0.00377739,0.02117638,0.00033883,9.79213047
1704704260780254,0.02589805,0.02233390,0.00076303,9.81153011
1704704260786280,0.04971772,0.02019174,0.00114496,9.81884003
1704704260792274,0.06987669,0.01987883,0.00140615,9.84059906
1704704260798263,0.08111143,0.01749142,0.00141707,9.86843872
1704704260804232,0.08865698,0.01370705,0.00131576,9.88257122
1704704260810316,0.08834364,0.01267599,0.00148082,9.91124058
1704704260820247,0.07843336,0.01189860,0.00177761,9.95019817
1704704260826255,0.06960686,0.00624782,0.00176122,9.95990181
1704704260832224,0.05739145,-0.00019451,0.00197133,9.98494720
1704704260838250,0.04255487,-0.00393341,0.00242482,10.00863934
1704704260844421,0.02702738,-0.00428316,0.00252950,10.01377106
1704704260850323,0.01295761,-0.00359649,0.00242212,10.03347969
1704704260856280,-0.00011164,-0.00588825,0.00227745,10.05583096
1704704260862229,-0.01042890,-0.00648117,0.00230915,10.05887604
1704704260868262,-0.01582205,-0.00470720,0.00250942,10.07556152
1704704260876264,-0.01771498,0.00087017,0.00275331,10.08227825
1704704260882233,-0.01282859,0.00718177,0.00310059,10.09367657
1704704260888385,-0.00885932,0.01161519,0.00352414,10.08757496
1704704260894272,0.00091902,0.01814627,0.00398910,10.09473896
1704704260900280,0.01188104,0.02194335,0.00438091,10.09704971
1704704260906255,0.02084192,0.02348727,0.00496439,10.08382511
1704704260912241,0.03037503,0.02336788,0.00543736,10.08882999
1704704260918273,0.03704239,0.01663458,0.00585547,10.09575939
1704704260924350,0.04024006,0.00867540,0.00616966,10.08458900
1704704260930302,0.04550014,-0.00422384,0.00658641,10.08896542
1704704260940274,0.05640151,-0.02207292,0.00665717,10.08666992
1704704260946236,0.05425469,-0.03277921,0.00682594,10.07635307
1704704260952217,0.05084443,-0.03741940,0.00701988,10.08031464
1704704260958259,0.04473887,-0.03346864,0.00698535,10.08461571
1704704260964243,0.03729061,-0.03301728,0.00667064,10.08053684
1704704260970238,0.02613042,-0.02762157,0.00628195,10.09432507
1704704260976299,0.01528174,-0.02396774,0.00571554,10.10845280
1704704260982247,0.00394475,-0.02318317,0.00525648,10.10927296
1704704260990277,-0.00631948,-0.01722791,0.00391915,10.13577747
1704704260996246,-0.01071246,-0.01745542,0.00329701,10.14013767
1704704261002163,-0.01287313,-0.02158644,0.00293418,10.15964031
1704704261008478,-0.01492240,-0.03166410,0.00286427,10.17636299
1704704261014275,-0.01513785,-0.03800264,0.00281876,10.17601967
1704704261020274,-0.01119790,-0.04549882,0.00286957,10.18696404
1704704261026276,-0.00588543,-0.04858591,0.00314469,10.18269348
1704704261032247,0.00157912,-0.05617826,0.00367762,10.19439030
1704704261038271,0.00640704,-0.06788518,0.00409472,10.20539665
1704704261044357,0.00763497,-0.07577324,0.00444689,10.19992161
1704704261050332,0.01040456,-0.08524501,0.00540317,10.20885086
1704704261060287,0.01366539,-0.08903385,0.00643664,10.21277046
1704704261066292,0.01335400,-0.08720613,0.00683400,10.20300961
1704704261072221,0.01208410,-0.08770722,0.00713123,10.20778370
1704704261078319,0.01218772,-0.08135126,0.00721779,10.20716190
1704704261084309,0.01202864,-0.07080610,0.00707766,10.19369984
1704704261090334,0.01568158,-0.05444266,0.00697688,10.19548607
1704704261096253,0.01325044,-0.03815076,0.00707296,10.20332432
1704704261102306,0.01194483,-0.02352355,0.00695377,10.19742489
1704704261108353,0.01103338,-0.01498071,0.00661810,10.20818233
1704704261114271,0.01103122,-0.00598875,0.00621379,10.21762943
1704704261120283,0.01312543,0.00480650,0.00575270,10.21133137
1704704261128321,0.01612155,0.01411639,0.00523806,10.21328449
1704704261134342,0.01865607,0.01944059,0.00493188,10.22200298
1704704261140197,0.01794764,0.02026518,0.00475276,10.23359776
1704704261146569,0.01493905,0.01579218,0.00465668,10.23432541
1704704261152237,0.01048272,0.00532399,0.00476140,10.25763130
1704704261158308,0.00267303,-0.00702996,0.00499172,10.28012562
1704704261164253,-0.00585414,-0.01338242,0.00509503,10.28467655
1704704261170282,-0.01321900,-0.01673813,0.00535432,10.30357742
1704704261176280,-0.02001499,-0.01549794,0.00562576,10.31952667
1704704261186316,-0.02514544,-0.00367263,0.00582443,10.32397652
1704704261192257,-0.02900267,0.01321111,0.00578071,10.34264755
1704704261198297,-0.03162894,0.02405486,0.00531177,10.36125469
1704704261204232,-0.02847246,0.03244718,0.00489229,10.36131859
1704704261210257,-0.02306922,0.04411398,0.00471104,10.37386703
1704704261216274,-0.01679854,0.05839163,0.00469890,10.38674831
1704704261222213,-0.01127312,0.06388240,0.00501291,10.38462543
1704704261228462,-0.00807654,0.06684546,0.00514422,10.39845562
1704704261234311,-0.00225451,0.06894960,0.00493006,10.40861511
1704704261238279,0.00252515,0.07006978,0.00472977,10.40872765
1704704261246252,0.01152019,0.07486943,0.00420248,10.40882683
1704704261252369,0.01421932,0.08264810,0.00393569,10.41638947
1704704261260263,0.01965794,0.08333458,0.00368218,10.41392422
1704704261266230,0.02466370,0.08173609,0.00347638,10.40361691
1704704261272304,0.03070688,0.08459508,0.00327630,10.40802574
1704704261278288,0.03508161,0.08838170,0.00280686,10.41476440
1704704261284377,0.04118635,0.08393327,0.00235633,10.40807343
1704704261290348,0.04750743,0.08403377,0.00178290,10.41595936
1704704261296273,0.05486383,0.08666560,0.00115711,10.42354107
1704704261302267,0.06241878,0.08231050,0.00075207,10.42032719
1704704261308312,0.06777588,0.07583946,0.00028914,10.43556118
1704704261314341,0.07246525,0.06808829,-0.00008792,10.44715309
1704704261324415,0.07138696,0.05999634,-0.00058670,10.44412136
1704704261330249,0.06750608,0.05754262,-0.00076143,10.45580387
1704704261336260,0.06265213,0.05082874,-0.00088780,10.46617889
1704704261342244,0.05762701,0.04235905,-0.00101873,10.45895576
1704704261348300,0.05302826,0.03864731,-0.00103238,10.46341324
1704704261354257,0.04917989,0.03287864,-0.00134367,10.46663189
1704704261360236,0.04721573,0.02822555,-0.00163353,10.45642185
1704704261366319,0.04612586,0.02801379,-0.00192531,10.46203899
1704704261372243,0.04555779,0.02448508,-0.00208930,10.47422504
1704704261378311,0.04581083,0.02353820,-0.00230809,10.47013378
1704704261386386,0.04644977,0.03065224,-0.00289689,10.47725391
1704704261392277,0.04850252,0.03652565,-0.00316395,10.49365807
1704704261398181,0.05087570,0.04035278,-0.00353373,10.50995922
1704704261402280,0.04986027,0.04267569,-0.00359190,10.50386047
1704704261410507,0.05602529,0.05050748,-0.00374290,10.53608894
1704704261416318,0.06069128,0.06027516,-0.00385152,10.55680656
1704704261422246,0.06330775,0.06522731,-0.00410907,10.56570816
1704704261428284,0.06475446,0.06740779,-0.00414478,10.59549904
1704704261434280,0.06520808,0.06710309,-0.00433861,10.62200165
1704704261440296,0.06423645,0.06756011,-0.00478389,10.63144779
1704704261446281,0.06486071,0.06889028,-0.00485841,10.65706825
1704704261452340,0.06585871,0.06214888,-0.00487046,10.68422794
1704704261462218,0.06872444,0.05502954,-0.00471851,10.70371342
1704704261468270,0.07036249,0.05543521,-0.00473386,10.72665405
1704704261474282,0.06986957,0.04926220,-0.00484567,10.74878693
1704704261480233,0.06765334,0.04130232,-0.00488357,10.75309086
1704704261486469,0.06654127,0.03376760,-0.00492159,10.76823235
1704704261492272,0.06678752,0.02144833,-0.00484440,10.78109169
1704704261498284,0.06617098,0.01121804,-0.00462299,10.77821445
1704704261504255,0.06676583,-0.00030919,-0.00456062,10.78797150
1704704261512246,0.06472533,-0.01034647,-0.00456269,10.78217411
1704704261518267,0.06290268,-0.01851440,-0.00463370,10.78305626
1704704261524326,0.05947378,-0.02608030,-0.00469940,10.76712608
1704704261530286,0.05891361,-0.02743080,-0.00468129,10.75688076
1704704261536307,0.05839564,-0.03381202,-0.00473020,10.74471188
1704704261542270,0.05619131,-0.03808977,-0.00479430,10.71922398
1704704261548304,0.05357154,-0.03982925,-0.00478022,10.70358276
1704704261554303,0.05308173,-0.03867697,-0.00478221,10.68406105
1704704261560299,0.05145682,-0.03583850,-0.00496096,10.65970135
1704704261566313,0.05238708,-0.03066783,-0.00502119,10.64259815
1704704261576266,0.05581761,-0.01441327,-0.00493932,10.61553001
1704704261582252,0.05657751,-0.00518173,-0.00479281,10.59329224
1704704261588257,0.05818884,0.01178242,-0.00465427,10.57492447
1704704261594272,0.05676082,0.02275512,-0.00447243,10.56145859
1704704261600283,0.05467510,0.03140918,-0.00445432,10.54094601
1704704261606343,0.05187745,0.04184913,-0.00425484,10.52889538
1704704261612262,0.04627453,0.04317605,-0.00376951,10.52358913
1704704261618294,0.03817425,0.04464225,-0.00349660,10.50918102
1704704261624311,0.03102342,0.04559461,-0.00339057,10.50638008
1704704261632260,0.01818521,0.03428025,-0.00320691,10.50321102
1704704261638269,0.01201024,0.02937243,-0.00296299,10.50583839
1704704261644448,0.00467953,0.02265650,-0.00261578,10.50519466
1704704261650367,-0.00132960,0.01598577,-0.00247010,10.51934719
1704704261656292,-0.00443642,0.00770684,-0.00228817,10.53613567
1704704261662272,-0.01001398,-0.00191217,-0.00202211,10.54565430
1704704261668289,-0.01351761,-0.00650943,-0.00175805,10.56326199
1704704261674301,-0.01426232,-0.01112244,-0.00161368,10.58486938
1704704261680295,-0.01476727,-0.01940402,-0.00140054,10.59686947
1704704261686314,-0.01273203,-0.02693428,-0.00123720,10.61910439
1704704261696296,-0.00987162,-0.02041540,-0.00113452,10.65180016
1704704261702247,-0.00567497,-0.01955715,-0.00102662,10.66202831
1704704261708329,-0.00285203,-0.01625141,-0.00086554,10.68130589
1704704261714353,-0.00167549,-0.01476985,-0.00080350,10.70064545
1704704261720276,0.00163305,-0.01072197,-0.00097150,10.70322227
1704704261726207,0.00465497,-0.00742243,-0.00098779,10.70380116
1704704261732329,0.00689600,-0.01013891,-0.00096694,10.72723961
1704704261738271,0.00819472,-0.01030478,-0.00080161,10.72329903
1704704261744287,0.00697959,-0.01059760,-0.00076298,10.72711563
1704704261750338,0.00338375,-0.01713921,-0.00085807,10.72947025
1704704261758323,0.00074950,-0.01776413,-0.00092611,10.71722412
1704704261764337,-0.00283008,-0.02071596,-0.00077597,10.70512581
1704704261770317,-0.00672304,-0.02471642,-0.00064020,10.69828701
1704704261776305,-0.00863070,-0.01756195,-0.00056894,10.68549252
1704704261782263,-0.00991805,-0.01703369,-0.00054037,10.66373920
1704704261788259,-0.01295333,-0.01666745,-0.00037916,10.64566517
1704704261794260,-0.01874245,-0.01542448,-0.00047821,10.62873077
1704704261800306,-0.02007719,-0.01301299,-0.00061103,10.60153103
1704704261806298,-0.01802717,-0.01180395,-0.00057719,10.58344269
1704704261812260,-0.01789510,-0.00897549,-0.00033532,10.56487942
1704704261818294,-0.01965179,-0.00676148,-0.00025818,10.53891945
1704704261828271,-0.01679540,-0.00480662,-0.00032671,10.50967312
1704704261834276,-0.00935521,-0.00340999,-0.00029420,10.49350739
1704704261840281,-0.00201138,-0.00305655,-0.00013075,10.47463894
1704704261846276,0.00713869,-0.01030134,0.00024437,10.46573830
1704704261852291,0.01560582,-0.01490976,0.00035319,10.45374966
1704704261858570,0.02126170,-0.01781874,0.00043856,10.44204235
1704704261864325,0.02639184,-0.02026702,0.00060042,10.43454266
1704704261870297,0.03485813,-0.01824471,0.00091042,10.44300461
1704704261876294,0.03798326,-0.01642335,0.00126699,10.44290447
1704704261884411,0.03731529,-0.00865089,0.00171013,10.44934750
1704704261890299,0.03777849,-0.00390384,0.00199698,10.45888138
1704704261897163,0.03914162,0.00332573,0.00238066,10.47142124
1704704261902339,0.03721055,0.00557157,0.00263928,10.47780704
1704704261908315,0.03607158,0.01425615,0.00290741,10.49054241
1704704261914325,0.03584176,0.02019825,0.00309212,10.50557041
1704704261920308,0.03427421,0.01732715,0.00335645,10.51311684
1704704261926301,0.03496235,0.01218087,0.00384655,10.52978516
1704704261932276,0.03538252,0.01503454,0.00416306,10.54224491
1704704261938318,0.03134919,0.01150199,0.00438235,10.54838085
1704704261944295,0.02754607,0.00067757,0.00452829,10.56574154
1704704261954264,0.02644612,-0.00370814,0.00462111,10.58256721
1704704261960295,0.02706107,-0.00352933,0.00481625,10.58518219
1704704261966297,0.03052140,-0.00316082,0.00502531,10.59589577
1704704261972286,0.03528376,-0.00151504,0.00538504,10.60487843
1704704261978256,0.03646597,-0.00370894,0.00567687,10.60287380
1704704261984190,0.03622715,-0.00273474,0.00573091,10.60614395
1704704261990464,0.03527808,-0.00198750,0.00582590,10.60576153
1704704261996286,0.03298971,-0.00252566,0.00580486,10.59876251
1704704262002299,0.03057012,-0.00003914,0.00583514,10.59642696
1704704262008420,0.02811363,0.00678684,0.00598310,10.58227348
1704704262016346,0.02519668,0.01762045,0.00595304,10.57960701
1704704262020308,0.02307319,0.01831064,0.00594645,10.57388401
1704704262028225,0.01979831,0.02198542,0.00579675,10.55954266
1704704262034302,0.01693436,0.02391398,0.00583902,10.55414486
1704704262040301,0.01515977,0.02306509,0.00578680,10.53998089
1704704262046301,0.01348950,0.02175039,0.00581745,10.52918720
1704704262052293,0.01147171,0.01973782,0.00591420,10.51968288
1704704262058357,0.01034148,0.01431663,0.00608069,10.50089741
1704704262064334,0.01192038,0.00742593,0.00627648,10.48676300
1704704262070311,0.01308180,0.00493253,0.00633459,10.47517776
1704704262076306,0.01609457,0.00292151,0.00643813,10.45657444
1704704262086319,0.02296518,0.00581717,0.00664441,10.43390179
1704704262092307,0.02401823,0.00211277,0.00672625,10.42458725
1704704262098302,0.02566651,0.00096798,0.00666968,10.40907860
1704704262104295,0.02668761,0.00900862,0.00627042,10.39735794
1704704262110306,0.02556988,0.01660435,0.00596296,10.39254665
1704704262116309,0.02627307,0.01977030,0.00551387,10.38502502
1704704262122246,0.02872816,0.02830440,0.00501820,10.38195229
1704704262128499,0.02812920,0.03728262,0.00448254,10.38548374
1704704262134300,0.02725836,0.03809574,0.00397768,10.38313580
1704704262140340,0.02901920,0.03794766,0.00385707,10.38699055
1704704262146322,0.03111033,0.03531904,0.00393361,10.38319778
1704704262154260,0.03003072,0.03334668,0.00424714,10.39251041
1704704262160288,0.02905542,0.02998599,0.00457237,10.38845539
1704704262166228,0.02923676,0.03197406,0.00473116,10.38855743
1704704262172219,0.02657084,0.02383902,0.00491029,10.39591885
1704704262178326,0.02204169,0.01782149,0.00496742,10.39263630
1704704262184313,0.01772268,0.01984927,0.00501275,10.39355469
1704704262190339,0.01166056,0.02280087,0.00508618,10.39863491
1704704262196301,0.00623488,0.01923478,0.00532773,10.40057659
1704704262202275,0.00065496,0.01424046,0.00527107,10.40970421
1704704262208328,-0.00225765,0.01087065,0.00516139,10.40908527
1704704262214261,-0.00168562,0.01412180,0.00512608,10.41656971
1704704262224288,-0.00120262,0.00307774,0.00544191,10.43150997
1704704262230337,0.00213192,-0.00226365,0.00568742,10.43967342
1704704262236305,0.00456962,-0.00682039,0.00588257,10.44083500
1704704262242260,0.00583209,-0.00648665,0.00592038,10.44630527
1704704262248293,0.00809903,-0.00416638,0.00596440,10.44225311
1704704262254197,0.00887228,0.00119299,0.00602457,10.44631767
1704704262260493,0.00870109,0.00130316,0.00576380,10.45052528
1704704262266336,0.01025628,0.00251401,0.00572966,10.44460964
1704704262272277,0.01081950,0.01372027,0.00561066,10.44469166
1704704262278316,0.01068361,0.01180555,0.00555370,10.44841957
1704704262286306,0.01539002,0.00711999,0.00560387,10.44335175
1704704262292273,0.01912397,0.00756324,0.00547884,10.44283485
1704704262298208,0.02150362,0.01095202,0.00540948,10.43490791
1704704262304430,0.02294729,0.01447513,0.00533564,10.43197250
1704704262310319,0.02175742,0.02052020,0.00534155,10.43160820
1704704262316326,0.01896302,0.02285543,0.00531006,10.42629337
1704704262322275,0.01772077,0.02645117,0.00517231,10.42704773
1704704262328309,0.01547686,0.02759223,0.00517262,10.41992950
1704704262334308,0.01093221,0.02638128,0.00507376,10.40715694
1704704262340349,0.00489605,0.02402616,0.00494303,10.39369202
1704704262350368,-0.00497452,0.01857302,0.00506555,10.36910248
1704704262352304,-0.00714786,0.01735693,0.00512237,10.36416245
1704704262362243,-0.01481905,0.01182140,0.00526437,10.33647919
1704704262368297,-0.01925071,0.00801854,0.00524862,10.31926346
1704704262374336,-0.02024056,0.00336345,0.00518757,10.30226135
1704704262380334,-0.01892481,-0.00154666,0.00491850,10.28596210
1704704262386355,-0.01541916,-0.00598020,0.00479921,10.27113438
1704704262392308,-0.01192671,-0.01103212,0.00465428,10.25844669
1704704262398345,-0.00798156,-0.01361030,0.00455178,10.24795341
1704704262404299,-0.00351868,-0.01515825,0.00457328,10.23980427
1704704262410328,0.00154633,-0.01589493,0.00453803,10.23302269
1704704262418346,0.00541098,-0.01510773,0.00459194,10.22686672
1704704262424272,0.00648211,-0.01386214,0.00442527,10.22469425
1704704262428295,0.00696492,-0.01223015,0.00419770,10.22430134
1704704262436302,0.00746705,-0.01000160,0.00410577,10.22687531
1704704262442326,0.01002676,-0.00452240,0.00404250,10.23910236
1704704262448465,0.01278631,0.01959761,0.00379138,10.26630402
1704704262454293,0.01420359,0.06859967,0.00353949,10.36948490
1704704262460338,0.01339832,0.09631883,0.00329773,10.47768307
1704704262466326,0.01522695,0.09529008,0.00342401,10.51520920
1704704262476290,0.01785864,0.08678696,0.00361363,10.54523754
1704704262482269,0.01887580,0.07784575,0.00359029,10.54725742
1704704262488281,0.02119473,0.06328724,0.00327082,10.54523468
1704704262494291,0.02154094,0.04446651,0.00318956,10.53810406
1704704262500307,0.02394173,0.02260922,0.00309233,10.52489281
1704704262506290,0.02515904,-0.00030744,0.00302232,10.50541019
1704704262512273,0.02520653,-0.01972271,0.00284337,10.48002720
1704704262518295,0.02258068,-0.03490490,0.00299249,10.44986343
1704704262524334,0.01836191,-0.04560807,0.00312188,10.41594410
1704704262532281,0.01479387,-0.05229575,0.00323618,10.36830235
1704704262538336,0.01039096,-0.05277633,0.00334049,10.33085823
1704704262544294,0.00385705,-0.04845778,0.00332461,10.29399014
1704704262550386,-0.00331132,-0.04251061,0.00307051,10.25812054
1704704262556311,-0.00940422,-0.03299307,0.00292201,10.22537041
1704704262562282,-0.01510295,-0.02100074,0.00280067,10.19496918
1704704262568317,-0.02064606,-0.00827251,0.00272536,10.16716766
1704704262574354,-0.02432968,0.00526217,0.00252030,10.14230156
1704704262580309,-0.02684515,0.01586178,0.00240740,10.12142563
1704704262584312,-0.02667194,0.02329358,0.00241639,10.12774754
1704704262592284,-0.02885967,0.05675694,0.00215504,10.14726543
1704704262602300,-0.02094174,0.06899863,0.00232859,10.28593636
1704704262608299,-0.01763840,0.06694451,0.00251438,10.28612328
1704704262614268,-0.01367412,0.06185970,0.00275735,10.28881073
1704704262620209,-0.01039423,0.05364763,0.00312548,10.29421997
1704704262626319,-0.00713807,0.04370766,0.00346757,10.30188751
1704704262632305,-0.00381770,0.03097284,0.00390428,10.30963707
1704704262638316,-0.00344654,0.01671435,0.00426975,10.31628513
1704704262646289,-0.00497069,-0.00436477,0.00473070,10.32304478
1704704262652274,-0.00727660,-0.01673716,0.00528957,10.32626057
1704704262658227,-0.00770042,-0.02782178,0.00571145,10.32681847
1704704262664489,-0.00905300,-0.03873216,0.00595820,10.32590389
1704704262670317,-0.00884401,-0.04622254,0.00626151,10.32273388
1704704262676321,-0.00786012,-0.05250297,0.00641918,10.31849098
1704704262682312,-0.00614027,-0.05713687,0.00664297,10.31326008
1704704262688309,-0.00492441,-0.05823220,0.00675792,10.30682278
1704704262694315,-0.00333707,-0.05718134,0.00677816,10.30014610
1704704262700336,-0.00178932,-0.05259635,0.00671402,10.29323196
1704704262710293,0.00237083,-0.04187988,0.00619155,10.28235626
1704704262716343,0.00498811,-0.03282979,0.00593985,10.27523422
1704704262722268,0.00488985,-0.02308328,0.00561778,10.26792145
1704704262728293,0.00764397,-0.01273418,0.00498958,10.26071835
1704704262734321,0.01072093,-0.00364226,0.00476070,10.25389767
1704704262738301,0.00973013,0.00918244,0.00474747,10.27233601
1704704262748327,0.00864473,0.02247757,0.00460355,10.34169960
1704704262748327,0.01849088,0.04586512,0.00465006,10.46931267
1704704262758376,0.02342144,0.05912715,0.00457169,10.52854061
1704704262766326,0.02460336,0.06274559,0.00483571,10.53381157
1704704262772310,0.02401973,0.05825820,0.00507791,10.52827644
1704704262778307,0.02220351,0.05036373,0.00531914,10.52061367
1704704262784283,0.02079669,0.03894213,0.00545641,10.51061916
1704704262790338,0.01939121,0.02505971,0.00561188,10.49732876
1704704262796316,0.01840387,0.01074325,0.00581012,10.48121929
1704704262802293,0.01768981,-0.00389782,0.00570543,10.46217823
1704704262808380,0.01743361,-0.01738152,0.00567414,10.44108391
1704704262814343,0.01748182,-0.02699414,0.00562548,10.41932678
1704704262820319,0.01855871,-0.03414785,0.00594406,10.39616871
1704704262826326,0.02027424,-0.03715529,0.00610934,10.37143040
1704704262836302,0.02139690,-0.03676917,0.00579138,10.32942009
1704704262842314,0.02244112,-0.03427788,0.00565462,10.30455112
1704704262848314,0.02297383,-0.02934810,0.00543498,10.28078556
1704704262854285,0.02374935,-0.02366509,0.00525217,10.25774860
1704704262860285,0.02338636,-0.01834368,0.00504185,10.23578453
1704704262866367,0.02276400,-0.01152349,0.00481082,10.21546936
1704704262872254,0.02249541,-0.00442418,0.00462112,10.19854927
1704704262878256,0.02066061,0.00193666,0.00443037,10.18426800
1704704262884324,0.02012488,0.00864921,0.00439810,10.17296410
1704704262890372,0.02393303,0.03963194,0.00423060,10.20820332
1704704262890372,0.02614146,0.06951670,0.00427270,10.24193192
1704704262902308,0.02409575,0.09374256,0.00451758,10.28310966
1704704262910353,0.01859294,0.08683926,0.00482850,10.30423641
1704704262916318,0.01606160,0.07908290,0.00505895,10.31098652
1704704262922276,0.01125754,0.06739184,0.00549973,10.32661915
1704704262928322,0.00828378,0.05331865,0.00576049,10.33368874
1704704262934317,0.00528348,0.03529608,0.00584673,10.34011650
1704704262940329,0.00404002,0.01513534,0.00618773,10.34570599
1704704262946307,0.00402515,-0.00361023,0.00663630,10.34963131
1704704262952297,0.00601471,-0.02178661,0.00709810,10.35124016
1704704262958388,0.00922324,-0.03770784,0.00747614,10.35028076
1704704262964373,0.01331238,-0.05021831,0.00766364,10.34722328
1704704262974371,0.02183342,-0.06370468,0.00727982,10.33731842
1704704262976324,0.02106451,-0.06590828,0.00707550,10.34071159
1704704262986355,0.02773279,-0.04773638,0.00659355,10.34247684
1704704262992302,0.03121138,-0.04433917,0.00645105,10.36719131
1704704262998284,0.03557321,-0.03550966,0.00600186,10.36430359
1704704263004289,0.03947044,-0.02625873,0.00546910,10.35164356
1704704263010309,0.04190696,-0.01718376,0.00483191,10.33832932
1704704263016403,0.04386890,-0.00850784,0.00413363,10.32474518
1704704263022273,0.04423513,-0.00329715,0.00376190,10.31198597
1704704263028302,0.04236485,0.00217930,0.00369306,10.29895020
1704704263034320,0.04091688,0.00615523,0.00381207,10.28651714
1704704263042333,0.03651958,0.00882021,0.00383190,10.27146053
1704704263048341,0.03299400,0.00933368,0.00378752,10.26115227
1704704263054274,0.03113801,0.00705232,0.00395463,10.25219536
1704704263060360,0.02908863,0.00399902,0.00417339,10.24454021
1704704263066363,0.02828716,0.00025838,0.00445323,10.23793507
1704704263072307,0.02907321,-0.00332069,0.00458363,10.23224545
1704704263078333,0.02956175,-0.00628953,0.00464105,10.22767544
1704704263084347,0.03050273,-0.00836389,0.00461851,10.22455311
1704704263090345,0.03183156,-0.01046055,0.00460887,10.22337055
1704704263096313,0.03293484,-0.01136096,0.00449291,10.22448063
1704704263102301,0.03304914,-0.01059491,0.00446615,10.22824669
1704704263112279,0.03132844,-0.01173902,0.00430821,10.23719311
1704704263118330,0.03147383,-0.01362518,0.00432669,10.24376774
1704704263124376,0.03183865,-0.01653595,0.00431981,10.25173378
1704704263130326,0.03158376,-0.02037601,0.00429788,10.26126480
1704704263134354,0.03104499,-0.01335174,0.00432906,10.28022385
1704704263134354,0.01976844,0.02325515,0.00437051,10.32250881
1704704263148396,0.01700907,0.07653522,0.00432917,10.45524979
1704704263154369,0.01341291,0.08819287,0.00443252,10.49130726
1704704263160348,0.01310127,0.08759233,0.00443599,10.50741863
1704704263166370,0.01400433,0.08656511,0.00457172,10.52529812
1704704263172287,0.01244367,0.07698362,0.00437688,10.53986454
1704704263180322,0.01590967,0.05210027,0.00382913,10.54585361
1704704263186322,0.01970138,0.03028425,0.00375734,10.54169464
1704704263192347,0.02162555,0.00853679,0.00393301,10.53213120
1704704263198426,0.02644403,-0.01360862,0.00420677,10.51192284
1704704263204326,0.03297953,-0.02943856,0.00442109,10.48503590
1704704263210340,0.03813095,-0.04246421,0.00449713,10.45477390
1704704263216359,0.04262864,-0.05122594,0.00453043,10.42133713
1704704263222296,0.04544211,-0.05487552,0.00473605,10.38561630
1704704263228332,0.04732496,-0.05547915,0.00493576,10.34699345
1704704263234370,0.04521743,-0.05234452,0.00493051,10.30912209
1704704263240346,0.04306537,-0.04652584,0.00490125,10.27288437
1704704263250336,0.03823401,-0.03199925,0.00461040,10.21723461
1704704263252299,0.03676533,-0.02774499,0.00458985,10.20719719
1704704263262278,0.03256043,-0.01237737,0.00408787,10.16136074
1704704263268309,0.03023682,-0.00452320,0.00383421,10.13847256
1704704263274338,0.02786049,0.00156431,0.00363931,10.12026978
1704704263280308,0.02279966,0.00759569,0.00362599,10.10677052
1704704263286289,0.01844020,0.01222762,0.00332318,10.09700394
1704704263292278,0.01592611,0.01510157,0.00311818,10.09119225
1704704263298248,0.01404733,0.01544093,0.00301563,10.08942699
1704704263304391,0.01243262,0.01600658,0.00304635,10.09125710
1704704263310337,0.01258819,0.01432029,0.00310919,10.09667301
1704704263316388,0.01326739,0.01209326,0.00316298,10.10491467
1704704263322296,0.01403205,0.00905808,0.00369028,10.11575890
1704704263328333,0.01577498,0.00511325,0.00388511,10.12919426
1704704263336318,0.01911553,-0.00032562,0.00413856,10.15055275
1704704263342307,0.02495667,-0.00600582,0.00446982,10.16881466
1704704263346315,0.02813052,-0.00957775,0.00478721,10.18114948
1704704263350365,0.02700280,-0.02433848,0.00504136,10.19226742
1704704263352314,0.02317859,-0.03539134,0.00525416,10.20264149
1704704263366737,0.02540445,-0.03462173,0.00576658,10.30059433
1704704263372414,0.02470431,-0.03525372,0.00598207,10.35612488
1704704263378361,0.02728609,-0.03455067,0.00623058,10.37680435
1704704263384348,0.02894959,-0.03163327,0.00637181,10.39609241
1704704263390368,0.02964600,-0.02694856,0.00646696,10.41314793
1704704263396328,0.02930396,-0.02245116,0.00659099,10.42704582
1704704263402341,0.02884881,-0.01337858,0.00670321,10.47850513
1704704263408503,0.02745848,-0.00950156,0.00644344,10.50337505
1704704263414375,0.02623827,-0.00673427,0.00620886,10.51102257
1704704263420347,0.02304740,-0.00101000,0.00603400,10.51901531
1704704263430321,0.01700820,0.00590137,0.00510466,10.51617241
1704704263436355,0.01368732,0.00778567,0.00473930,10.50621128
1704704263442308,0.01130840,0.00802658,0.00475837,10.49522591
1704704263448342,0.00866242,0.00740111,0.00495322,10.47834778
1704704263454312,0.00512658,0.00944767,0.00510103,10.46116543
1704704263460365,0.00300297,0.01118442,0.00509462,10.44039345
1704704263466484,0.00165935,0.01176512,0.00510602,10.41795540
1704704263472303,0.00124950,0.01343473,0.00509637,10.39704609
1704704263478328,0.00298781,0.01530240,0.00520315,10.37353516
1704704263484487,0.00463578,0.01226412,0.00524677,10.35153294
1704704263490459,0.00796777,0.01027953,0.00532453,10.33091068
1704704263496539,0.01302786,0.00741493,0.00557390,10.31215668
1704704263502298,0.01694224,0.00311245,0.00564283,10.29666138
1704704263508415,0.02119080,0.00061041,0.00575281,10.28196144
1704704263514401,0.02566890,-0.00273314,0.00593046,10.27233791
1704704263520337,0.03095793,-0.00698805,0.00605279,10.26540947
1704704263526348,0.03471493,-0.00908789,0.00620736,10.25951290
1704704263534371,0.03693687,-0.01591364,0.00653363,10.25846004
1704704263540344,0.03592144,-0.02057678,0.00675120,10.26130199
1704704263546292,0.03466427,-0.02371099,0.00676573,10.26663113
1704704263552294,0.03226640,-0.02460766,0.00661893,10.27413750
1704704263558381,0.02942825,-0.02677552,0.00637504,10.28430843
1704704263564371,0.02717068,-0.02592262,0.00605150,10.29616547
1704704263570293,0.02550859,-0.02432481,0.00561528,10.30948830
1704704263576339,0.02377561,-0.02245262,0.00506516,10.32438183
1704704263582393,0.02097857,-0.01972196,0.00449621,10.33998299
1704704263588412,0.01654235,-0.01763936,0.00403529,10.35598373
1704704263594340,0.01325451,-0.01475346,0.00395940,10.37129116
1704704263600420,0.00995595,-0.01059365,0.00391174,10.38698578
1704704263606375,0.00871688,-0.00580233,0.00387190,10.40210915
1704704263612289,0.00556839,-0.00084914,0.00378126,10.41688347
1704704263618358,0.00219033,0.00420685,0.00366131,10.43168068
1704704263624387,-0.00037669,0.00795069,0.00326589,10.44493103
1704704263630347,-0.00101947,0.01017332,0.00309800,10.45641327
1704704263636359,0.00000899,0.01174095,0.00322523,10.46545315
1704704263642318,0.00037684,0.01203331,0.00338976,10.47209454
1704704263648348,0.00209450,0.01136361,0.00347035,10.47670555
1704704263654342,0.00194534,0.00853760,0.00369288,10.47925091
1704704263660345,0.00000159,0.00052288,0.00406224,10.48744392
1704704263660345,-0.00882550,0.00260271,0.00411303,10.51450539
1704704263672317,-0.01325480,0.00489516,0.00480651,10.53161240
1704704263678357,-0.01494091,0.00592181,0.00503143,10.53624630
1704704263684363,-0.01295415,0.00667487,0.00525448,10.53131294
1704704263690366,-0.01146034,0.00769031,0.00545810,10.52538109
1704704263696337,-0.00969420,0.00864064,0.00565461,10.51873589
1704704263702342,-0.00743014,0.00809466,0.00553734,10.51195431
1704704263708424,-0.00543126,0.00808337,0.00557263,10.50442505
1704704263714384,-0.00618971,0.00905845,0.00565483,10.49617386
1704704263724407,-0.00349331,0.01264771,0.00567209,10.47979355
1704704263730328,-0.00238614,0.01430155,0.00563596,10.46869946
1704704263736364,0.00009363,0.01528344,0.00589161,10.45610905
1704704263742321,0.00104202,0.01625592,0.00603797,10.44290638
1704704263748322,-0.00003859,0.01690569,0.00614919,10.42861176
1704704263754320,-0.00175102,0.01581799,0.00626485,10.41489220
1704704263760314,-0.00312288,0.01494325,0.00629877,10.40267086
1704704263766354,-0.00398887,0.01354539,0.00643624,10.39130306
1704704263772311,-0.00385032,0.01000240,0.00649445,10.38105392
1704704263778311,-0.00452081,0.00545164,0.00630486,10.37217808
1704704263784347,-0.00503258,0.00141037,0.00614959,10.36479855
1704704263790354,-0.00521275,-0.00185172,0.00602737,10.35882473
1704704263796321,-0.00299927,-0.00373481,0.00575766,10.35445595
1704704263802317,-0.00363282,-0.00365943,0.00547370,10.35839844
1704704263802317,-0.00084888,0.01433393,0.00550111,10.38580894
1704704263814554,0.00146844,0.02353984,0.00578226,10.43019104
1704704263820488,-0.00073790,0.02714382,0.00614762,10.44864082
1704704263826582,0.00004337,0.02664056,0.00639118,10.45697498
1704704263832342,-0.00122579,0.02514102,0.00649758,10.46799278
1704704263838353,-0.00276174,0.02177700,0.00674854,10.47762680
1704704263844367,-0.00211597,0.01620885,0.00698110,10.48218822
1704704263850398,-0.00003884,0.01070906,0.00699472,10.48196030
1704704263856321,0.00210034,0.00165207,0.00673035,10.48026276
1704704263862312,0.00421321,-0.00617463,0.00629642,10.47653961
1704704263868351,0.00520863,-0.01497514,0.00590806,10.47163105
1704704263874403,0.00644861,-0.02332546,0.00573408,10.46634960
1704704263880329,0.00859903,-0.02863986,0.00557529,10.46089172
1704704263886338,0.01221054,-0.03292750,0.00547169,10.45491505
1704704263894331,0.01454785,-0.03556406,0.00548179,10.44694996
1704704263900383,0.01710235,-0.03533804,0.00561447,10.44085312
1704704263906333,0.01928227,-0.03284854,0.00587532,10.43503571
1704704263912311,0.02015672,-0.02904831,0.00624667,10.42969704
1704704263918342,0.02142412,-0.02380318,0.00663060,10.42525578
1704704263924343,0.02209843,-0.01725651,0.00687731,10.42173672
1704704263930342,0.02174710,-0.01259141,0.00711927,10.41933537
1704704263936308,0.02021063,-0.00764984,0.00732121,10.41788960
1704704263942295,0.01833416,-0.00266013,0.00741670,10.41772842
1704704263948311,0.01336422,0.00250905,0.00720715,10.41846371
1704704263954266,0.00771417,0.00672442,0.00675723,10.41984749
1704704263960287,0.00418469,0.00732590,0.00640525,10.42187405
1704704263966432,-0.00664278,0.01188909,0.00625159,10.44040775
1704704263974394,-0.02147388,0.03998663,0.00612946,10.50062180
1704704263978382,-0.02995257,0.05909138,0.00615726,10.54826832
1704704263984394,-0.03521512,0.06470443,0.00625432,10.57335949
1704704263990382,-0.03598270,0.06481144,0.00669383,10.58401585
1704704263996353,-0.03036737,0.05967894,0.00687089,10.58653259
1704704264002334,-0.02005706,0.05219864,0.00719170,10.58679104
1704704264008422,-0.00904040,0.04149055,0.00763835,10.58431244
1704704264014399,0.00131900,0.02943300,0.00798875,10.57874584
1704704264020348,0.01433957,0.01598206,0.00822972,10.56961250
1704704264026362,0.02860530,0.00156714,0.00811721,10.55714226
1704704264032349,0.04092675,-0.01275775,0.00791862,10.54211330
1704704264038352,0.04818504,-0.02352754,0.00762242,10.52513981
1704704264044364,0.05365952,-0.03089579,0.00717451,10.50554752
1704704264050377,0.05914046,-0.03618136,0.00670960,10.48339653
1704704264056359,0.06267756,-0.03733625,0.00622888,10.46045017
1704704264062331,0.06202652,-0.03617879,0.00593202,10.43732166
1704704264072309,0.05428070,-0.02606338,0.00527808,10.39829445
1704704264078389,0.04654101,-0.01759228,0.00466121,10.37519169
1704704264084469,0.03941831,-0.01026173,0.00446595,10.35261345
1704704264088343,0.03350604,-0.00473931,0.00433714,10.33895969
1704704264096328,0.02423794,0.00527771,0.00446911,10.31186676
1704704264102316,0.01639397,0.01216293,0.00463411,10.29369068
1704704264104334,0.01362042,0.01429282,0.00466422,10.28828049
1704704264112297,0.00111690,0.02883709,0.00483031,10.29144955
1704704264120339,-0.01210341,0.06408043,0.00527620,10.37178230
1704704264126339,-0.01514270,0.07304104,0.00588893,10.39333248
1704704264128359,-0.01541236,0.07309262,0.00609921,10.39137936
1704704264138362,-0.01343938,0.07317919,0.00703652,10.40258217
1704704264144400,-0.01096646,0.06935745,0.00769279,10.41901112
1704704264150397,-0.00659643,0.05970587,0.00819164,10.42985058
1704704264156361,0.00175862,0.04731433,0.00855434,10.43254948
1704704264162298,0.00958255,0.03477461,0.00861925,10.43597507
1704704264168323,0.01775737,0.02085237,0.00853287,10.43954277
1704704264174376,0.02433583,0.00700461,0.00827560,10.44222546
1704704264180343,0.03034739,-0.00462506,0.00815460,10.44388294
1704704264186316,0.03749673,-0.01241105,0.00804512,10.44342518
1704704264192298,0.04300702,-0.01751627,0.00802323,10.44087315
1704704264198397,0.04773851,-0.01928509,0.00797189,10.43566704
1704704264204323,0.04971947,-0.01901131,0.00774842,10.42900467
1704704264210337,0.04977122,-0.01630768,0.00756208,10.42110825
1704704264216401,0.04775878,-0.01150187,0.00728000,10.41308212
1704704264222248,0.04492406,-0.00392027,0.00710669,10.40610790
1704704264228594,0.04161100,0.00505645,0.00688297,10.39942932
1704704264234425,0.03747165,0.01373668,0.00688711,10.39391327
1704704264240555,0.03199737,0.02336113,0.00660552,10.38833714
1704704264246358,0.02733846,0.03171426,0.00596135,10.38379478
1704704264252314,0.02331109,0.03884041,0.00543650,10.37907028
1704704264258404,0.01957141,0.04536257,0.00522273,10.37450504
1704704264264391,0.01508828,0.04977365,0.00507129,10.36896610
1704704264268453,0.01327171,0.04941706,0.00517762,10.37020206
1704704264276351,0.00735704,0.05556328,0.00583040,10.37330437
1704704264276351,0.01350285,0.05985790,0.00587832,10.39830685
1704704264288399,0.01290157,0.05702802,0.00695589,10.41080475
1704704264294377,0.01398731,0.05107760,0.00747724,10.41669655
1704704264300393,0.01566457,0.04393999,0.00800481,10.41508198
1704704264306375,0.01913835,0.03539634,0.00854655,10.41460323
1704704264312329,0.02646714,0.02529673,0.00888776,10.41495895
1704704264318375,0.03268481,0.01589023,0.00871167,10.41529655
1704704264324396,0.03682880,0.00700924,0.00861144,10.41486549
1704704264332426,0.04063845,-0.00133918,0.00868282,10.41246796
1704704264338391,0.04384747,-0.00412454,0.00875974,10.41707420
1704704264344415,0.04373407,-0.00651943,0.00860175,10.42081261
1704704264350352,0.03983906,-0.00945365,0.00849022,10.42080498
1704704264356441,0.03701867,-0.00583839,0.00844536,10.41596127
1704704264362390,0.03513447,-0.00081317,0.00833003,10.41165257
1704704264368342,0.03281149,0.00220959,0.00792417,10.40491199
1704704264374428,0.03088438,0.00465537,0.00747157,10.39807224
1704704264378360,0.03063860,0.00698635,0.00712261,10.39469910
1704704264386358,0.02968088,0.02211365,0.00670451,10.38724041
1704704264392340,0.02829082,0.03156779,0.00633654,10.38377380
1704704264398360,0.02973926,0.03777228,0.00585702,10.38182926
1704704264404418,0.02888264,0.04093724,0.00576812,10.38051510
1704704264410360,0.02863910,0.04161067,0.00564909,10.38097763
1704704264416520,0.02830519,0.03919094,0.00550165,10.38122749
1704704264422271,0.02608154,0.03389408,0.00545769,10.38116360
1704704264428413,0.02238843,0.02710891,0.00585392,10.38274097
1704704264434549,0.01790178,0.02468023,0.00607201,10.38315582
1704704264440542,0.01326856,0.01929712,0.00622868,10.38364601
1704704264446582,0.00765340,0.01346833,0.00648825,10.38644409
1704704264452355,0.00044001,0.00745028,0.00677226,10.39075375
1704704264458449,-0.00535295,0.00215521,0.00681951,10.39419746
1704704264464394,-0.00993399,-0.00319850,0.00696749,10.39818859
1704704264470380,-0.01303426,-0.00565306,0.00687720,10.40326214
1704704264476393,-0.01189727,-0.00615556,0.00659335,10.40889263
1704704264482398,-0.01034746,-0.00566911,0.00620192,10.41444111
1704704264488387,-0.00831464,-0.00565889,0.00579360,10.41979599
1704704264494379,-0.00549226,-0.00484025,0.00540842,10.42396069
1704704264500378,-0.00315803,-0.00279077,0.00493203,10.42687702
1704704264506377,-0.00169741,-0.00047697,0.00455637,10.42911530
1704704264512337,-0.00113429,0.00226500,0.00433042,10.43083477
1704704264518369,0.00003732,0.00541317,0.00415210,10.43251228
1704704264524369,-0.00035986,0.00681399,0.00400581,10.43384933
1704704264530374,-0.00134990,0.00663778,0.00386889,10.43520355
1704704264536401,-0.00033403,0.00544413,0.00386192,10.43679237
1704704264542354,-0.00064590,0.00398721,0.00379099,10.43815517
1704704264548404,-0.00311318,0.00152204,0.00372016,10.43938255
1704704264554364,-0.00427780,-0.00022976,0.00377015,10.44045258
1704704264560382,-0.00449495,-0.00251165,0.00364830,10.44099331
1704704264566391,-0.00520318,-0.00601586,0.00346115,10.44164562
1704704264572351,-0.00689810,-0.01063603,0.00338247,10.44216061
1704704264576371,-0.00870795,-0.01149202,0.00346784,10.44360924
1704704264582358,-0.01177891,-0.01701831,0.00334058,10.44887352
1704704264590410,-0.01223379,-0.00070442,0.00336548,10.46035004
1704704264596361,-0.01195456,-0.00107648,0.00320810,10.46211338
1704704264602353,-0.01121317,0.00092108,0.00315781,10.46401024
1704704264612311,-0.00894228,-0.00384095,0.00312342,10.46345329
1704704264618368,-0.00770007,-0.00620128,0.00322268,10.46303844
1704704264624406,-0.00829354,-0.00790096,0.00333971,10.46205997
1704704264630356,-0.00871816,-0.00979659,0.00307880,10.46027660
1704704264636369,-0.00925826,-0.01217944,0.00278290,10.45747185
1704704264642377,-0.00850875,-0.01518448,0.00258013,10.45389938
1704704264648337,-0.00887331,-0.01772037,0.00252560,10.44961166
1704704264654342,-0.00860543,-0.01923083,0.00244233,10.44450378
1704704264660378,-0.00520262,-0.02113494,0.00247340,10.43892193
1704704264666395,-0.00041242,-0.02317420,0.00234700,10.43225574
1704704264672315,0.00428509,-0.02472657,0.00235678,10.42568970
1704704264678352,0.00805199,-0.02540184,0.00236628,10.41965294
1704704264684348,0.01009713,-0.02372717,0.00245461,10.41506958
1704704264690405,0.01072474,-0.02135472,0.00252367,10.41272068
1704704264696354,0.00970366,-0.01848955,0.00248949,10.41185856
1704704264702335,0.00952466,-0.01525268,0.00231649,10.41217995
1704704264708457,0.00807984,-0.01121591,0.00239889,10.41306210
1704704264714391,0.00595901,-0.00798848,0.00240233,10.41377068
1704704264718400,0.00447523,-0.00265617,0.00243478,10.41459370
1704704264726481,0.00377614,0.01039678,0.00252438,10.41731644
1704704264726481,-0.01082550,0.02690410,0.00256654,10.43674183
1704704264738329,-0.02219882,0.03722340,0.00279274,10.45370388
1704704264744354,-0.02596474,0.03618973,0.00300180,10.46061707
1704704264750342,-0.02848860,0.03068520,0.00327878,10.46520615
1704704264756421,-0.02708689,0.02485751,0.00352007,10.46717739
1704704264762396,-0.02698072,0.01480417,0.00366364,10.47090435
1704704264768404,-0.02232700,0.00421420,0.00384840,10.47297764
1704704264774504,-0.01706570,-0.00861715,0.00416363,10.47577667
1704704264780376,-0.01003526,-0.02035176,0.00437656,10.47750378
1704704264786397,-0.00350782,-0.03124394,0.00475769,10.47755146
1704704264792366,-0.00031037,-0.04253892,0.00508296,10.47744846
1704704264798416,0.00204296,-0.04969272,0.00547112,10.47629738
1704704264804350,0.00730249,-0.05217434,0.00567777,10.47319031
1704704264810406,0.00939495,-0.05134944,0.00577039,10.46976280
1704704264816426,0.00927445,-0.04759803,0.00583002,10.46594334
1704704264822344,0.00822305,-0.04103300,0.00574987,10.46107769
1704704264828417,0.00485311,-0.03297523,0.00568630,10.45664978
1704704264836374,-0.00011309,-0.02164424,0.00554805,10.45028877
1704704264842344,-0.00288769,-0.01199885,0.00561642,10.44488144
1704704264848410,-0.00311933,-0.00341679,0.00556597,10.43796539
1704704264854367,-0.00560536,0.00286305,0.00568920,10.43177032
1704704264860396,-0.00754419,0.00908587,0.00588865,10.42461395
1704704264866368,-0.00642134,0.01198203,0.00598561,10.41653633
1704704264872339,-0.00597012,0.01265440,0.00593271,10.40948105
1704704264878305,-0.00618743,0.01371199,0.00614496,10.40299416
1704704264884393,-0.00281182,0.01305406,0.00646936,10.39559555
1704704264890391,-0.00311271,0.01110986,0.00663397,10.38992596
1704704264896336,-0.00270710,0.00842392,0.00685880,10.38511562
1704704264902324,-0.00042111,0.00488742,0.00706213,10.38010883
1704704264908414,0.00113088,0.00100944,0.00720142,10.37789917
1704704264914448,0.00336389,-0.00136592,0.00706901,10.37718487
1704704264920291,0.00605340,-0.00335766,0.00674760,10.37703991
1704704264926341,0.00838336,-0.00601770,0.00641569,10.37835693
1704704264932344,0.01276956,-0.00881052,0.00611660,10.38123608
1704704264938301,0.01848339,-0.01156911,0.00569113,10.38448429
1704704264944378,0.02451694,-0.01171925,0.00548761,10.38894749
1704704264950515,0.02897244,-0.01079743,0.00525659,10.39369011
1704704264956512,0.03339853,-0.01197223,0.00525032,10.39828396
1704704264962313,0.03465380,-0.01259986,0.00546230,10.40242577
1704704264968415,0.03429309,-0.01230013,0.00578091,10.40616131
1704704264974412,0.03006486,-0.01245929,0.00600784,10.40924072
1704704264980397,0.02741816,-0.01292506,0.00636143,10.41139221
1704704264986432,0.02473364,-0.01343054,0.00660187,10.41266155
1704704264992378,0.02094188,-0.01300082,0.00661718,10.41295147
1704704264998425,0.01835993,-0.01284801,0.00655525,10.41242313
1704704265004358,0.01636640,-0.01260840,0.00639635,10.41198826
1704704265010402,0.01652328,-0.01245869,0.00614787,10.41146183
1704704265016411,0.01721679,-0.01034569,0.00573782,10.41074085
1704704265022364,0.01985560,-0.00992858,0.00525741,10.41056919
1704704265028389,0.02273554,-0.00722974,0.00510356,10.41078186
1704704265034389,0.02698576,-0.00327563,0.00493872,10.41081810
1704704265040426,0.03018199,-0.00196449,0.00489137,10.41139793
1704704265046388,0.03221309,0.00039730,0.00509786,10.41250610
1704704265052376,0.03172091,0.00189992,0.00511439,10.41349983
1704704265058461,0.03169364,0.00146570,0.00510890,10.41487598
1704704265064429,0.03099732,0.00235422,0.00516087,10.41653728
1704704265070395,0.03039001,0.00140112,0.00519452,10.41869926
1704704265076399,0.03006600,-0.00008567,0.00532995,10.42104244
1704704265082420,0.02824583,-0.00072866,0.00546084,10.42437363
1704704265088394,0.02668092,-0.00051859,0.00557013,10.42715263
1704704265094408,0.02363301,0.00081011,0.00559655,10.42945671
1704704265100423,0.02030133,0.00336350,0.00553887,10.43169689
1704704265106388,0.01867356,0.00451084,0.00559442,10.43367386
1704704265112360,0.01695338,0.00836721,0.00564421,10.43518257
1704704265122341,0.01966503,0.01352903,0.00584720,10.43448925
1704704265128362,0.02116846,0.01475445,0.00590786,10.43250751
1704704265134371,0.02303606,0.01755820,0.00598679,10.43060017
1704704265136395,0.02367341,0.01849200,0.00601445,10.43016338
1704704265146372,0.02689153,0.01907205,0.00605467,10.42486668
1704704265152341,0.02848369,0.01898630,0.00623536,10.42077351
1704704265158421,0.02861661,0.01631588,0.00615180,10.41610622
1704704265164401,0.02800406,0.01204398,0.00603955,10.41049957
1704704265170364,0.02716523,0.00848068,0.00620114,10.40514660
1704704265176371,0.02543930,0.00607855,0.00629320,10.40013790
1704704265182513,0.02309165,0.00384856,0.00632723,10.39509869
1704704265188349,0.02303327,0.00351465,0.00639636,10.39149189
1704704265194393,0.02472788,0.00359304,0.00638907,10.38931942
1704704265200418,0.02285549,0.00139601,0.00652450,10.38857365
1704704265206393,0.02211094,0.00294570,0.00637297,10.39070225
1704704265212351,0.02225561,0.00373088,0.00595394,10.39444065
1704704265218394,0.02142308,0.00231747,0.00539709,10.39833355
1704704265224419,0.02412331,0.00258138,0.00510578,10.40352917
1704704265230382,0.02696374,0.00362882,0.00476580,10.40777493
1704704265236406,0.02859160,0.00151612,0.00473609,10.41125202
1704704265242407,0.03110292,0.00188018,0.00472468,10.41495514
1704704265248477,0.03481814,0.00183826,0.00479200,10.41814423
1704704265254409,0.03478420,-0.00161126,0.00488150,10.41944504
1704704265260444,0.03462254,-0.00237268,0.00485578,10.42076588
1704704265266479,0.03327606,-0.00398357,0.00484158,10.42092800
1704704265272406,0.03189911,-0.00374332,0.00490433,10.42172241
1704704265278431,0.03143094,-0.00327957,0.00490505,10.42258358
1704704265284380,0.02835619,-0.00258878,0.00488955,10.42309666
1704704265290481,0.02672896,0.00192467,0.00491494,10.42436123
1704704265296436,0.02337459,0.00619476,0.00491832,10.42566586
1704704265302362,0.01920628,0.00794953,0.00491886,10.42603302
1704704265308385,0.01831637,0.01161505,0.00504676,10.42622089
1704704265314442,0.01730428,0.01524078,0.00499045,10.42547417
1704704265320355,0.01631249,0.01511652,0.00500803,10.42445087
1704704265326326,0.01666652,0.01705210,0.00515189,10.42350674
1704704265332395,0.01848443,0.01823997,0.00518241,10.42291927
1704704265338384,0.02018114,0.01540636,0.00542539,10.42262459
1704704265344383,0.02159832,0.01674508,0.00561463,10.42220211
1704704265350539,0.02320569,0.01615205,0.00548905,10.42154694
1704704265356576,0.02323071,0.01041501,0.00548238,10.42018986
1704704265362380,0.02542700,0.00645680,0.00553063,10.41834641
1704704265368419,0.02776805,-0.00048469,0.00567092,10.41605186
1704704265374435,0.02933876,-0.00688795,0.00575580,10.41326237
1704704265380419,0.03023248,-0.01329147,0.00604408,10.41031170
1704704265386422,0.02886300,-0.01895277,0.00613386,10.40727520
1704704265392392,0.02684525,-0.02123387,0.00634157,10.40417004
1704704265398460,0.02604955,-0.02022446,0.00642457,10.40071869
1704704265404366,0.02248693,-0.01939615,0.00651426,10.39929199
1704704265410398,0.01962690,-0.01473646,0.00648645,10.39907169
1704704265416444,0.01725506,-0.00896532,0.00629589,10.40028381
1704704265422374,0.01497849,-0.00523072,0.00596397,10.40287495
1704704265428415,0.01100212,0.00109837,0.00565522,10.40600777
1704704265434400,0.00791722,0.00630904,0.00516357,10.40978241
1704704265438394,0.00587258,0.00970603,0.00477164,10.41215706
1704704265446419,0.00156391,0.01216021,0.00422632,10.41760826
1704704265454362,-0.00015387,0.01261258,0.00410028,10.42181301
1704704265460391,0.00062666,0.01638067,0.00439681,10.42403603
1704704265466519,0.00037908,0.01694540,0.00472595,10.42601204
1704704265472335,0.00279383,0.01847139,0.00488770,10.42629433
1704704265478353,0.00475020,0.01656304,0.00514855,10.42557526
1704704265484475,0.00485852,0.01136198,0.00530366,10.42493534
1704704265490347,0.00555239,0.00584380,0.00552716,10.42350674
1704704265496368,0.00362172,-0.00021836,0.00562015,10.42116642
1704704265502336,0.00087195,-0.00771378,0.00583237,10.41908550
1704704265508506,-0.00117946,-0.01304605,0.00611752,10.41672230
1704704265514565,-0.00242098,-0.01632705,0.00616309,10.41502285
1704704265520656,-0.00298172,-0.02008251,0.00617905,10.41409683
1704704265526401,-0.00115272,-0.02113776,0.00618434,10.41294003
1704704265532558,0.00264895,-0.02100646,0.00636628,10.41228199
1704704265538399,0.00537241,-0.02262969,0.00641216,10.41346455
1704704265544410,0.01051650,-0.02217797,0.00649837,10.41539669
1704704265550443,0.01558660,-0.01982623,0.00657381,10.41883659
1704704265556402,0.01954797,-0.01835752,0.00650221,10.42422009
1704704265562388,0.02384484,-0.01476177,0.00621621,10.42947578
1704704265568510,0.02691414,-0.01063142,0.00595846,10.43556881
1704704265574428,0.02875507,-0.00940680,0.00567885,10.44265366
1704704265580407,0.02971402,-0.00543981,0.00523474,10.44848824
1704704265586423,0.02923606,-0.00329341,0.00525167,10.45509338
1704704265592383,0.02696626,-0.00241123,0.00542611,10.45937634
1704704265598439,0.02373420,-0.00568135,0.00566931,10.46282482
1704704265604389,0.01888745,-0.01027258,0.00574144,10.46610737
1704704265610547,0.01385085,-0.01552933,0.00593039,10.46660328
1704704265616449,0.00694537,-0.02172551,0.00645756,10.46632862
1704704265622378,0.00155337,-0.02685768,0.00682308,10.46527672
1704704265628417,-0.00626670,-0.03154146,0.00713042,10.46269989
1704704265634413,-0.01490815,-0.03425157,0.00744422,10.45884323
1704704265640436,-0.02160615,-0.03426353,0.00765187,10.45475578
1704704265646408,-0.02613726,-0.03234813,0.00741437,10.44914150
1704704265655775,-0.02783823,-0.02570806,0.00698364,10.44120502
1704704265664454,-0.02237755,-0.01923361,0.00658112,10.43592453
1704704265672360,-0.01427777,-0.01472551,0.00616475,10.43270874
1704704265686398,-0.00020892,-0.01173921,0.00510878,10.43288708
1704704265693324,0.00639352,-0.01071404,0.00468812,10.43552494
1704704265702493,0.01352112,-0.00863783,0.00436074,10.44190884
1704704265710514,0.01544597,-0.00794629,0.00417884,10.44695187
1704704265722567,0.01780642,-0.01065705,0.00403432,10.45313740
1704704265728470,0.01837414,-0.01157165,0.00397008,10.45651627
1704704265736416,0.01713913,-0.01262958,0.00391521,10.46102619
1704704265742574,0.01297361,-0.01441308,0.00396309,10.46548557
1704704265748449,0.00771123,-0.01512639,0.00415356,10.47041035
1704704265754402,0.00131291,-0.01704511,0.00439280,10.47571087
1704704265760472,-0.00442746,-0.02095688,0.00455309,10.48119640
1704704265766459,-0.01273662,-0.02314582,0.00480377,10.48636341
1704704265772406,-0.02028645,-0.02550039,0.00492297,10.49097061
