timestamp,roll,pitch,thrust,yaw,aux1,aux2,aux3,aux4
1691759714270259,1496,1494,1250,1501,1000,0,0,0
1691759714271407,1497,1491,1241,1501,1000,0,0,0
1691759714274918,1501,1501,1241,1501,1000,0,0,0
1691759714278956,1501,1504,1243,1502,1000,0,0,0
1691759714282673,1502,1508,1242,1502,1000,0,0,0
1691759714285292,1498,1491,1254,1501,1000,0,0,0
1691759714288955,1499,1494,1250,1501,1000,0,0,0
1691759714292643,1499,1497,1249,1501,1000,0,0,0
1691759714296567,1499,1498,1247,1501,1000,0,0,0
1691759714301227,1499,1498,1246,1501,1000,0,0,0
1691759714303286,1499,1497,1245,1501,1000,0,0,0
1691759714307385,1499,1496,1249,1501,1000,0,0,0
1691759714310859,1500,1497,1245,1501,1000,0,0,0
1691759714315483,1499,1500,1245,1501,1000,0,0,0
1691759714318594,1501,1502,1243,1501,1000,0,0,0
1691759714322697,1498,1490,1256,1501,1000,0,0,0
1691759714325666,1498,1488,1252,1501,1000,0,0,0
1691759714329562,1501,1507,1240,1501,1000,0,0,0
1691759714333585,1500,1494,1251,1500,1000,0,0,0
1691759714336202,1499,1504,1246,1500,1000,0,0,0
1691759714339914,1502,1512,1238,1500,1000,0,0,0
1691759714343707,1505,1515,1238,1500,1000,0,0,0
1691759714347754,1505,1515,1240,1500,1000,0,0,0
1691759714351596,1498,1501,1255,1500,1000,0,0,0
1691759714354312,1498,1492,1257,1500,1000,0,0,0
1691759714358099,1499,1490,1251,1500,1000,0,0,0
1691759714361828,1496,1501,1243,1500,1000,0,0,0
1691759714365730,1504,1515,1237,1500,1000,0,0,0
1691759714369781,1503,1509,1244,1500,1000,0,0,0
1691759714373406,1502,1510,1246,1500,1000,0,0,0
1691759714376252,1498,1493,1259,1500,1000,0,0,0
1691759714380205,1501,1499,1252,1500,1000,0,0,0
1691759714383577,1502,1503,1250,1500,1000,0,0,0
1691759714387761,1502,1502,1251,1500,1000,0,0,0
1691759714391626,1502,1502,1251,1500,1000,0,0,0
1691759714394478,1500,1502,1252,1500,1000,0,0,0
1691759714398242,1501,1501,1250,1500,1000,0,0,0
1691759714402663,1502,1500,1251,1500,1000,0,0,0
1691759714405175,1498,1499,1255,1500,1000,0,0,0
1691759714409024,1500,1495,1245,1500,1000,0,0,0
1691759714412574,1504,1501,1246,1500,1000,0,0,0
1691759714416799,1503,1508,1247,1500,1000,0,0,0
1691759714420627,1507,1511,1248,1500,1000,0,0,0
1691759714424629,1500,1494,1259,1500,1000,0,0,0
1691759714427115,1500,1497,1254,1500,1000,0,0,0
1691759714430805,1500,1499,1254,1500,1000,0,0,0
1691759714434862,1501,1498,1254,1500,1000,0,0,0
1691759714438803,1501,1500,1253,1500,1000,0,0,0
1691759714442816,1501,1500,1252,1500,1000,0,0,0
1691759714445312,1502,1499,1252,1499,1000,0,0,0
1691759714449385,1502,1500,1252,1499,1000,0,0,0
1691759714452870,1502,1500,1253,1499,1000,0,0,0
1691759714456923,1502,1499,1252,1499,1000,0,0,0
1691759714462423,1500,1497,1254,1499,1000,0,0,0
1691759714463401,1499,1500,1251,1499,1000,0,0,0
1691759714467814,1504,1503,1247,1499,1000,0,0,0
1691759714471711,1506,1505,1247,1500,1000,0,0,0
1691759714474387,1499,1491,1262,1499,1000,0,0,0
1691759714478115,1499,1492,1259,1499,1000,0,0,0
1691759714482188,1501,1499,1255,1499,1000,0,0,0
1691759714485747,1500,1500,1255,1499,1000,0,0,0
1691759714489774,1500,1498,1254,1499,1000,0,0,0
1691759714493739,1498,1495,1258,1499,1000,0,0,0
1691759714496094,1501,1499,1252,1499,1000,0,0,0
1691759714500041,1503,1505,1248,1499,1000,0,0,0
1691759714503750,1497,1483,1262,1499,1000,0,0,0
1691759714507826,1501,1494,1258,1499,1000,0,0,0
1691759714510892,1500,1497,1256,1499,1000,0,0,0
1691759714514676,1497,1489,1257,1499,1000,0,0,0
1691759714518767,1498,1489,1255,1499,1000,0,0,0
1691759714522539,1498,1491,1255,1499,1000,0,0,0
1691759714525732,1503,1514,1237,1499,1000,0,0,0
1691759714528911,1496,1488,1258,1499,1000,0,0,0
1691759714532990,1500,1499,1254,1499,1000,0,0,0
1691759714536844,1501,1504,1252,1499,1000,0,0,0
1691759714540900,1498,1491,1258,1499,1000,0,0,0
1691759714544289,1499,1489,1258,1498,1000,0,0,0
1691759714547353,1501,1498,1245,1499,1000,0,0,0
1691759714550880,1501,1508,1246,1499,1000,0,0,0
1691759714554863,1504,1509,1248,1499,1000,0,0,0
1691759714559016,1504,1509,1249,1499,1000,0,0,0
1691759714561738,1503,1509,1249,1499,1000,0,0,0
1691759714565840,1496,1481,1264,1498,1000,0,0,0
1691759714569876,1498,1479,1263,1498,1000,0,0,0
1691759714572493,1497,1483,1260,1498,1000,0,0,0
1691759714576313,1497,1487,1255,1498,1000,0,0,0
1691759714579896,1498,1492,1255,1498,1000,0,0,0
1691759714584200,1501,1511,1246,1499,1000,0,0,0
1691759714587936,1501,1513,1247,1499,1000,0,0,0
1691759714590799,1501,1508,1251,1498,1000,0,0,0
1691759714594884,1504,1508,1248,1499,1000,0,0,0
1691759714598734,1503,1502,1253,1498,1000,0,0,0
1691759714601871,1497,1490,1263,1498,1000,0,0,0
1691759714605797,1496,1489,1261,1498,1000,0,0,0
1691759714609999,1498,1503,1253,1498,1000,0,0,0
1691759714612489,1503,1498,1253,1498,1000,0,0,0
1691759714616294,1505,1510,1248,1499,1000,0,0,0
1691759714619992,1505,1513,1250,1499,1000,0,0,0
1691759714623980,1498,1487,1265,1498,1000,0,0,0
1691759714627874,1499,1490,1264,1498,1000,0,0,0
1691759714630915,1500,1491,1260,1498,1000,0,0,0
1691759714634934,1499,1494,1261,1499,1000,0,0,0
1691759714639445,1503,1509,1251,1499,1000,0,0,0
1691759714641884,1500,1507,1256,1499,1000,0,0,0
1691759714645381,1501,1509,1251,1499,1000,0,0,0
1691759714648935,1499,1502,1258,1499,1000,0,0,0
1691759714652765,1502,1502,1260,1499,1000,0,0,0
1691759714656810,1502,1504,1259,1499,1000,0,0,0
1691759714660737,1502,1504,1257,1499,1000,0,0,0
1691759714663701,1500,1493,1266,1499,1000,0,0,0
1691759714667218,1500,1493,1264,1499,1000,0,0,0
1691759714672890,1498,1490,1265,1499,1000,0,0,0
1691759714676847,1500,1491,1253,1499,1000,0,0,0
1691759714679435,1502,1502,1255,1499,1000,0,0,0
1691759714681723,1499,1492,1265,1499,1000,0,0,0
1691759714687190,1502,1511,1255,1499,1000,0,0,0
1691759714688929,1503,1512,1254,1500,1000,0,0,0
1691759714692993,1502,1507,1252,1500,1000,0,0,0
1691759714697138,1498,1504,1260,1500,1000,0,0,0
1691759714699800,1501,1505,1259,1500,1000,0,0,0
1691759714704155,1501,1495,1266,1499,1000,0,0,0
1691759714707933,1500,1493,1263,1499,1000,0,0,0
1691759714712726,1502,1506,1258,1500,1000,0,0,0
1691759714714192,1501,1497,1263,1500,1000,0,0,0
1691759714718096,1501,1496,1260,1500,1000,0,0,0
1691759714722056,1505,1519,1245,1500,1000,0,0,0
1691759714726050,1501,1504,1260,1500,1000,0,0,0
1691759714731436,1503,1506,1261,1500,1000,0,0,0
1691759714732853,1502,1505,1261,1500,1000,0,0,0
1691759714737004,1499,1491,1259,1500,1000,0,0,0
1691759714740732,1505,1511,1250,1500,1000,0,0,0
1691759714743457,1506,1513,1253,1501,1000,0,0,0
1691759714747184,1504,1514,1256,1501,1000,0,0,0
1691759714751041,1499,1499,1267,1500,1000,0,0,0
1691759714755037,1500,1500,1267,1501,1000,0,0,0
1691759714759461,1500,1502,1264,1501,1000,0,0,0
1691759714761618,1499,1501,1263,1501,1000,0,0,0
1691759714765330,1502,1503,1256,1501,1000,0,0,0
1691759714769004,1498,1482,1270,1500,1000,0,0,0
1691759714773425,1499,1490,1267,1501,1000,0,0,0
1691759714777054,1500,1495,1265,1501,1000,0,0,0
1691759714779981,1500,1496,1265,1501,1000,0,0,0
1691759714784141,1497,1498,1262,1501,1000,0,0,0
1691759714788337,1503,1516,1251,1501,1000,0,0,0
1691759714790688,1504,1514,1256,1501,1000,0,0,0
1691759714794483,1505,1515,1252,1501,1000,0,0,0
1691759714798071,1499,1493,1269,1501,1000,0,0,0
1691759714802196,1502,1509,1257,1501,1000,0,0,0
1691759714807352,1503,1510,1258,1501,1000,0,0,0
1691759714809052,1502,1507,1259,1501,1000,0,0,0
1691759714812969,1501,1505,1261,1501,1000,0,0,0
1691759714816998,1499,1502,1264,1501,1000,0,0,0
1691759714820292,1503,1504,1255,1501,1000,0,0,0
1691759714823522,1502,1500,1261,1501,1000,0,0,0
1691759714827174,1499,1500,1265,1501,1000,0,0,0
1691759714831110,1499,1495,1268,1501,1000,0,0,0
1691759714835064,1502,1506,1259,1501,1000,0,0,0
1691759714838028,1503,1513,1253,1502,1000,0,0,0
1691759714842017,1500,1503,1262,1501,1000,0,0,0
1691759714845367,1501,1504,1262,1501,1000,0,0,0
1691759714848960,1500,1503,1262,1501,1000,0,0,0
1691759714853871,1504,1516,1251,1502,1000,0,0,0
1691759714858045,1499,1500,1264,1501,1000,0,0,0
1691759714860261,1501,1507,1260,1502,1000,0,0,0
1691759714864010,1502,1507,1260,1502,1000,0,0,0
1691759714868175,1498,1495,1266,1501,1000,0,0,0
1691759714871210,1507,1529,1248,1502,1000,0,0,0
1691759714874199,1500,1502,1264,1502,1000,0,0,0
1691759714880353,1499,1500,1266,1501,1000,0,0,0
1691759714881891,1499,1498,1264,1501,1000,0,0,0
1691759714888258,1497,1497,1263,1501,1000,0,0,0
1691759714890081,1496,1488,1264,1501,1000,0,0,0
1691759714892512,1500,1499,1258,1501,1000,0,0,0
1691759714896287,1501,1502,1258,1501,1000,0,0,0
1691759714900032,1500,1503,1252,1501,1000,0,0,0
1691759714904180,1497,1497,1263,1501,1000,0,0,0
1691759714908104,1499,1502,1261,1501,1000,0,0,0
1691759714910881,1497,1502,1261,1501,1000,0,0,0
1691759714914477,1500,1510,1251,1501,1000,0,0,0
1691759714918143,1498,1497,1264,1501,1000,0,0,0
1691759714922204,1500,1501,1259,1501,1000,0,0,0
1691759714926034,1499,1503,1259,1501,1000,0,0,0
1691759714929010,1497,1501,1260,1501,1000,0,0,0
1691759714932536,1501,1505,1253,1501,1000,0,0,0
1691759714936408,1497,1481,1267,1501,1000,0,0,0
1691759714940003,1498,1497,1259,1501,1000,0,0,0
1691759714943405,1499,1502,1260,1501,1000,0,0,0
1691759714947398,1499,1500,1260,1501,1000,0,0,0
1691759714951067,1502,1507,1249,1501,1000,0,0,0
1691759714955391,1498,1500,1258,1501,1000,0,0,0
1691759714958954,1498,1499,1262,1501,1000,0,0,0
1691759714961673,1499,1498,1259,1501,1000,0,0,0
1691759714966228,1500,1501,1254,1501,1000,0,0,0
1691759714969459,1499,1504,1255,1501,1000,0,0,0
1691759714973080,1502,1518,1257,1501,1000,0,0,0
1691759714977372,1497,1493,1266,1501,1000,0,0,0
1691759714979964,1497,1494,1264,1501,1000,0,0,0
1691759714983458,1497,1493,1265,1501,1000,0,0,0
1691759714987356,1498,1491,1264,1501,1000,0,0,0
1691759714991655,1497,1487,1261,1500,1000,0,0,0
1691759714995195,1497,1494,1261,1500,1000,0,0,0
1691759714998986,1498,1498,1261,1500,1000,0,0,0
1691759715002142,1496,1489,1266,1500,1000,0,0,0
1691759715006300,1501,1507,1249,1501,1000,0,0,0
1691759715008973,1498,1501,1259,1500,1000,0,0,0
1691759715012546,1499,1500,1261,1500,1000,0,0,0
1691759715016341,1499,1499,1262,1500,1000,0,0,0
1691759715020458,1501,1505,1253,1500,1000,0,0,0
1691759715024265,1498,1498,1262,1500,1000,0,0,0
1691759715028151,1499,1495,1261,1500,1000,0,0,0
1691759715030814,1497,1497,1264,1500,1000,0,0,0
1691759715034267,1498,1485,1263,1500,1000,0,0,0
1691759715039403,1503,1504,1251,1500,1000,0,0,0
1691759715042115,1500,1495,1262,1500,1000,0,0,0
1691759715046194,1499,1497,1262,1500,1000,0,0,0
1691759715049059,1498,1497,1259,1500,1000,0,0,0
1691759715052569,1500,1503,1251,1500,1000,0,0,0
1691759715056307,1498,1496,1260,1500,1000,0,0,0
1691759715059905,1499,1498,1259,1500,1000,0,0,0
1691759715063594,1498,1499,1258,1500,1000,0,0,0
1691759715067390,1500,1504,1251,1500,1000,0,0,0
1691759715071338,1499,1494,1260,1500,1000,0,0,0
1691759715075512,1500,1496,1261,1500,1000,0,0,0
1691759715078186,1500,1498,1259,1500,1000,0,0,0
1691759715081729,1498,1499,1257,1500,1000,0,0,0
1691759715085385,1502,1504,1250,1500,1000,0,0,0
1691759715089519,1499,1488,1262,1499,1000,0,0,0
1691759715092975,1501,1493,1262,1499,1000,0,0,0
1691759715096276,1501,1498,1259,1499,1000,0,0,0
1691759715100393,1500,1500,1259,1499,1000,0,0,0
1691759715104438,1504,1500,1251,1499,1000,0,0,0
1691759715107113,1500,1495,1260,1499,1000,0,0,0
1691759715111355,1500,1500,1257,1499,1000,0,0,0
1691759715115385,1500,1498,1261,1499,1000,0,0,0
1691759715117981,1501,1500,1252,1499,1000,0,0,0
1691759715122698,1502,1506,1250,1500,1000,0,0,0
1691759715125358,1499,1495,1264,1499,1000,0,0,0
1691759715129560,1500,1499,1260,1499,1000,0,0,0
1691759715133377,1500,1502,1258,1499,1000,0,0,0
1691759715137145,1499,1502,1259,1499,1000,0,0,0
1691759715139888,1502,1505,1252,1499,1000,0,0,0
1691759715143547,1499,1492,1260,1499,1000,0,0,0
1691759715147428,1500,1500,1260,1499,1000,0,0,0
1691759715151329,1503,1502,1258,1499,1000,0,0,0
1691759715155437,1502,1500,1260,1499,1000,0,0,0
1691759715158044,1504,1506,1251,1499,1000,0,0,0
1691759715162321,1500,1499,1259,1499,1000,0,0,0
1691759715166141,1501,1499,1259,1499,1000,0,0,0
1691759715169020,1501,1500,1259,1499,1000,0,0,0
1691759715172615,1501,1507,1252,1499,1000,0,0,0
1691759715176366,1498,1493,1260,1499,1000,0,0,0
1691759715180360,1501,1499,1259,1499,1000,0,0,0
1691759715184301,1503,1500,1259,1499,1000,0,0,0
1691759715187166,1502,1501,1257,1499,1000,0,0,0
1691759715191307,1502,1508,1248,1499,1000,0,0,0
1691759715195822,1501,1499,1262,1499,1000,0,0,0
1691759715198050,1500,1489,1266,1499,1000,0,0,0
1691759715201564,1502,1503,1253,1499,1000,0,0,0
1691759715205440,1502,1509,1249,1499,1000,0,0,0
1691759715209408,1500,1497,1259,1499,1000,0,0,0
1691759715213683,1503,1503,1258,1499,1000,0,0,0
1691759715216220,1502,1506,1257,1499,1000,0,0,0
1691759715220341,1500,1505,1258,1499,1000,0,0,0
1691759715224418,1504,1506,1250,1499,1000,0,0,0
1691759715227473,1500,1506,1255,1499,1000,0,0,0
1691759715230869,1500,1503,1258,1499,1000,0,0,0
1691759715235507,1502,1502,1258,1499,1000,0,0,0
1691759715238061,1502,1501,1259,1499,1000,0,0,0
1691759715241792,1503,1504,1255,1499,1000,0,0,0
1691759715247431,1502,1507,1252,1499,1000,0,0,0
1691759715250441,1505,1507,1250,1499,1000,0,0,0
1691759715253334,1502,1498,1263,1499,1000,0,0,0
1691759715256703,1502,1501,1261,1499,1000,0,0,0
1691759715260337,1500,1500,1262,1499,1000,0,0,0
1691759715264403,1503,1502,1253,1499,1000,0,0,0
1691759715267347,1504,1508,1251,1499,1000,0,0,0
1691759715270793,1500,1498,1262,1499,1000,0,0,0
1691759715275126,1501,1500,1260,1499,1000,0,0,0
1691759715279753,1503,1502,1259,1499,1000,0,0,0
1691759715282397,1501,1504,1257,1499,1000,0,0,0
1691759715286445,1502,1510,1251,1499,1000,0,0,0
1691759715289132,1501,1499,1263,1499,1000,0,0,0
1691759715292498,1501,1501,1263,1499,1000,0,0,0
1691759715296873,1500,1501,1259,1499,1000,0,0,0
1691759715300517,1501,1504,1253,1499,1000,0,0,0
1691759715304382,1499,1493,1265,1499,1000,0,0,0
1691759715307178,1501,1500,1260,1499,1000,0,0,0
1691759715310787,1500,1505,1259,1499,1000,0,0,0
1691759715314494,1499,1502,1261,1499,1000,0,0,0
1691759715318457,1504,1510,1250,1500,1000,0,0,0
1691759715322529,1500,1503,1261,1499,1000,0,0,0
1691759715325301,1499,1503,1260,1499,1000,0,0,0
1691759715329513,1498,1502,1262,1499,1000,0,0,0
1691759715333522,1502,1509,1250,1500,1000,0,0,0
1691759715336063,1498,1496,1261,1499,1000,0,0,0
1691759715339968,1498,1501,1260,1499,1000,0,0,0
1691759715343464,1500,1504,1261,1499,1000,0,0,0
1691759715347194,1501,1504,1254,1499,1000,0,0,0
1691759715350651,1507,1525,1248,1500,1000,0,0,0
1691759715354579,1499,1499,1265,1499,1000,0,0,0
1691759715358482,1499,1495,1264,1499,1000,0,0,0
1691759715363612,1499,1495,1258,1499,1000,0,0,0
1691759715370087,1501,1499,1255,1499,1000,0,0,0
1691759715370647,1501,1503,1253,1499,1000,0,0,0
1691759715372560,1504,1519,1252,1500,1000,0,0,0
1691759715376559,1497,1495,1262,1499,1000,0,0,0
1691759715379963,1498,1496,1264,1499,1000,0,0,0
1691759715383583,1496,1494,1259,1499,1000,0,0,0
1691759715387568,1496,1497,1260,1499,1000,0,0,0
1691759715392024,1498,1497,1257,1499,1000,0,0,0
1691759715394220,1499,1499,1257,1499,1000,0,0,0
1691759715398855,1497,1499,1258,1499,1000,0,0,0
1691759715402440,1502,1507,1254,1500,1000,0,0,0
1691759715405459,1499,1496,1261,1499,1000,0,0,0
1691759715408995,1497,1500,1262,1499,1000,0,0,0
1691759715412468,1496,1499,1263,1499,1000,0,0,0
1691759715416619,1502,1500,1255,1499,1000,0,0,0
1691759715420602,1503,1507,1253,1500,1000,0,0,0
1691759715424452,1497,1495,1264,1499,1000,0,0,0
1691759715427076,1498,1499,1261,1499,1000,0,0,0
1691759715430794,1500,1500,1258,1499,1000,0,0,0
1691759715434664,1498,1501,1257,1499,1000,0,0,0
1691759715438469,1500,1507,1255,1500,1000,0,0,0
1691759715442506,1498,1494,1265,1499,1000,0,0,0
1691759715445322,1499,1498,1259,1499,1000,0,0,0
1691759715449872,1497,1502,1260,1499,1000,0,0,0
1691759715452512,1496,1501,1262,1499,1000,0,0,0
1691759715456690,1502,1500,1254,1499,1000,0,0,0
1691759715460613,1499,1492,1262,1499,1000,0,0,0
1691759715464458,1499,1500,1260,1499,1000,0,0,0
1691759715467617,1498,1498,1264,1499,1000,0,0,0
1691759715471569,1503,1500,1254,1499,1000,0,0,0
1691759715474424,1499,1493,1263,1499,1000,0,0,0
1691759715478525,1497,1500,1258,1499,1000,0,0,0
1691759715482596,1499,1501,1259,1499,1000,0,0,0
1691759715485402,1500,1501,1256,1499,1000,0,0,0
1691759715489900,1506,1524,1250,1500,1000,0,0,0
1691759715492667,1497,1498,1262,1499,1000,0,0,0
1691759715496637,1498,1495,1264,1499,1000,0,0,0
1691759715500909,1498,1497,1255,1499,1000,0,0,0
1691759715503332,1499,1502,1254,1499,1000,0,0,0
1691759715507688,1504,1517,1252,1500,1000,0,0,0
1691759715512513,1497,1488,1267,1499,1000,0,0,0
1691759715514179,1496,1489,1261,1499,1000,0,0,0
1691759715518109,1496,1494,1258,1499,1000,0,0,0
1691759715521574,1496,1494,1264,1499,1000,0,0,0
1691759715525682,1502,1496,1252,1499,1000,0,0,0
1691759715529601,1502,1504,1252,1499,1000,0,0,0
1691759715533530,1496,1495,1266,1499,1000,0,0,0
1691759715536133,1497,1496,1264,1499,1000,0,0,0
1691759715539966,1498,1496,1260,1499,1000,0,0,0
1691759715543458,1500,1504,1255,1499,1000,0,0,0
1691759715549529,1497,1495,1262,1499,1000,0,0,0
1691759715550863,1497,1498,1258,1499,1000,0,0,0
1691759715554729,1499,1497,1262,1499,1000,0,0,0
1691759715558747,1500,1496,1258,1499,1000,0,0,0
1691759715561711,1500,1501,1257,1499,1000,0,0,0
1691759715565388,1498,1490,1265,1499,1000,0,0,0
1691759715569050,1498,1494,1262,1499,1000,0,0,0
1691759715573552,1498,1496,1259,1499,1000,0,0,0
1691759715576189,1498,1497,1259,1499,1000,0,0,0
1691759715579977,1505,1519,1252,1500,1000,0,0,0
1691759715583648,1498,1494,1265,1499,1000,0,0,0
1691759715587667,1496,1492,1263,1499,1000,0,0,0
1691759715592618,1494,1493,1263,1499,1000,0,0,0
1691759715594358,1500,1501,1255,1499,1000,0,0,0
1691759715597965,1498,1489,1259,1499,1000,0,0,0
1691759715602133,1497,1495,1261,1499,1000,0,0,0
1691759715605617,1497,1497,1261,1499,1000,0,0,0
1691759715609765,1502,1501,1254,1499,1000,0,0,0
1691759715612468,1498,1489,1262,1499,1000,0,0,0
1691759715616881,1497,1494,1259,1499,1000,0,0,0
1691759715620714,1499,1495,1257,1499,1000,0,0,0
1691759715623383,1500,1495,1258,1499,1000,0,0,0
1691759715627164,1501,1498,1257,1499,1000,0,0,0
1691759715630765,1497,1489,1264,1499,1000,0,0,0
1691759715634891,1497,1493,1258,1499,1000,0,0,0
1691759715638701,1498,1497,1259,1499,1000,0,0,0
1691759715642525,1498,1498,1255,1499,1000,0,0,0
1691759715645143,1504,1520,1251,1500,1000,0,0,0
1691759715649735,1497,1495,1263,1499,1000,0,0,0
1691759715652495,1498,1493,1263,1499,1000,0,0,0
1691759715656191,1496,1494,1258,1499,1000,0,0,0
1691759715659945,1498,1499,1254,1499,1000,0,0,0
1691759715663775,1498,1493,1259,1499,1000,0,0,0
1691759715668741,1498,1492,1260,1499,1000,0,0,0
1691759715674258,1497,1497,1260,1499,1000,0,0,0
1691759715674561,1498,1497,1265,1499,1000,0,0,0
1691759715677943,1502,1497,1252,1499,1000,0,0,0
1691759715681918,1499,1488,1264,1499,1000,0,0,0
1691759715686191,1497,1496,1256,1499,1000,0,0,0
1691759715692239,1501,1496,1258,1499,1000,0,0,0
1691759715692793,1503,1496,1257,1499,1000,0,0,0
1691759715696789,1501,1502,1255,1499,1000,0,0,0
1691759715700866,1498,1493,1263,1499,1000,0,0,0
1691759715703792,1498,1498,1258,1499,1000,0,0,0
1691759715707067,1499,1498,1257,1499,1000,0,0,0
1691759715710813,1499,1502,1254,1499,1000,0,0,0
1691759715714947,1505,1523,1249,1500,1000,0,0,0
1691759715718798,1497,1492,1264,1499,1000,0,0,0
1691759715722783,1499,1495,1262,1499,1000,0,0,0
1691759715725407,1499,1496,1256,1499,1000,0,0,0
1691759715728986,1500,1499,1260,1499,1000,0,0,0
1691759715732806,1501,1497,1259,1499,1000,0,0,0
1691759715736849,1500,1500,1259,1499,1000,0,0,0
1691759715739847,1500,1500,1259,1499,1000,0,0,0
1691759715743937,1508,1516,1255,1500,1000,0,0,0
1691759715747911,1500,1496,1264,1499,1000,0,0,0
1691759715751364,1497,1498,1262,1499,1000,0,0,0
1691759715754571,1498,1496,1261,1499,1000,0,0,0
1691759715758010,1502,1500,1257,1499,1000,0,0,0
1691759715762171,1503,1506,1255,1499,1000,0,0,0
1691759715765700,1506,1517,1256,1500,1000,0,0,0
1691759715769902,1500,1493,1268,1499,1000,0,0,0
1691759715772902,1499,1492,1263,1499,1000,0,0,0
1691759715777402,1498,1496,1264,1499,1000,0,0,0
1691759715780883,1500,1496,1257,1499,1000,0,0,0
1691759715783927,1504,1503,1256,1500,1000,0,0,0
1691759715788588,1499,1497,1266,1499,1000,0,0,0
1691759715790560,1499,1498,1265,1499,1000,0,0,0
1691759715794924,1499,1497,1262,1499,1000,0,0,0
1691759715798906,1508,1517,1255,1500,1000,0,0,0
1691759715802409,1500,1497,1269,1500,1000,0,0,0
1691759715806195,1497,1496,1262,1500,1000,0,0,0
1691759715808927,1499,1498,1261,1500,1000,0,0,0
1691759715812939,1501,1501,1259,1500,1000,0,0,0
1691759715816750,1499,1501,1265,1500,1000,0,0,0
1691759715820808,1500,1498,1262,1500,1000,0,0,0
1691759715823760,1500,1501,1261,1500,1000,0,0,0
1691759715827071,1500,1502,1260,1500,1000,0,0,0
1691759715830956,1503,1502,1254,1500,1000,0,0,0
1691759715836023,1500,1496,1266,1500,1000,0,0,0
1691759715839417,1500,1496,1263,1500,1000,0,0,0
1691759715841985,1501,1497,1261,1500,1000,0,0,0
1691759715846677,1501,1498,1256,1500,1000,0,0,0
1691759715850110,1504,1504,1254,1500,1000,0,0,0
1691759715852497,1500,1497,1268,1500,1000,0,0,0
1691759715856219,1499,1499,1265,1500,1000,0,0,0
1691759715860014,1499,1502,1261,1500,1000,0,0,0
1691759715863917,1500,1505,1257,1500,1000,0,0,0
1691759715867983,1500,1500,1263,1500,1000,0,0,0
1691759715871033,1501,1497,1261,1500,1000,0,0,0
1691759715874329,1500,1503,1258,1500,1000,0,0,0
1691759715879009,1498,1502,1261,1500,1000,0,0,0
1691759715881847,1502,1504,1256,1500,1000,0,0,0
1691759715886068,1509,1522,1255,1500,1000,0,0,0
1691759715889406,1497,1498,1261,1500,1000,0,0,0
1691759715893028,1499,1493,1261,1500,1000,0,0,0
1691759715897880,1500,1495,1262,1500,1000,0,0,0
1691759715899619,1501,1497,1258,1500,1000,0,0,0
1691759715903928,1497,1489,1267,1499,1000,0,0,0
1691759715907299,1499,1497,1259,1500,1000,0,0,0
1691759715911140,1499,1501,1260,1500,1000,0,0,0
1691759715914862,1500,1501,1257,1500,1000,0,0,0
1691759715918107,1499,1500,1261,1500,1000,0,0,0
1691759715921930,1499,1499,1258,1500,1000,0,0,0
1691759715925985,1500,1501,1261,1500,1000,0,0,0
1691759715928929,1499,1503,1255,1500,1000,0,0,0
1691759715932971,1505,1523,1252,1500,1000,0,0,0
1691759715937019,1499,1494,1265,1500,1000,0,0,0
1691759715939849,1499,1496,1262,1500,1000,0,0,0
1691759715944840,1498,1500,1261,1500,1000,0,0,0
1691759715948157,1497,1498,1259,1500,1000,0,0,0
1691759715951185,1501,1501,1254,1500,1000,0,0,0
1691759715954450,1499,1501,1264,1500,1000,0,0,0
1691759715957932,1497,1497,1259,1500,1000,0,0,0
1691759715962097,1499,1497,1258,1500,1000,0,0,0
1691759715965944,1502,1498,1257,1500,1000,0,0,0
1691759715970024,1507,1518,1257,1500,1000,0,0,0
1691759715972513,1498,1497,1267,1500,1000,0,0,0
1691759715976292,1497,1495,1261,1500,1000,0,0,0
1691759715980516,1498,1495,1257,1500,1000,0,0,0
1691759715988195,1498,1500,1253,1500,1000,0,0,0
1691759715988390,1505,1520,1250,1500,1000,0,0,0
1691759715992394,1497,1492,1266,1500,1000,0,0,0
1691759715999419,1497,1497,1260,1500,1000,0,0,0
1691759716002117,1497,1500,1256,1500,1000,0,0,0
1691759716006364,1503,1502,1253,1500,1000,0,0,0
1691759716010239,1497,1494,1265,1500,1000,0,0,0
1691759716012506,1497,1499,1265,1500,1000,0,0,0
1691759716016158,1499,1502,1262,1500,1000,0,0,0
1691759716019922,1500,1504,1260,1500,1000,0,0,0
1691759716023374,1505,1522,1255,1500,1000,0,0,0
1691759716027139,1497,1495,1262,1500,1000,0,0,0
1691759716030603,1499,1494,1260,1499,1000,0,0,0
1691759716034262,1499,1497,1260,1500,1000,0,0,0
1691759716037965,1499,1499,1258,1500,1000,0,0,0
1691759716041504,1503,1516,1254,1500,1000,0,0,0
1691759716045411,1504,1516,1254,1500,1000,0,0,0
1691759716048864,1495,1491,1265,1500,1000,0,0,0
1691759716053200,1494,1493,1263,1500,1000,0,0,0
1691759716056979,1497,1495,1263,1500,1000,0,0,0
1691759716059682,1498,1499,1259,1500,1000,0,0,0
1691759716063749,1504,1516,1256,1500,1000,0,0,0
1691759716067076,1496,1491,1265,1500,1000,0,0,0
1691759716071172,1496,1494,1263,1500,1000,0,0,0
1691759716075052,1497,1498,1263,1500,1000,0,0,0
1691759716078221,1501,1500,1256,1500,1000,0,0,0
1691759716082169,1500,1516,1259,1500,1000,0,0,0
1691759716086742,1497,1493,1262,1500,1000,0,0,0
1691759716090121,1498,1494,1263,1500,1000,0,0,0
1691759716092924,1498,1496,1261,1500,1000,0,0,0
1691759716096341,1504,1516,1254,1500,1000,0,0,0
1691759716100575,1497,1492,1265,1500,1000,0,0,0
1691759716105377,1497,1492,1262,1500,1000,0,0,0
1691759716108006,1497,1495,1262,1500,1000,0,0,0
1691759716111066,1499,1497,1260,1500,1000,0,0,0
1691759716114404,1506,1514,1257,1500,1000,0,0,0
1691759716118160,1497,1489,1265,1499,1000,0,0,0
1691759716122244,1495,1492,1261,1500,1000,0,0,0
1691759716126148,1496,1497,1263,1500,1000,0,0,0
1691759716129034,1501,1497,1256,1500,1000,0,0,0
1691759716132488,1497,1488,1262,1499,1000,0,0,0
1691759716136194,1496,1497,1263,1500,1000,0,0,0
1691759716140199,1497,1502,1262,1500,1000,0,0,0
1691759716144118,1499,1500,1260,1500,1000,0,0,0
1691759716148066,1500,1504,1254,1500,1000,0,0,0
1691759716150623,1495,1494,1264,1499,1000,0,0,0
1691759716154312,1499,1496,1259,1499,1000,0,0,0
1691759716158192,1500,1499,1261,1499,1000,0,0,0
1691759716162530,1500,1502,1260,1499,1000,0,0,0
1691759716165459,1497,1498,1264,1499,1000,0,0,0
1691759716168870,1499,1496,1262,1499,1000,0,0,0
1691759716172956,1501,1496,1261,1499,1000,0,0,0
1691759716178356,1498,1499,1261,1499,1000,0,0,0
1691759716180171,1507,1517,1252,1500,1000,0,0,0
1691759716184602,1498,1492,1268,1499,1000,0,0,0
1691759716188041,1497,1492,1264,1499,1000,0,0,0
1691759716192145,1497,1495,1264,1499,1000,0,0,0
1691759716194321,1499,1496,1256,1499,1000,0,0,0
1691759716198283,1498,1494,1261,1499,1000,0,0,0
1691759716202216,1498,1488,1262,1499,1000,0,0,0
1691759716206338,1497,1494,1260,1499,1000,0,0,0
1691759716208822,1499,1496,1258,1499,1000,0,0,0
1691759716213416,1500,1499,1256,1499,1000,0,0,0
1691759716216280,1497,1487,1262,1499,1000,0,0,0
1691759716220364,1498,1495,1259,1499,1000,0,0,0
1691759716224357,1501,1496,1259,1499,1000,0,0,0
1691759716228101,1504,1503,1255,1499,1000,0,0,0
1691759716230613,1497,1493,1267,1499,1000,0,0,0
1691759716235320,1497,1496,1263,1499,1000,0,0,0
1691759716237963,1498,1499,1263,1499,1000,0,0,0
1691759716242063,1501,1500,1257,1499,1000,0,0,0
1691759716245424,1497,1489,1261,1499,1000,0,0,0
1691759716249392,1497,1496,1259,1499,1000,0,0,0
1691759716253214,1499,1500,1261,1499,1000,0,0,0
1691759716257210,1501,1501,1257,1499,1000,0,0,0
1691759716259810,1509,1517,1249,1500,1000,0,0,0
1691759716263470,1497,1495,1263,1499,1000,0,0,0
1691759716267283,1496,1495,1264,1499,1000,0,0,0
1691759716271803,1499,1494,1260,1499,1000,0,0,0
1691759716275332,1503,1494,1252,1499,1000,0,0,0
1691759716278453,1497,1487,1260,1499,1000,0,0,0
1691759716282156,1498,1495,1260,1499,1000,0,0,0
1691759716285694,1500,1497,1262,1499,1000,0,0,0
1691759716290560,1498,1497,1261,1499,1000,0,0,0
1691759716293303,1497,1498,1259,1499,1000,0,0,0
1691759716296243,1499,1498,1256,1499,1000,0,0,0
1691759716302000,1501,1497,1254,1499,1000,0,0,0
1691759716304393,1508,1518,1251,1500,1000,0,0,0
1691759716307018,1497,1498,1261,1499,1000,0,0,0
1691759716311042,1497,1497,1260,1499,1000,0,0,0
1691759716315740,1499,1493,1256,1499,1000,0,0,0
1691759716318253,1507,1516,1246,1500,1000,0,0,0
1691759716322451,1496,1492,1263,1499,1000,0,0,0
1691759716326174,1497,1493,1261,1499,1000,0,0,0
1691759716328980,1500,1496,1259,1499,1000,0,0,0
1691759716332543,1500,1500,1255,1499,1000,0,0,0
1691759716336407,1497,1499,1256,1499,1000,0,0,0
1691759716340411,1501,1496,1256,1499,1000,0,0,0
1691759716344321,1502,1497,1259,1499,1000,0,0,0
1691759716346988,1501,1502,1256,1499,1000,0,0,0
1691759716350717,1498,1502,1259,1499,1000,0,0,0
1691759716354430,1500,1496,1257,1499,1000,0,0,0
1691759716358327,1501,1499,1254,1499,1000,0,0,0
1691759716362255,1501,1500,1254,1499,1000,0,0,0
1691759716365340,1506,1518,1253,1500,1000,0,0,0
1691759716368964,1502,1520,1258,1500,1000,0,0,0
1691759716372651,1499,1490,1256,1499,1000,0,0,0
1691759716376394,1498,1492,1256,1499,1000,0,0,0
1691759716380535,1500,1495,1258,1499,1000,0,0,0
1691759716384436,1503,1499,1257,1499,1000,0,0,0
1691759716386975,1509,1521,1250,1500,1000,0,0,0
1691759716391373,1497,1494,1262,1499,1000,0,0,0
1691759716395138,1501,1494,1206,1499,1000,0,0,0
1691759716397987,1504,1499,1198,1499,1000,0,0,0
1691759716403932,1503,1503,1195,1499,1000,0,0,0
1691759716406211,1513,1527,1190,1500,1000,0,0,0
1691759716409538,1507,1524,1199,1500,1000,0,0,0
1691759716413435,1501,1487,1200,1499,1000,0,0,0
1691759716416406,1499,1488,1195,1499,1000,0,0,0
1691759716419737,1500,1495,1197,1499,1000,0,0,0
1691759716423570,1503,1496,1198,1499,1000,0,0,0
1691759716427463,1504,1504,1199,1500,1000,0,0,0
1691759716431393,1514,1529,1193,1501,1000,0,0,0
1691759716435189,1505,1505,1202,1500,1000,0,0,0
1691759716437919,1502,1500,1208,1499,1000,0,0,0
1691759716441650,1502,1504,1210,1500,1000,0,0,0
1691759716445476,1502,1502,1214,1500,1000,0,0,0
1691759716449601,1502,1499,1212,1499,1000,0,0,0
1691759716453507,1503,1501,1213,1499,1000,0,0,0
1691759716456141,1501,1494,1218,1499,1000,0,0,0
1691759716459839,1511,1520,1212,1500,1000,0,0,0
1691759716463514,1503,1507,1221,1500,1000,0,0,0
1691759716467568,1501,1503,1225,1499,1000,0,0,0
1691759716471433,1501,1503,1225,1499,1000,0,0,0
1691759716475401,1500,1500,1225,1499,1000,0,0,0
1691759716478580,1500,1502,1228,1499,1000,0,0,0
1691759716482481,1501,1502,1230,1499,1000,0,0,0
1691759716485391,1501,1500,1232,1499,1000,0,0,0
1691759716488973,1500,1500,1233,1499,1000,0,0,0
1691759716492575,1500,1499,1235,1499,1000,0,0,0
1691759716496433,1500,1500,1238,1499,1000,0,0,0
1691759716500609,1500,1499,1239,1499,1000,0,0,0
1691759716504317,1500,1500,1241,1499,1000,0,0,0
1691759716507073,1500,1501,1241,1499,1000,0,0,0
1691759716510697,1500,1502,1241,1499,1000,0,0,0
1691759716514502,1500,1503,1242,1499,1000,0,0,0
1691759716518995,1500,1504,1243,1499,1000,0,0,0
1691759716522700,1500,1505,1243,1499,1000,0,0,0
1691759716525784,1500,1504,1244,1499,1000,0,0,0
1691759716528804,1500,1504,1245,1499,1000,0,0,0
1691759716532723,1500,1505,1246,1499,1000,0,0,0
1691759716536536,1500,1505,1247,1499,1000,0,0,0
1691759716540639,1500,1505,1247,1499,1000,0,0,0
1691759716544390,1504,1516,1246,1499,1000,0,0,0
1691759716551086,1504,1515,1246,1499,1000,0,0,0
1691759716551794,1500,1504,1249,1499,1000,0,0,0
1691759716554149,1498,1503,1249,1499,1000,0,0,0
1691759716558023,1498,1503,1250,1499,1000,0,0,0
1691759716567001,1498,1502,1251,1499,1000,0,0,0
1691759716567351,1499,1503,1252,1499,1000,0,0,0
1691759716569450,1499,1503,1252,1499,1000,0,0,0
1691759716572597,1499,1503,1253,1499,1000,0,0,0
1691759716576615,1499,1502,1253,1499,1000,0,0,0
1691759716580650,1503,1511,1255,1499,1000,0,0,0
1691759716584510,1500,1502,1255,1499,1000,0,0,0
1691759716587054,1499,1501,1256,1499,1000,0,0,0
1691759716590825,1499,1501,1257,1499,1000,0,0,0
1691759716594658,1499,1503,1257,1499,1000,0,0,0
1691759716598588,1502,1511,1259,1500,1000,0,0,0
1691759716601467,1500,1514,1262,1500,1000,0,0,0
1691759716606283,1498,1500,1261,1499,1000,0,0,0
1691759716609646,1497,1498,1259,1499,1000,0,0,0
1691759716613405,1498,1499,1262,1499,1000,0,0,0
1691759716616144,1498,1499,1260,1499,1000,0,0,0
1691759716620976,1500,1505,1259,1500,1000,0,0,0
1691759716623425,1497,1496,1263,1499,1000,0,0,0
1691759716627216,1497,1496,1262,1499,1000,0,0,0
1691759716630621,1496,1498,1262,1499,1000,0,0,0
1691759716634281,1497,1499,1260,1499,1000,0,0,0
1691759716638040,1497,1495,1262,1499,1000,0,0,0
1691759716641663,1497,1497,1261,1499,1000,0,0,0
1691759716645690,1497,1498,1261,1499,1000,0,0,0
1691759716649697,1496,1498,1262,1499,1000,0,0,0
1691759716652577,1497,1496,1262,1499,1000,0,0,0
1691759716656575,1497,1498,1262,1499,1000,0,0,0
1691759716660778,1497,1498,1260,1499,1000,0,0,0
1691759716663370,1501,1506,1261,1500,1000,0,0,0
1691759716667127,1499,1495,1263,1499,1000,0,0,0
1691759716670760,1498,1496,1263,1499,1000,0,0,0
1691759716674611,1497,1495,1261,1499,1000,0,0,0
1691759716678668,1500,1503,1260,1500,1000,0,0,0
1691759716682561,1498,1493,1263,1499,1000,0,0,0
1691759716685385,1497,1494,1261,1499,1000,0,0,0
1691759716688889,1496,1495,1260,1499,1000,0,0,0
1691759716692639,1497,1496,1259,1499,1000,0,0,0
1691759716696044,1497,1492,1260,1499,1000,0,0,0
1691759716699870,1497,1495,1260,1499,1000,0,0,0
1691759716703623,1497,1496,1259,1499,1000,0,0,0
1691759716707764,1496,1495,1259,1499,1000,0,0,0
1691759716710761,1497,1495,1259,1499,1000,0,0,0
1691759716715133,1497,1496,1260,1499,1000,0,0,0
1691759716717976,1499,1502,1260,1500,1000,0,0,0
1691759716721836,1497,1492,1261,1499,1000,0,0,0
1691759716725417,1497,1494,1258,1499,1000,0,0,0
1691759716728875,1497,1495,1258,1499,1000,0,0,0
1691759716732783,1497,1495,1257,1499,1000,0,0,0
1691759716736779,1497,1492,1259,1499,1000,0,0,0
1691759716740861,1497,1495,1258,1499,1000,0,0,0
1691759716743430,1497,1496,1257,1499,1000,0,0,0
1691759716747071,1498,1497,1256,1499,1000,0,0,0
1691759716750759,1498,1493,1258,1499,1000,0,0,0
1691759716754770,1498,1496,1257,1499,1000,0,0,0
1691759716758819,1498,1497,1257,1499,1000,0,0,0
1691759716761595,1498,1497,1256,1499,1000,0,0,0
1691759716765775,1498,1494,1257,1499,1000,0,0,0
1691759716769784,1498,1496,1257,1499,1000,0,0,0
1691759716772432,1499,1497,1258,1499,1000,0,0,0
1691759716776802,1499,1496,1256,1499,1000,0,0,0
1691759716780754,1502,1502,1256,1500,1000,0,0,0
1691759716783470,1499,1497,1257,1499,1000,0,0,0
1691759716787006,1499,1496,1257,1499,1000,0,0,0
1691759716790946,1499,1496,1257,1499,1000,0,0,0
1691759716794796,1499,1497,1256,1499,1000,0,0,0
1691759716798837,1499,1493,1258,1499,1000,0,0,0
1691759716801545,1500,1495,1257,1499,1000,0,0,0
1691759716806076,1500,1496,1257,1499,1000,0,0,0
1691759716809696,1500,1498,1256,1499,1000,0,0,0
1691759716812415,1503,1503,1256,1500,1000,0,0,0
1691759716816177,1501,1496,1257,1499,1000,0,0,0
1691759716819806,1500,1497,1256,1499,1000,0,0,0
1691759716824157,1500,1498,1257,1499,1000,0,0,0
1691759716827759,1503,1503,1258,1500,1000,0,0,0
1691759716831676,1501,1493,1260,1499,1000,0,0,0
1691759716834188,1500,1495,1258,1499,1000,0,0,0
1691759716838786,1501,1498,1258,1499,1000,0,0,0
1691759716841858,1501,1498,1258,1499,1000,0,0,0
1691759716845871,1504,1503,1257,1500,1000,0,0,0
1691759716849971,1501,1494,1258,1499,1000,0,0,0
1691759716852437,1500,1496,1257,1499,1000,0,0,0
1691759716856343,1501,1498,1257,1499,1000,0,0,0
1691759716859862,1501,1498,1257,1499,1000,0,0,0
1691759716863903,1504,1505,1257,1500,1000,0,0,0
1691759716867880,1502,1498,1258,1500,1000,0,0,0
1691759716871435,1502,1497,1258,1499,1000,0,0,0
1691759716874897,1501,1498,1257,1500,1000,0,0,0
1691759716878807,1502,1500,1257,1500,1000,0,0,0
1691759716881491,1502,1495,1260,1499,1000,0,0,0
1691759716885590,1502,1497,1259,1499,1000,0,0,0
1691759716888910,1501,1498,1258,1500,1000,0,0,0
1691759716892854,1501,1499,1257,1500,1000,0,0,0
1691759716896807,1505,1506,1258,1500,1000,0,0,0
1691759716900672,1503,1498,1259,1500,1000,0,0,0
1691759716903829,1501,1499,1258,1500,1000,0,0,0
1691759716907095,1501,1500,1258,1500,1000,0,0,0
1691759716910985,1502,1501,1256,1500,1000,0,0,0
1691759716914858,1502,1496,1258,1499,1000,0,0,0
1691759716918888,1501,1499,1258,1500,1000,0,0,0
1691759716921493,1501,1500,1258,1500,1000,0,0,0
1691759716925632,1502,1500,1258,1500,1000,0,0,0
1691759716928975,1502,1501,1257,1500,1000,0,0,0
1691759716932948,1501,1499,1258,1500,1000,0,0,0
1691759716937027,1502,1500,1259,1500,1000,0,0,0
1691759716940599,1503,1501,1259,1500,1000,0,0,0
1691759716943376,1502,1502,1258,1500,1000,0,0,0
1691759716947087,1501,1498,1259,1499,1000,0,0,0
1691759716951394,1502,1500,1258,1500,1000,0,0,0
1691759716955363,1503,1501,1259,1500,1000,0,0,0
1691759716958872,1502,1502,1258,1500,1000,0,0,0
1691759716961565,1502,1503,1257,1500,1000,0,0,0
1691759716965351,1502,1500,1257,1500,1000,0,0,0
1691759716969020,1501,1502,1257,1500,1000,0,0,0
1691759716973885,1502,1503,1258,1500,1000,0,0,0
1691759716977380,1505,1510,1258,1500,1000,0,0,0
1691759716980871,1502,1500,1258,1500,1000,0,0,0
1691759716983391,1501,1501,1257,1500,1000,0,0,0
1691759716987113,1501,1502,1257,1500,1000,0,0,0
1691759716990924,1501,1502,1257,1500,1000,0,0,0
1691759716995054,1506,1508,1257,1500,1000,0,0,0
1691759716999972,1501,1501,1257,1500,1000,0,0,0
1691759717004625,1500,1501,1257,1500,1000,0,0,0
1691759717005173,1500,1501,1257,1500,1000,0,0,0
1691759717009046,1503,1506,1257,1500,1000,0,0,0
1691759717012964,1500,1500,1258,1500,1000,0,0,0
1691759717016909,1499,1500,1257,1500,1000,0,0,0
1691759717019922,1499,1501,1257,1500,1000,0,0,0
1691759717023947,1500,1501,1256,1500,1000,0,0,0
1691759717028363,1503,1508,1256,1500,1000,0,0,0
1691759717030512,1500,1501,1257,1500,1000,0,0,0
1691759717034400,1499,1500,1257,1500,1000,0,0,0
1691759717037971,1500,1501,1257,1500,1000,0,0,0
1691759717042255,1499,1501,1256,1500,1000,0,0,0
1691759717045366,1499,1499,1258,1500,1000,0,0,0
1691759717048920,1499,1500,1257,1500,1000,0,0,0
1691759717052979,1499,1500,1257,1500,1000,0,0,0
1691759717056955,1499,1501,1256,1500,1000,0,0,0
1691759717059949,1498,1498,1257,1499,1000,0,0,0
1691759717064060,1499,1499,1257,1499,1000,0,0,0
1691759717068108,1499,1500,1257,1499,1000,0,0,0
1691759717071055,1499,1501,1257,1499,1000,0,0,0
1691759717074963,1498,1497,1257,1499,1000,0,0,0
1691759717078808,1498,1499,1257,1499,1000,0,0,0
1691759717081537,1499,1501,1257,1499,1000,0,0,0
1691759717085386,1499,1500,1257,1499,1000,0,0,0
1691759717089044,1503,1507,1257,1500,1000,0,0,0
1691759717092944,1499,1501,1257,1499,1000,0,0,0
1691759717097128,1498,1500,1256,1499,1000,0,0,0
1691759717099692,1498,1500,1256,1499,1000,0,0,0
1691759717103381,1498,1500,1256,1499,1000,0,0,0
1691759717107028,1502,1507,1256,1500,1000,0,0,0
1691759717110883,1499,1500,1257,1499,1000,0,0,0
1691759717114412,1498,1499,1257,1499,1000,0,0,0
1691759717118246,1497,1499,1256,1499,1000,0,0,0
1691759717122151,1498,1499,1256,1499,1000,0,0,0
1691759717125955,1498,1499,1257,1499,1000,0,0,0
1691759717129469,1498,1498,1257,1499,1000,0,0,0
1691759717132411,1498,1498,1257,1499,1000,0,0,0
1691759717136153,1498,1499,1257,1499,1000,0,0,0
1691759717139665,1502,1504,1256,1499,1000,0,0,0
1691759717143929,1499,1497,1257,1499,1000,0,0,0
1691759717147541,1498,1497,1257,1499,1000,0,0,0
1691759717150995,1498,1497,1257,1499,1000,0,0,0
1691759717155040,1498,1498,1256,1499,1000,0,0,0
1691759717157929,1498,1495,1258,1499,1000,0,0,0
1691759717162481,1498,1497,1257,1499,1000,0,0,0
1691759717166049,1499,1497,1258,1499,1000,0,0,0
1691759717170511,1498,1497,1257,1499,1000,0,0,0
1691759717172497,1502,1503,1256,1499,1000,0,0,0
1691759717176113,1499,1497,1257,1499,1000,0,0,0
1691759717180080,1498,1497,1257,1499,1000,0,0,0
1691759717184107,1498,1497,1257,1499,1000,0,0,0
1691759717187036,1500,1502,1257,1499,1000,0,0,0
1691759717191302,1499,1495,1258,1499,1000,0,0,0
1691759717195199,1498,1495,1257,1499,1000,0,0,0
1691759717197912,1498,1497,1257,1499,1000,0,0,0
1691759717202163,1498,1497,1257,1499,1000,0,0,0
1691759717206186,1501,1502,1257,1499,1000,0,0,0
1691759717209031,1499,1494,1258,1499,1000,0,0,0
1691759717213085,1498,1496,1257,1499,1000,0,0,0
1691759717216098,1498,1497,1256,1499,1000,0,0,0
1691759717219709,1499,1496,1256,1499,1000,0,0,0
1691759717223301,1501,1501,1256,1499,1000,0,0,0
1691759717226961,1499,1496,1257,1499,1000,0,0,0
1691759717231133,1498,1497,1256,1499,1000,0,0,0
1691759717235039,1499,1496,1256,1499,1000,0,0,0
1691759717237910,1498,1497,1256,1499,1000,0,0,0
1691759717241528,1502,1502,1255,1499,1000,0,0,0
1691759717245446,1500,1495,1257,1499,1000,0,0,0
1691759717249424,1499,1496,1257,1499,1000,0,0,0
1691759717253224,1499,1497,1256,1499,1000,0,0,0
1691759717256144,1498,1497,1256,1499,1000,0,0,0
1691759717260031,1502,1502,1256,1499,1000,0,0,0
1691759717264159,1500,1493,1258,1499,1000,0,0,0
1691759717267970,1499,1496,1257,1499,1000,0,0,0
1691759717271232,1499,1497,1256,1499,1000,0,0,0
1691759717275331,1500,1497,1256,1499,1000,0,0,0
1691759717278121,1500,1497,1256,1499,1000,0,0,0
1691759717282193,1499,1494,1256,1499,1000,0,0,0
1691759717286153,1499,1497,1256,1499,1000,0,0,0
1691759717289000,1500,1497,1256,1499,1000,0,0,0
1691759717293062,1499,1498,1256,1499,1000,0,0,0
1691759717296191,1503,1503,1255,1499,1000,0,0,0
1691759717300345,1501,1496,1256,1499,1000,0,0,0
1691759717304222,1500,1497,1256,1499,1000,0,0,0
1691759717307451,1499,1498,1256,1499,1000,0,0,0
1691759717310761,1499,1498,1256,1499,1000,0,0,0
1691759717314928,1501,1499,1256,1499,1000,0,0,0
1691759717317859,1501,1495,1257,1499,1000,0,0,0
1691759717321512,1500,1497,1256,1499,1000,0,0,0
1691759717325067,1500,1498,1256,1499,1000,0,0,0
1691759717329988,1501,1498,1256,1499,1000,0,0,0
1691759717334339,1501,1499,1256,1499,1000,0,0,0
1691759717336647,1500,1497,1256,1499,1000,0,0,0
1691759717340240,1500,1498,1256,1499,1000,0,0,0
1691759717343506,1501,1499,1256,1499,1000,0,0,0
1691759717347363,1500,1499,1256,1499,1000,0,0,0
1691759717351342,1504,1505,1255,1499,1000,0,0,0
1691759717356367,1502,1497,1256,1499,1000,0,0,0
1691759717358911,1501,1498,1256,1499,1000,0,0,0
1691759717361570,1500,1500,1256,1499,1000,0,0,0
1691759717365366,1500,1499,1256,1499,1000,0,0,0
1691759717369482,1501,1499,1256,1499,1000,0,0,0
1691759717373561,1506,1506,1255,1499,1000,0,0,0
1691759717377366,1501,1499,1256,1499,1000,0,0,0
1691759717380087,1501,1499,1256,1499,1000,0,0,0
1691759717383300,1501,1499,1256,1499,1000,0,0,0
1691759717387043,1500,1500,1256,1499,1000,0,0,0
1691759717390761,1503,1505,1256,1499,1000,0,0,0
1691759717394239,1505,1507,1255,1499,1000,0,0,0
1691759717398272,1502,1499,1256,1499,1000,0,0,0
1691759717401591,1500,1500,1256,1499,1000,0,0,0
1691759717405366,1500,1500,1256,1499,1000,0,0,0
1691759717408778,1501,1500,1256,1499,1000,0,0,0
1691759717413058,1504,1506,1256,1499,1000,0,0,0
1691759717416308,1503,1506,1256,1499,1000,0,0,0
1691759717420278,1502,1498,1257,1499,1000,0,0,0
1691759717425449,1500,1499,1256,1499,1000,0,0,0
1691759717427327,1500,1500,1256,1499,1000,0,0,0
1691759717431116,1500,1500,1256,1499,1000,0,0,0
1691759717434605,1505,1505,1256,1500,1000,0,0,0
1691759717438350,1502,1499,1257,1499,1000,0,0,0
1691759717443059,1500,1499,1256,1499,1000,0,0,0
1691759717445400,1500,1500,1256,1499,1000,0,0,0
1691759717450487,1500,1500,1257,1499,1000,0,0,0
1691759717453701,1504,1507,1257,1500,1000,0,0,0
1691759717456493,1501,1499,1257,1499,1000,0,0,0
1691759717460092,1500,1499,1257,1499,1000,0,0,0
1691759717463923,1500,1500,1257,1499,1000,0,0,0
1691759717467457,1500,1501,1256,1500,1000,0,0,0
1691759717471449,1500,1501,1256,1500,1000,0,0,0
1691759717475310,1506,1508,1256,1500,1000,0,0,0
1691759717477939,1501,1502,1257,1500,1000,0,0,0
1691759717481505,1499,1501,1257,1500,1000,0,0,0
1691759717485337,1500,1501,1257,1500,1000,0,0,0
1691759717489717,1500,1501,1257,1500,1000,0,0,0
1691759717493657,1504,1508,1256,1500,1000,0,0,0
1691759717496381,1500,1500,1258,1500,1000,0,0,0
1691759717500506,1499,1500,1257,1500,1000,0,0,0
1691759717503390,1499,1501,1257,1500,1000,0,0,0
1691759717507449,1499,1501,1257,1500,1000,0,0,0
1691759717511445,1499,1501,1257,1500,1000,0,0,0
1691759717514283,1504,1511,1257,1500,1000,0,0,0
1691759717517835,1499,1503,1257,1500,1000,0,0,0
1691759717521575,1498,1502,1257,1500,1000,0,0,0
1691759717525349,1499,1501,1258,1500,1000,0,0,0
1691759717529482,1499,1502,1257,1500,1000,0,0,0
1691759717533408,1503,1510,1257,1500,1000,0,0,0
1691759717536214,1499,1502,1258,1500,1000,0,0,0
1691759717539670,1498,1501,1257,1500,1000,0,0,0
1691759717543387,1498,1502,1258,1500,1000,0,0,0
1691759717547444,1498,1502,1258,1500,1000,0,0,0
1691759717551441,1501,1509,1258,1500,1000,0,0,0
1691759717554242,1498,1501,1258,1500,1000,0,0,0
1691759717557956,1497,1501,1257,1500,1000,0,0,0
1691759717561573,1497,1502,1258,1500,1000,0,0,0
1691759717565538,1498,1501,1257,1500,1000,0,0,0
1691759717569482,1502,1509,1258,1500,1000,0,0,0
1691759717572487,1498,1501,1258,1500,1000,0,0,0
1691759717576084,1498,1501,1257,1500,1000,0,0,0
1691759717579779,1498,1501,1257,1500,1000,0,0,0
1691759717583401,1498,1501,1257,1500,1000,0,0,0
1691759717586945,1498,1502,1257,1500,1000,0,0,0
1691759717590765,1502,1510,1257,1500,1000,0,0,0
1691759717594376,1498,1501,1257,1500,1000,0,0,0
1691759717598513,1497,1501,1257,1499,1000,0,0,0
1691759717602150,1497,1501,1257,1499,1000,0,0,0
1691759717605533,1497,1500,1257,1499,1000,0,0,0
1691759717609524,1502,1508,1258,1500,1000,0,0,0
1691759717613443,1503,1511,1257,1500,1000,0,0,0
1691759717616066,1498,1502,1257,1500,1000,0,0,0
1691759717619858,1497,1500,1257,1499,1000,0,0,0
1691759717623541,1497,1500,1257,1499,1000,0,0,0
1691759717628820,1497,1500,1257,1499,1000,0,0,0
1691759717631553,1500,1505,1257,1500,1000,0,0,0
1691759717634266,1498,1499,1258,1499,1000,0,0,0
1691759717638959,1497,1499,1257,1499,1000,0,0,0
1691759717642505,1497,1499,1257,1499,1000,0,0,0
1691759717645147,1497,1499,1257,1499,1000,0,0,0
1691759717649510,1498,1500,1257,1499,1000,0,0,0
1691759717652487,1497,1497,1257,1499,1000,0,0,0
1691759717656540,1497,1499,1257,1499,1000,0,0,0
1691759717660518,1498,1500,1258,1499,1000,0,0,0
1691759717664386,1498,1500,1257,1499,1000,0,0,0
1691759717667045,1498,1501,1257,1499,1000,0,0,0
1691759717670572,1500,1512,1259,1500,1000,0,0,0
1691759717674478,1498,1502,1257,1499,1000,0,0,0
1691759717678529,1498,1500,1257,1499,1000,0,0,0
1691759717682532,1498,1499,1257,1499,1000,0,0,0
1691759717685528,1497,1500,1257,1499,1000,0,0,0
1691759717689019,1498,1501,1257,1499,1000,0,0,0
1691759717692630,1503,1509,1257,1500,1000,0,0,0
1691759717696530,1499,1500,1257,1499,1000,0,0,0
1691759717700648,1498,1499,1257,1499,1000,0,0,0
1691759717703304,1498,1499,1258,1499,1000,0,0,0
1691759717707073,1498,1499,1257,1499,1000,0,0,0
1691759717710644,1498,1500,1257,1499,1000,0,0,0
1691759717714727,1498,1498,1258,1499,1000,0,0,0
1691759717718595,1498,1498,1258,1499,1000,0,0,0
1691759717722417,1498,1498,1258,1499,1000,0,0,0
1691759717725175,1498,1499,1258,1499,1000,0,0,0
1691759717728964,1499,1499,1258,1499,1000,0,0,0
1691759717732810,1504,1508,1258,1499,1000,0,0,0
1691759717736716,1499,1499,1258,1499,1000,0,0,0
1691759717740853,1498,1498,1257,1499,1000,0,0,0
1691759717743652,1499,1498,1258,1499,1000,0,0,0
1691759717747598,1499,1498,1258,1499,1000,0,0,0
1691759717751650,1502,1505,1258,1499,1000,0,0,0
1691759717754202,1499,1496,1259,1499,1000,0,0,0
1691759717757928,1499,1496,1258,1499,1000,0,0,0
1691759717761620,1499,1497,1258,1499,1000,0,0,0
1691759717766590,1499,1498,1258,1499,1000,0,0,0
1691759717768861,1503,1504,1259,1499,1000,0,0,0
1691759717772626,1504,1506,1258,1499,1000,0,0,0
1691759717776868,1500,1499,1258,1499,1000,0,0,0
1691759717780464,1499,1497,1258,1499,1000,0,0,0
1691759717783401,1499,1497,1258,1499,1000,0,0,0
1691759717786997,1499,1497,1258,1499,1000,0,0,0
1691759717790769,1502,1503,1259,1499,1000,0,0,0
1691759717794715,1501,1506,1260,1499,1000,0,0,0
1691759717798704,1500,1498,1259,1499,1000,0,0,0
1691759717802503,1499,1496,1258,1499,1000,0,0,0
1691759717805997,1499,1496,1258,1499,1000,0,0,0
1691759717808877,1500,1496,1258,1499,1000,0,0,0
1691759717812693,1503,1501,1258,1499,1000,0,0,0
1691759717816664,1500,1495,1259,1499,1000,0,0,0
1691759717820770,1499,1495,1258,1499,1000,0,0,0
1691759717823229,1500,1496,1258,1499,1000,0,0,0
1691759717827069,1499,1496,1258,1499,1000,0,0,0
1691759717830747,1502,1502,1258,1499,1000,0,0,0
1691759717835048,1500,1496,1259,1499,1000,0,0,0
1691759717838665,1500,1495,1258,1499,1000,0,0,0
1691759717842868,1499,1496,1258,1499,1000,0,0,0
1691759717845169,1499,1496,1258,1499,1000,0,0,0
1691759717848896,1503,1502,1258,1499,1000,0,0,0
1691759717852622,1504,1503,1258,1499,1000,0,0,0
1691759717856702,1500,1497,1258,1499,1000,0,0,0
1691759717860788,1499,1496,1258,1499,1000,0,0,0
1691759717863178,1500,1495,1258,1499,1000,0,0,0
1691759717867024,1499,1496,1258,1499,1000,0,0,0
1691759717871089,1502,1502,1258,1499,1000,0,0,0
1691759717874816,1500,1495,1259,1499,1000,0,0,0
1691759717878750,1500,1495,1258,1499,1000,0,0,0
1691759717881673,1500,1496,1258,1499,1000,0,0,0
1691759717885930,1499,1496,1258,1499,1000,0,0,0
1691759717889683,1500,1497,1257,1499,1000,0,0,0
1691759717892491,1500,1493,1258,1499,1000,0,0,0
1691759717896165,1499,1495,1258,1499,1000,0,0,0
1691759717899932,1500,1496,1258,1499,1000,0,0,0
1691759717904076,1501,1496,1258,1499,1000,0,0,0
1691759717907976,1501,1497,1257,1499,1000,0,0,0
1691759717911554,1505,1506,1257,1499,1000,0,0,0
1691759717914355,1501,1497,1257,1499,1000,0,0,0
1691759717917974,1501,1496,1258,1499,1000,0,0,0
1691759717921781,1501,1496,1258,1499,1000,0,0,0
1691759717925753,1500,1496,1257,1499,1000,0,0,0
1691759717929699,1505,1502,1257,1499,1000,0,0,0
1691759717932447,1502,1495,1258,1499,1000,0,0,0
1691759717936091,1500,1496,1257,1499,1000,0,0,0
1691759717939875,1500,1496,1258,1499,1000,0,0,0
1691759717944205,1501,1496,1258,1499,1000,0,0,0
1691759717947808,1500,1496,1257,1499,1000,0,0,0
1691759717950600,1504,1502,1256,1499,1000,0,0,0
1691759717954172,1501,1496,1257,1499,1000,0,0,0
1691759717957830,1500,1496,1258,1499,1000,0,0,0
1691759717961414,1500,1497,1258,1499,1000,0,0,0
1691759717965234,1499,1497,1257,1499,1000,0,0,0
1691759717968907,1501,1498,1257,1499,1000,0,0,0
1691759717972433,1500,1495,1258,1499,1000,0,0,0
1691759717976174,1499,1497,1258,1499,1000,0,0,0
1691759717979780,1500,1498,1258,1499,1000,0,0,0
1691759717983905,1500,1498,1258,1499,1000,0,0,0
1691759717987816,1504,1506,1258,1499,1000,0,0,0
1691759717990608,1503,1509,1258,1500,1000,0,0,0
1691759717994928,1500,1500,1258,1499,1000,0,0,0
1691759717998801,1500,1498,1257,1499,1000,0,0,0
1691759718001611,1499,1498,1258,1499,1000,0,0,0
1691759718005701,1499,1498,1257,1499,1000,0,0,0
1691759718008881,1500,1498,1257,1499,1000,0,0,0
1691759718012850,1503,1505,1258,1499,1000,0,0,0
1691759718016774,1500,1499,1258,1499,1000,0,0,0
1691759718019752,1499,1498,1258,1499,1000,0,0,0
1691759718023189,1500,1498,1258,1499,1000,0,0,0
1691759718027015,1503,1504,1257,1499,1000,0,0,0
1691759718030543,1502,1506,1258,1500,1000,0,0,0
1691759718034326,1500,1499,1258,1499,1000,0,0,0
1691759718037972,1500,1498,1258,1499,1000,0,0,0
1691759718041868,1499,1498,1258,1499,1000,0,0,0
1691759718046210,1499,1498,1257,1499,1000,0,0,0
1691759718048707,1504,1503,1257,1500,1000,0,0,0
1691759718052432,1500,1496,1257,1499,1000,0,0,0
1691759718055976,1499,1498,1257,1499,1000,0,0,0
1691759718059637,1499,1498,1258,1499,1000,0,0,0
1691759718063587,1499,1498,1258,1499,1000,0,0,0
1691759718068062,1502,1503,1258,1499,1000,0,0,0
1691759718070607,1503,1506,1257,1500,1000,0,0,0
1691759718074218,1500,1498,1258,1499,1000,0,0,0
1691759718077926,1498,1498,1258,1499,1000,0,0,0
1691759718081746,1498,1499,1257,1499,1000,0,0,0
1691759718086190,1498,1499,1257,1499,1000,0,0,0
1691759718089806,1498,1499,1257,1499,1000,0,0,0
1691759718092545,1503,1507,1257,1500,1000,0,0,0
1691759718096235,1498,1500,1258,1499,1000,0,0,0
1691759718099905,1498,1499,1258,1499,1000,0,0,0
1691759718104083,1498,1499,1258,1499,1000,0,0,0
1691759718107871,1497,1499,1257,1499,1000,0,0,0
1691759718110619,1501,1506,1257,1500,1000,0,0,0
1691759718114327,1498,1499,1258,1499,1000,0,0,0
1691759718118021,1497,1499,1258,1499,1000,0,0,0
1691759718122027,1497,1500,1258,1499,1000,0,0,0
1691759718126131,1497,1500,1258,1499,1000,0,0,0
1691759718128898,1498,1500,1258,1499,1000,0,0,0
1691759718132427,1502,1509,1258,1500,1000,0,0,0
1691759718136151,1498,1501,1259,1499,1000,0,0,0
1691759718140966,1497,1500,1258,1499,1000,0,0,0
1691759718143961,1497,1500,1259,1499,1000,0,0,0
1691759718148214,1497,1500,1258,1499,1000,0,0,0
1691759718150525,1500,1507,1258,1500,1000,0,0,0
1691759718154226,1497,1501,1258,1499,1000,0,0,0
1691759718157892,1497,1500,1258,1499,1000,0,0,0
1691759718161948,1497,1500,1259,1499,1000,0,0,0
1691759718165825,1497,1500,1258,1499,1000,0,0,0
1691759718169479,1500,1506,1259,1500,1000,0,0,0
1691759718173330,1499,1508,1260,1500,1000,0,0,0
1691759718177010,1497,1500,1259,1499,1000,0,0,0
1691759718180120,1497,1499,1259,1499,1000,0,0,0
1691759718183918,1497,1499,1259,1499,1000,0,0,0
1691759718187990,1497,1499,1258,1499,1000,0,0,0
1691759718190652,1496,1499,1259,1499,1000,0,0,0
1691759718194931,1496,1499,1258,1499,1000,0,0,0
1691759718198316,1496,1499,1258,1499,1000,0,0,0
1691759718202090,1496,1500,1259,1499,1000,0,0,0
1691759718206948,1499,1506,1259,1500,1000,0,0,0
1691759718211007,1499,1508,1259,1500,1000,0,0,0
1691759718212821,1497,1501,1258,1500,1000,0,0,0
1691759718215920,1496,1499,1258,1499,1000,0,0,0
1691759718219679,1496,1499,1258,1499,1000,0,0,0
1691759718223337,1496,1499,1258,1499,1000,0,0,0
1691759718227072,1499,1506,1258,1500,1000,0,0,0
1691759718231055,1497,1499,1259,1499,1000,0,0,0
1691759718234873,1496,1499,1258,1499,1000,0,0,0
1691759718237977,1497,1499,1258,1499,1000,0,0,0
1691759718241488,1496,1499,1258,1499,1000,0,0,0
1691759718245792,1499,1506,1259,1500,1000,0,0,0
1691759718249470,1497,1499,1259,1499,1000,0,0,0
1691759718256011,1497,1499,1258,1499,1000,0,0,0
1691759718256216,1497,1499,1258,1499,1000,0,0,0
1691759718260090,1497,1499,1258,1499,1000,0,0,0
1691759718264192,1499,1507,1258,1500,1000,0,0,0
1691759718270475,1497,1499,1259,1499,1000,0,0,0
1691759718270897,1497,1499,1258,1499,1000,0,0,0
1691759718274902,1497,1499,1258,1499,1000,0,0,0
1691759718278906,1497,1498,1258,1499,1000,0,0,0
1691759718281579,1499,1505,1258,1499,1000,0,0,0
1691759718285125,1500,1506,1258,1499,1000,0,0,0
1691759718289421,1497,1499,1258,1499,1000,0,0,0
1691759718292986,1497,1498,1258,1499,1000,0,0,0
1691759718297169,1497,1498,1258,1499,1000,0,0,0
1691759718299660,1497,1498,1258,1499,1000,0,0,0
1691759718303436,1500,1505,1258,1499,1000,0,0,0
1691759718306986,1497,1499,1258,1499,1000,0,0,0
1691759718311120,1497,1498,1258,1499,1000,0,0,0
1691759718315147,1497,1498,1258,1499,1000,0,0,0
1691759718317812,1497,1498,1258,1499,1000,0,0,0
1691759718321403,1500,1505,1257,1499,1000,0,0,0
1691759718324987,1498,1498,1258,1499,1000,0,0,0
1691759718328783,1497,1498,1257,1499,1000,0,0,0
1691759718332418,1497,1498,1257,1499,1000,0,0,0
1691759718336256,1497,1498,1257,1499,1000,0,0,0
1691759718340076,1500,1504,1257,1499,1000,0,0,0
1691759718344169,1500,1507,1258,1499,1000,0,0,0
1691759718347988,1498,1499,1258,1499,1000,0,0,0
1691759718350886,1498,1498,1257,1499,1000,0,0,0
1691759718354224,1498,1498,1258,1499,1000,0,0,0
1691759718358907,1498,1497,1257,1499,1000,0,0,0
1691759718362088,1501,1503,1257,1499,1000,0,0,0
1691759718367361,1499,1498,1257,1499,1000,0,0,0
1691759718368748,1498,1497,1257,1499,1000,0,0,0
1691759718372445,1498,1497,1257,1499,1000,0,0,0
1691759718376155,1498,1497,1257,1499,1000,0,0,0
1691759718380195,1498,1497,1257,1499,1000,0,0,0
1691759718384506,1502,1503,1256,1499,1000,0,0,0
1691759718387385,1499,1497,1257,1499,1000,0,0,0
1691759718390474,1499,1496,1258,1499,1000,0,0,0
1691759718394160,1499,1497,1258,1499,1000,0,0,0
1691759718397747,1499,1497,1258,1499,1000,0,0,0
1691759718401812,1502,1501,1257,1499,1000,0,0,0
1691759718405130,1500,1496,1258,1499,1000,0,0,0
1691759718409381,1499,1496,1258,1499,1000,0,0,0
1691759718413093,1499,1497,1258,1499,1000,0,0,0
1691759718415923,1499,1497,1258,1499,1000,0,0,0
1691759718419609,1501,1502,1257,1499,1000,0,0,0
1691759718423682,1503,1505,1257,1499,1000,0,0,0
1691759718426935,1500,1498,1258,1499,1000,0,0,0
1691759718430614,1499,1497,1257,1499,1000,0,0,0
1691759718434383,1499,1497,1257,1499,1000,0,0,0
1691759718438243,1499,1497,1257,1499,1000,0,0,0
1691759718442262,1503,1502,1257,1499,1000,0,0,0
1691759718445247,1500,1496,1258,1499,1000,0,0,0
1691759718449433,1500,1496,1257,1499,1000,0,0,0
1691759718453684,1500,1496,1257,1499,1000,0,0,0
1691759718456586,1500,1497,1258,1499,1000,0,0,0
1691759718460340,1500,1497,1257,1499,1000,0,0,0
1691759718465072,1504,1504,1257,1499,1000,0,0,0
1691759718467299,1501,1496,1258,1499,1000,0,0,0
1691759718470720,1500,1496,1257,1499,1000,0,0,0
1691759718474180,1500,1497,1257,1499,1000,0,0,0
1691759718478255,1500,1497,1257,1499,1000,0,0,0
1691759718481596,1500,1497,1257,1499,1000,0,0,0
1691759718485173,1504,1504,1256,1499,1000,0,0,0
1691759718489416,1501,1497,1257,1499,1000,0,0,0
1691759718492299,1500,1497,1257,1499,1000,0,0,0
1691759718496349,1500,1497,1257,1499,1000,0,0,0
1691759718500259,1500,1497,1257,1499,1000,0,0,0
1691759718504277,1501,1497,1257,1499,1000,0,0,0
1691759718507049,1505,1503,1257,1499,1000,0,0,0
1691759718510598,1501,1497,1257,1499,1000,0,0,0
1691759718514378,1500,1497,1258,1499,1000,0,0,0
1691759718518246,1501,1497,1258,1499,1000,0,0,0
1691759718522294,1501,1498,1258,1499,1000,0,0,0
1691759718525340,1500,1498,1258,1499,1000,0,0,0
1691759718529486,1505,1504,1257,1499,1000,0,0,0
1691759718533383,1506,1506,1256,1499,1000,0,0,0
1691759718536042,1502,1499,1257,1499,1000,0,0,0
1691759718539718,1500,1498,1257,1499,1000,0,0,0
1691759718543357,1501,1497,1258,1499,1000,0,0,0
1691759718547797,1501,1498,1258,1499,1000,0,0,0
1691759718551797,1501,1497,1258,1499,1000,0,0,0
1691759718556264,1505,1502,1258,1499,1000,0,0,0
1691759718557822,1502,1495,1259,1499,1000,0,0,0
1691759718561389,1501,1496,1258,1499,1000,0,0,0
1691759718565353,1501,1497,1259,1499,1000,0,0,0
1691759718569397,1502,1498,1259,1499,1000,0,0,0
1691759718574109,1501,1498,1259,1499,1000,0,0,0
1691759718575791,1505,1506,1258,1499,1000,0,0,0
1691759718579818,1502,1498,1259,1499,1000,0,0,0
1691759718583375,1501,1498,1259,1499,1000,0,0,0
1691759718587385,1500,1498,1258,1499,1000,0,0,0
1691759718591368,1501,1499,1258,1499,1000,0,0,0
1691759718595384,1501,1499,1258,1499,1000,0,0,0
1691759718601494,1505,1506,1258,1499,1000,0,0,0
1691759718601862,1501,1499,1259,1499,1000,0,0,0
1691759718605472,1501,1498,1259,1499,1000,0,0,0
1691759718613404,1501,1498,1259,1499,1000,0,0,0
1691759718613657,1501,1499,1259,1499,1000,0,0,0
1691759718616053,1501,1500,1259,1499,1000,0,0,0
1691759718619685,1501,1496,1260,1499,1000,0,0,0
1691759718623381,1500,1498,1259,1499,1000,0,0,0
1691759718627426,1500,1499,1259,1499,1000,0,0,0
1691759718631355,1500,1499,1259,1499,1000,0,0,0
1691759718634279,1500,1500,1258,1499,1000,0,0,0
1691759718638491,1506,1511,1258,1500,1000,0,0,0
1691759718642418,1500,1502,1258,1499,1000,0,0,0
1691759718645080,1500,1500,1258,1499,1000,0,0,0
1691759718648841,1500,1500,1259,1499,1000,0,0,0
1691759718652447,1499,1500,1258,1499,1000,0,0,0
1691759718657404,1503,1507,1258,1500,1000,0,0,0
1691759718659743,1500,1500,1258,1499,1000,0,0,0
1691759718664316,1499,1499,1258,1499,1000,0,0,0
1691759718667022,1499,1500,1259,1499,1000,0,0,0
1691759718670699,1499,1499,1258,1499,1000,0,0,0
1691759718674411,1503,1506,1258,1500,1000,0,0,0
1691759718678437,1503,1508,1257,1500,1000,0,0,0
1691759718682453,1499,1501,1258,1500,1000,0,0,0
1691759718684992,1498,1500,1258,1499,1000,0,0,0
1691759718688844,1498,1500,1258,1499,1000,0,0,0
1691759718692432,1498,1500,1258,1499,1000,0,0,0
1691759718696437,1502,1508,1257,1500,1000,0,0,0
1691759718700463,1498,1501,1257,1500,1000,0,0,0
1691759718704268,1498,1499,1257,1500,1000,0,0,0
1691759718706917,1498,1499,1258,1500,1000,0,0,0
1691759718710670,1497,1499,1258,1500,1000,0,0,0
1691759718714430,1500,1505,1257,1500,1000,0,0,0
1691759718718548,1500,1507,1258,1500,1000,0,0,0
1691759718722545,1498,1501,1258,1500,1000,0,0,0
1691759718725378,1497,1500,1258,1500,1000,0,0,0
1691759718728803,1497,1499,1258,1500,1000,0,0,0
1691759718732500,1497,1499,1257,1500,1000,0,0,0
1691759718736453,1500,1505,1256,1500,1000,0,0,0
1691759718740617,1497,1499,1257,1500,1000,0,0,0
1691759718743110,1497,1499,1257,1500,1000,0,0,0
1691759718747615,1497,1499,1257,1500,1000,0,0,0
1691759718751567,1497,1499,1257,1500,1000,0,0,0
1691759718754047,1497,1499,1257,1500,1000,0,0,0
1691759718759433,1500,1507,1255,1500,1000,0,0,0
1691759718761333,1497,1499,1257,1500,1000,0,0,0
1691759718766572,1496,1499,1257,1500,1000,0,0,0
1691759718770463,1497,1499,1257,1500,1000,0,0,0
1691759718773571,1496,1499,1257,1499,1000,0,0,0
1691759718776706,1499,1506,1257,1500,1000,0,0,0
1691759718779637,1498,1507,1258,1500,1000,0,0,0
1691759718783495,1497,1500,1258,1500,1000,0,0,0
1691759718787457,1496,1499,1258,1500,1000,0,0,0
1691759718791834,1496,1499,1258,1500,1000,0,0,0
1691759718797183,1496,1499,1258,1500,1000,0,0,0
1691759718797740,1496,1499,1258,1500,1000,0,0,0
1691759718801601,1498,1506,1257,1500,1000,0,0,0
1691759718805504,1496,1499,1258,1500,1000,0,0,0
