timestamp,roll,pitch,yaw,norm_thrust
1691759714270111,-0.04726782,-0.07827766,-0.02332774,10.03203487
1691759714271325,-0.02816131,-0.10706928,-0.02335829,9.63474369
1691759714274775,0.02912977,0.02737205,-0.02485414,9.64668179
1691759714278816,0.02324120,0.06450085,-0.02555184,9.76354599
1691759714282496,0.03617531,0.10609436,-0.02678251,9.71389771
1691759714285190,-0.01945592,-0.12370324,-0.02360762,10.22361469
1691759714288822,-0.00226908,-0.06840654,-0.02362812,10.00646591
1691759714292526,-0.01204903,-0.03247897,-0.02386298,9.98382664
1691759714296453,-0.00009457,-0.01961442,-0.02377611,9.89140987
1691759714301075,-0.00741256,-0.01461811,-0.02345393,9.84178829
1691759714303194,0.00024849,-0.02886089,-0.02270162,9.81773376
1691759714307082,-0.00821256,-0.04798612,-0.02205258,10.00275612
1691759714310723,0.00524155,-0.03009059,-0.02162852,9.79653454
1691759714315378,-0.00368303,0.01116028,-0.02166561,9.81329441
1691759714318502,0.02437826,0.02872089,-0.02144284,9.73968983
1691759714322540,-0.01883970,-0.13373947,-0.01584150,10.31870747
1691759714325549,-0.01491667,-0.14063001,-0.01261569,10.07155800
1691759714329455,0.02882698,0.11546379,-0.01519271,9.56645679
1691759714333470,0.00796369,-0.09218256,-0.00930033,10.11954880
1691759714336106,-0.01046800,0.07625177,-0.01055570,9.85145664
1691759714339782,0.03275044,0.16764954,-0.01166968,9.49764061
1691759714343595,0.07972512,0.20307925,-0.01247135,9.55242157
1691759714347590,0.07379789,0.19281228,-0.01195738,9.62295151
1691759714351476,-0.02310899,-0.00647269,-0.00803628,10.29193401
1691759714354202,-0.01796355,-0.11145628,-0.00623639,10.31487179
1691759714357930,-0.00628302,-0.11634387,-0.00497607,10.02786350
1691759714361698,-0.05058056,0.03948507,-0.00629319,9.71415710
1691759714365600,0.06342768,0.20769380,-0.00939299,9.46430016
1691759714369669,0.03979915,0.11660974,-0.00726414,9.80721092
1691759714373298,0.03151722,0.12747210,-0.00707162,9.85279083
1691759714376080,-0.02616237,-0.10206535,-0.00332054,10.44745541
1691759714380053,0.02517620,0.00098252,-0.00376765,10.08727264
1691759714383472,0.02742353,0.05204868,-0.00418172,9.99161243
1691759714387624,0.03480239,0.02952318,-0.00343475,10.05067158
1691759714391521,0.03052620,0.03024002,-0.00292468,10.07798386
1691759714394356,0.00518719,0.02558510,-0.00252462,10.09925461
1691759714398102,0.02500404,0.01272629,-0.00208925,10.00047398
1691759714402537,0.03031427,0.00966141,-0.00160356,10.06571865
1691759714405035,-0.02157366,-0.00974812,-0.00087296,10.21679688
1691759714408893,0.00769592,-0.06629780,-0.00000440,9.77068424
1691759714412472,0.06570695,0.03237917,-0.00133520,9.84488010
1691759714416660,0.04900196,0.11122736,-0.00270007,9.89845943
1691759714420520,0.09360244,0.15219986,-0.00466055,9.95009613
1691759714424493,0.00276389,-0.08635464,0.00001173,10.41619301
1691759714426975,0.00733626,-0.02685414,-0.00057244,10.16561890
1691759714430672,0.00694132,-0.00709325,-0.00068080,10.16224670
1691759714434720,0.01690068,-0.01494594,-0.00034575,10.16143990
1691759714438696,0.01794606,0.00773311,-0.00042816,10.12326336
1691759714442665,0.01658911,0.00997424,-0.00015965,10.10442829
1691759714445160,0.03261797,-0.00483924,0.00043294,10.08524227
1691759714449008,0.02979669,0.00354024,0.00070350,10.09571648
1691759714452757,0.02919648,0.00431130,0.00101190,10.12840176
1691759714456790,0.03127952,-0.00237768,0.00146905,10.08817577
1691759714462306,-0.00302182,-0.02860911,0.00226457,10.17387486
1691759714463296,-0.00319805,0.00300769,0.00205650,10.04610634
1691759714467672,0.05883315,0.04367996,0.00105984,9.90298748
1691759714471598,0.08082890,0.07604595,-0.00031217,9.88244438
1691759714474250,-0.01649779,-0.13242778,0.00345421,10.56307411
1691759714477979,-0.00732530,-0.08947599,0.00309221,10.38005638
1691759714482050,0.01819891,-0.00296031,0.00200691,10.20983028
1691759714485627,0.01186474,0.00786855,0.00196236,10.21236324
1691759714489670,0.01233392,-0.01941570,0.00258800,10.17148590
1691759714493596,-0.02063589,-0.05960881,0.00340860,10.33829975
1691759714496016,0.02183107,-0.00102142,0.00274131,10.07101917
1691759714499876,0.04294146,0.08044333,0.00107323,9.92454529
1691759714503616,-0.04327399,-0.24401195,0.00762342,10.58151817
1691759714507689,0.02017080,-0.05835129,0.00595913,10.31715584
1691759714510760,0.00301884,-0.02834845,0.00557083,10.27134705
1691759714514545,-0.03777960,-0.14230181,0.00764548,10.30013561
1691759714518629,-0.02065766,-0.12690853,0.00849677,10.20473957
1691759714522417,-0.02206920,-0.10936871,0.00921188,10.20747471
1691759714525615,0.05462061,0.22033009,0.00325263,9.40914631
1691759714528811,-0.04899149,-0.18247908,0.01161845,10.43978596
1691759714532853,0.01737559,0.00818887,0.00948185,10.14401436
1691759714536712,0.02369506,0.06970202,0.00853355,10.08497620
1691759714540760,-0.02365980,-0.12082709,0.01215222,10.35596085
1691759714544159,-0.00486499,-0.13890067,0.01312860,10.35506821
1691759714547123,0.01892315,-0.00399091,0.01063306,9.75745296
1691759714550776,0.02502038,0.12333419,0.00812556,9.85513401
1691759714554755,0.05610183,0.12075114,0.00730440,9.93363380
1691759714558882,0.05845327,0.11284798,0.00675669,9.97085190
1691759714561632,0.04818698,0.12132593,0.00596482,9.96555424
1691759714565685,-0.05741709,-0.27763888,0.01383704,10.66101265
1691759714569749,-0.02020151,-0.26229876,0.01595218,10.54585171
1691759714572388,-0.03880458,-0.19833979,0.01578155,10.38672829
1691759714576203,-0.03238291,-0.14722408,0.01620815,10.18975735
1691759714579788,-0.02025250,-0.08725129,0.01625965,10.20883465
1691759714584084,0.01954771,0.17619805,0.01195171,9.80701542
1691759714587818,0.01415965,0.17090036,0.01185769,9.90609932
1691759714590658,0.02521282,0.09420180,0.01275050,10.09791756
1691759714594757,0.05986687,0.10946750,0.01167726,9.91573238
1691759714598622,0.03966335,0.02023171,0.01350164,10.17884731
1691759714601755,-0.03495718,-0.14265311,0.01603270,10.56618595
1691759714605681,-0.04491355,-0.13323285,0.01602715,10.44348049
1691759714609843,-0.01026412,0.05733515,0.01353243,10.11470604
1691759714612376,0.04710701,-0.02794502,0.01474818,10.14754868
1691759714616156,0.07894646,0.14580284,0.00961982,9.92089558
1691759714619843,0.06682338,0.17812032,0.00748222,10.04139805
1691759714623869,-0.02406348,-0.19497283,0.01414768,10.68734932
1691759714627769,0.00035825,-0.11195409,0.01309009,10.58907032
1691759714630826,0.00881337,-0.10571487,0.01299646,10.42165089
1691759714634807,-0.00454950,-0.06084360,0.01210868,10.44165611
1691759714639196,0.04351700,0.14043027,0.00763416,10.03271484
1691759714641759,-0.00013673,0.09729758,0.00816844,10.27262211
1691759714645248,0.01684208,0.11653880,0.00679580,10.04513168
1691759714648829,-0.01036504,0.02229402,0.00797160,10.38855553
1691759714652658,0.03023424,0.03613549,0.00696721,10.43772602
1691759714656694,0.03517262,0.06471723,0.00572996,10.38342094
1691759714660605,0.03391043,0.05645192,0.00510804,10.30494881
1691759714663597,0.00302526,-0.10331725,0.00775296,10.70780754
1691759714667077,0.00781245,-0.08476070,0.00751134,10.58749008
1691759714672778,-0.02595703,-0.12595268,0.00789483,10.60929203
1691759714676721,0.01316173,-0.09828002,0.00716954,10.08965302
1691759714679197,0.03513729,0.05123518,0.00391676,10.24050999
1691759714681622,-0.01040976,-0.10440937,0.00661527,10.65281677
1691759714687030,0.03473764,0.16944750,0.00068673,10.15553951
1691759714688828,0.04425127,0.16074643,-0.00067817,10.17189217
1691759714692819,0.02789089,0.09356269,-0.00061361,10.09659195
1691759714697014,-0.02829552,0.04733225,-0.00033147,10.46404171
1691759714699672,0.02839018,0.06686534,-0.00195774,10.37137318
1691759714704030,0.01876458,-0.06545522,0.00028449,10.68752861
1691759714707807,0.00541133,-0.08456282,0.00044858,10.50880241
1691759714712589,0.03879480,0.09401618,-0.00416483,10.29946709
1691759714714102,0.01663457,-0.04062460,-0.00197793,10.56330585
1691759714717908,0.02108289,-0.05197576,-0.00197778,10.42205048
1691759714721948,0.07636534,0.27411863,-0.01100143,9.74605560
1691759714725891,0.01747679,0.03808046,-0.00608240,10.48988247
1691759714731306,0.04153533,0.08503299,-0.00816543,10.44243717
1691759714732760,0.02531859,0.06296695,-0.00847170,10.44190884
1691759714736861,-0.01335461,-0.13088822,-0.00542814,10.35658455
1691759714740630,0.08218504,0.17283970,-0.01292557,9.99319935
1691759714743347,0.07584091,0.17210759,-0.01423977,10.16844177
1691759714747070,0.05795806,0.18921173,-0.01618201,10.26903248
1691759714750882,-0.01929878,-0.03023275,-0.01194540,10.75957012
1691759714754900,0.00726423,0.01040799,-0.01349374,10.68875122
1691759714759233,0.00138239,0.03130697,-0.01456181,10.54682732
1691759714761515,-0.01083495,0.01259601,-0.01478198,10.54419231
1691759714765179,0.04222699,0.05134243,-0.01731523,10.24187851
1691759714768873,-0.01922411,-0.24540918,-0.01169582,10.88633156
1691759714773295,-0.01192743,-0.10972216,-0.01394952,10.67144108
1691759714776913,0.00184384,-0.04580260,-0.01516924,10.59132957
1691759714779864,0.00245539,-0.04770328,-0.01522007,10.62293911
1691759714783972,-0.02835576,-0.01901720,-0.01571257,10.50288868
1691759714788210,0.05584266,0.22752027,-0.02181132,10.01856422
1691759714790595,0.05409291,0.18126617,-0.02135138,10.25944519
1691759714794310,0.07271057,0.19106354,-0.02272882,10.10198689
1691759714797921,-0.02093001,-0.10818391,-0.01547542,10.84513760
1691759714802022,0.03961850,0.13922691,-0.02077923,10.23435020
1691759714807174,0.04791240,0.13424855,-0.02111606,10.34904766
1691759714808936,0.03459772,0.09644156,-0.02045778,10.39071846
1691759714812837,0.01934945,0.06856708,-0.02033658,10.44806194
1691759714816870,-0.00991840,0.02523160,-0.01978617,10.59265995
1691759714820157,0.05073920,0.05873947,-0.02140269,10.18599796
1691759714823422,0.02375582,-0.00598974,-0.02002090,10.48845673
1691759714827018,-0.00402131,0.00663789,-0.02064821,10.63848019
1691759714830961,-0.00652992,-0.06599965,-0.01913210,10.76207256
1691759714834932,0.03805536,0.09281474,-0.02314914,10.34194851
1691759714837897,0.04693156,0.17526445,-0.02597098,10.09521008
1691759714841904,-0.00335822,0.02795142,-0.02247277,10.56180763
1691759714845235,0.01662990,0.06142017,-0.02367749,10.51673317
1691759714848853,0.00267912,0.03690287,-0.02333754,10.51662827
1691759714853736,0.06279580,0.22916059,-0.02909842,10.00255299
1691759714857940,-0.01002515,-0.01181263,-0.02276606,10.64710808
1691759714860058,0.02625732,0.09866369,-0.02560944,10.40279675
1691759714863902,0.03889918,0.09412237,-0.02589041,10.43747330
1691759714868044,-0.02332859,-0.07941437,-0.02138615,10.67040634
1691759714871074,0.10921428,0.41331163,-0.03708678,9.87156010
1691759714874100,-0.00903864,-0.00392053,-0.02429182,10.65029716
1691759714880186,-0.00442538,0.00010888,-0.02461733,10.67172241
1691759714881812,-0.00556285,-0.01727552,-0.02417281,10.58451080
1691759714888115,-0.03788072,-0.03961136,-0.02363708,10.55115700
1691759714890001,-0.05187828,-0.15506263,-0.02053290,10.58235741
1691759714892419,0.01460174,0.00670893,-0.02335512,10.30927658
1691759714896153,0.01829470,0.04033581,-0.02384807,10.35385227
1691759714899911,0.00459584,0.04989558,-0.02386513,10.08806896
1691759714904055,-0.02866839,-0.04017521,-0.02157322,10.57602024
1691759714907995,-0.00754856,0.03766507,-0.02303134,10.44856358
1691759714910670,-0.03996976,0.03437870,-0.02244086,10.46658707
1691759714914354,0.00500948,0.14839125,-0.02527938,10.01491833
1691759714918016,-0.02079455,-0.05564674,-0.02024106,10.64453697
1691759714922081,0.00755757,0.02734664,-0.02162552,10.36970234
1691759714925917,-0.01192833,0.04365948,-0.02156381,10.36123371
1691759714928879,-0.03399945,0.01851919,-0.02070115,10.42453766
1691759714932434,0.02288080,0.07668553,-0.02206962,10.10523796
1691759714936246,-0.03423665,-0.26810583,-0.01178259,10.74069023
1691759714939814,-0.01706719,-0.00488268,-0.01673494,10.33164120
1691759714943259,-0.00814753,0.03541670,-0.01731814,10.42305374
1691759714947100,-0.01264580,-0.00219920,-0.01614206,10.41136646
1691759714950962,0.03125481,0.10462143,-0.01859132,9.93966866
1691759714955126,-0.02057937,0.00277935,-0.01561017,10.39595318
1691759714958841,-0.01637097,-0.00178757,-0.01531287,10.50541496
1691759714961553,-0.00209851,-0.02576303,-0.01460726,10.35309029
1691759714966129,0.01000668,0.02664608,-0.01567827,10.14521313
1691759714969221,-0.01157943,0.06397616,-0.01639265,10.24669456
1691759714972955,0.03601971,0.25284538,-0.02210504,10.29093266
1691759714977143,-0.03160632,-0.12260927,-0.01278189,10.68208122
1691759714979852,-0.03268106,-0.06711672,-0.01368541,10.58887959
1691759714983351,-0.03327402,-0.07948367,-0.01332811,10.60629368
1691759714987148,-0.02367724,-0.10458433,-0.01256908,10.55833054
1691759714991557,-0.03354264,-0.16661969,-0.01010452,10.42934227
1691759714995041,-0.03397309,-0.06096592,-0.01178281,10.45680523
1691759714998870,-0.01459164,-0.01213806,-0.01245204,10.46979141
1691759715002031,-0.05235504,-0.14760825,-0.00820871,10.70206165
1691759715006178,0.03002202,0.11940239,-0.01366144,9.90293312
1691759715008870,-0.02084197,0.00932350,-0.01038671,10.42353153
1691759715012427,-0.00897173,0.01137757,-0.01003848,10.46916103
1691759715016232,-0.01046738,-0.01215957,-0.00905698,10.49078274
1691759715020279,0.01901428,0.08270663,-0.01104810,10.09164429
1691759715024159,-0.02423049,-0.03364323,-0.00788688,10.55199146
1691759715027984,-0.00714577,-0.06220147,-0.00683030,10.47105122
1691759715030685,-0.03730777,-0.03287551,-0.00709523,10.57774925
1691759715034148,-0.02092305,-0.19408381,-0.00126023,10.52541065
1691759715039133,0.05121194,0.07634416,-0.00676728,9.99962616
1691759715042007,-0.00340146,-0.06889239,-0.00292822,10.56838036
1691759715046054,-0.00605550,-0.02640372,-0.00362721,10.51082039
1691759715048933,-0.01665054,-0.03522179,-0.00304084,10.38357067
1691759715052438,0.00685285,0.05015161,-0.00464224,10.02628326
1691759715056189,-0.01505593,-0.04969212,-0.00231954,10.44987202
1691759715059812,0.00109789,-0.01440915,-0.00262260,10.37762547
1691759715063472,-0.01643308,-0.00702850,-0.00249630,10.34317398
1691759715067163,0.00433856,0.06754156,-0.00403354,10.02421761
1691759715071159,-0.00963484,-0.08077131,-0.00044148,10.46480846
1691759715075395,0.01342532,-0.03901730,-0.00071129,10.46078014
1691759715078040,0.00499094,-0.02047922,-0.00057713,10.37571144
1691759715081613,-0.02055593,-0.00876206,-0.00078293,10.29816818
1691759715085272,0.03461641,0.06241822,-0.00236032,9.97931767
1691759715089259,-0.01557535,-0.16745265,0.00294491,10.55393600
1691759715092865,0.01790976,-0.07056108,0.00169941,10.49274635
1691759715096154,0.01264811,-0.01606544,0.00061579,10.35639572
1691759715100233,0.00667995,0.01143418,0.00008110,10.37051105
1691759715104290,0.05546707,0.00424000,0.00041812,10.04013157
1691759715106956,0.00070620,-0.06977721,0.00239158,10.43698502
1691759715111143,0.00607640,0.01075924,0.00081396,10.28953552
1691759715115233,0.00907949,-0.01742123,0.00157946,10.48529053
1691759715117866,0.02424099,0.01200798,0.00126613,10.06254959
1691759715122585,0.02880055,0.08376638,-0.00048360,9.99632740
1691759715125098,-0.01341606,-0.07369086,0.00277202,10.64517784
1691759715129445,0.01472775,0.00266052,0.00148578,10.40729046
1691759715133184,0.01206793,0.03169039,0.00101847,10.35031605
1691759715137002,-0.01065881,0.02864135,0.00117786,10.36532116
1691759715139717,0.04041467,0.06960980,-0.00002987,10.08724689
1691759715143446,-0.00984052,-0.10721045,0.00416814,10.46546078
1691759715147323,0.01039088,0.01879480,0.00195389,10.40098381
1691759715151227,0.04153885,0.04072986,0.00145534,10.31148815
1691759715155311,0.03663287,0.00489844,0.00244735,10.40929794
1691759715157882,0.05472087,0.08464022,0.00065907,10.00994682
1691759715162194,-0.00005317,-0.00940108,0.00297651,10.43763542
1691759715166014,0.01803180,-0.00098015,0.00286522,10.38046932
1691759715168914,0.01636325,0.00980335,0.00270055,10.36869621
1691759715172503,0.02371584,0.09769770,0.00087681,10.06766224
1691759715176255,-0.02353156,-0.09755746,0.00503060,10.46876621
1691759715180239,0.02507259,-0.00290643,0.00337448,10.36394501
1691759715184188,0.04620957,0.00345281,0.00321291,10.38129330
1691759715187018,0.02943016,0.02346080,0.00278995,10.27381516
1691759715191210,0.02697142,0.12192091,0.00041715,9.91982079
1691759715195670,0.01230128,-0.01627858,0.00327148,10.56985283
1691759715197917,0.00840473,-0.13992952,0.00681351,10.66251945
1691759715201482,0.03118301,0.06304175,0.00282597,10.06556797
1691759715205341,0.03453672,0.13169852,0.00125765,9.96623611
1691759715209290,0.00625184,-0.04308067,0.00527081,10.41637516
1691759715213570,0.04645189,0.05590454,0.00328741,10.31419373
1691759715216132,0.02572449,0.08742668,0.00278986,10.31479549
1691759715220215,0.00363621,0.06290270,0.00350540,10.33385372
1691759715224296,0.06407907,0.08922137,0.00258144,9.96675682
1691759715227367,-0.00515129,0.08118556,0.00324710,10.25143433
1691759715230749,0.01063902,0.04586448,0.00383445,10.35702991
1691759715235398,0.03628033,0.02540386,0.00418384,10.33793449
1691759715237938,0.03046698,0.01664367,0.00439926,10.40001011
1691759715241693,0.03926748,0.06099618,0.00341678,10.17898273
1691759715247320,0.03016109,0.10310591,0.00253612,10.09432030
1691759715250335,0.07175233,0.09591336,0.00213581,10.03008652
1691759715253146,0.02900955,-0.03041352,0.00509511,10.61601162
1691759715256577,0.03285423,0.02801705,0.00380728,10.45584011
1691759715260258,0.00618442,0.00943737,0.00420413,10.51416016
1691759715264289,0.05034957,0.02724394,0.00361061,10.11469173
1691759715267148,0.06431730,0.11407819,0.00121609,10.07072067
1691759715270652,-0.00164510,-0.03666545,0.00485304,10.54171371
1691759715275012,0.01831121,0.00776174,0.00390007,10.43104935
1691759715279536,0.04196865,0.03983560,0.00310025,10.37637138
1691759715282250,0.01398120,0.06223578,0.00252650,10.29426384
1691759715286329,0.02963612,0.13627872,0.00027457,10.04360962
1691759715288856,0.01571027,-0.01565053,0.00369858,10.57153702
1691759715292396,0.01787678,0.02579898,0.00256316,10.54420567
1691759715296717,0.00156134,0.02356473,0.00252671,10.36580849
1691759715300403,0.02677753,0.05367421,0.00148090,10.12968540
1691759715304241,-0.01432317,-0.09021074,0.00454780,10.67584419
1691759715307034,0.01541140,0.01162227,0.00234244,10.37520504
1691759715310703,0.00939265,0.07330262,0.00097751,10.37987614
1691759715314357,-0.00434527,0.03224865,0.00187931,10.45584202
1691759715318368,0.05697048,0.14558274,-0.00164066,9.99391460
1691759715322394,0.00489594,0.03247210,0.00155230,10.50887585
1691759715325196,-0.00701097,0.03929415,0.00151595,10.43624687
1691759715329376,-0.02593167,0.03088104,0.00170763,10.50813103
1691759715333419,0.03979490,0.12768699,-0.00109712,9.95511818
1691759715335983,-0.02247822,-0.06506039,0.00380930,10.50988674
1691759715339834,-0.01914670,0.02318893,0.00209141,10.43276978
1691759715343373,0.01399019,0.06762428,0.00086521,10.44399738
1691759715347014,0.01383982,0.05865189,0.00107023,10.16849422
1691759715350529,0.10263381,0.35483047,-0.00933507,9.91092205
1691759715354438,-0.01170059,-0.04530656,0.00256506,10.71602154
1691759715358362,-0.00276192,-0.06338023,0.00291750,10.57912254
1691759715363453,-0.00251498,-0.05073891,0.00254754,10.31351471
1691759715369968,0.01873070,-0.00514657,0.00149073,10.22662830
1691759715370518,0.01886535,0.04331362,0.00015257,10.14274120
1691759715372431,0.06667394,0.27239141,-0.00791450,10.07725048
1691759715376453,-0.04082283,-0.08385917,0.00163250,10.55504704
1691759715379813,-0.02189445,-0.04949933,0.00129517,10.59177399
1691759715383468,-0.04692975,-0.06628984,0.00148332,10.34105206
1691759715387463,-0.04759322,-0.02832167,0.00062132,10.41658592
1691759715391884,-0.02147542,-0.02469032,0.00064698,10.30665016
1691759715394132,-0.01027292,-0.00481728,0.00037958,10.30375290
1691759715398727,-0.02670639,-0.00423119,0.00034322,10.35913086
1691759715402332,0.04356904,0.09844655,-0.00260547,10.14283657
1691759715405199,-0.00458442,-0.05236981,0.00151707,10.51062202
1691759715408877,-0.03069587,0.00445660,0.00038457,10.49242783
1691759715412369,-0.04745949,-0.00445945,0.00077994,10.55987263
1691759715416494,0.03402292,0.00578158,0.00059818,10.17301083
1691759715420444,0.04068869,0.10668957,-0.00213176,10.13378334
1691759715424330,-0.04086955,-0.07821059,0.00277981,10.62020206
1691759715426961,-0.01308640,0.00038192,0.00135845,10.45658302
1691759715430638,0.01453255,0.00970967,0.00128810,10.32693386
1691759715434558,-0.01864974,0.01388246,0.00135686,10.28882694
1691759715438372,0.00802060,0.10098056,-0.00075101,10.21835041
1691759715442380,-0.01974080,-0.08020005,0.00371881,10.66905117
1691759715445150,-0.00351549,-0.01921382,0.00270057,10.33470821
1691759715449733,-0.02779631,0.04449782,0.00162533,10.41116333
1691759715452423,-0.05273783,0.02162856,0.00244076,10.50780582
1691759715456514,0.03644872,0.00803264,0.00265523,10.13162422
1691759715460487,-0.00804178,-0.10252205,0.00556009,10.52820206
1691759715464312,-0.00576931,0.01862903,0.00289731,10.41647339
1691759715467492,-0.01649871,-0.01628451,0.00379329,10.59452343
1691759715471473,0.05182165,0.00188488,0.00342106,10.13735962
1691759715474298,-0.00811114,-0.09558212,0.00598502,10.59313583
1691759715478432,-0.03575553,0.01402001,0.00355460,10.30060577
1691759715482463,-0.00524359,0.02012803,0.00348841,10.37861633
1691759715485228,0.00866516,0.02119484,0.00349723,10.25463867
1691759715489762,0.09382422,0.33837765,-0.00702530,10.01123619
1691759715492551,-0.04643547,-0.05076849,0.00482136,10.57051945
1691759715496488,-0.01654723,-0.05584207,0.00522131,10.57324314
1691759715500785,-0.01908316,-0.02418607,0.00455124,10.19131184
1691759715503252,-0.00130619,0.03649199,0.00320573,10.16085720
1691759715507568,0.06461611,0.24022906,-0.00325022,10.07468891
1691759715512394,-0.04449819,-0.18435188,0.00785152,10.76948547
1691759715514057,-0.03840804,-0.13107897,0.00704203,10.44344044
1691759715517997,-0.04165582,-0.06844331,0.00592097,10.31004810
1691759715521482,-0.04370572,-0.06258243,0.00603801,10.59022617
1691759715525551,0.03417924,-0.04082883,0.00595401,10.03894329
1691759715529471,0.03328288,0.06365871,0.00313220,10.09362125
1691759715533412,-0.05260672,-0.06622116,0.00634146,10.71878242
1691759715536042,-0.02687546,-0.04637760,0.00637799,10.57264709
1691759715539770,-0.01884324,-0.03944116,0.00650470,10.40424728
1691759715543349,0.00808046,0.06583778,0.00397008,10.20502949
1691759715549287,-0.03554552,-0.07250104,0.00750420,10.53752518
1691759715550730,-0.03003699,-0.00749028,0.00628551,10.33327484
1691759715554608,-0.00139138,-0.04042423,0.00714712,10.53772640
1691759715558599,0.00625812,-0.04247414,0.00737685,10.30974293
1691759715561610,0.00508878,0.02488474,0.00580465,10.29522610
1691759715565204,-0.02370663,-0.13723511,0.00950687,10.66724586
1691759715568924,-0.01958958,-0.05801822,0.00782320,10.49549007
1691759715573441,-0.01366152,-0.04604060,0.00772786,10.38336754
1691759715576062,-0.02024888,-0.02803782,0.00733869,10.37512016
1691759715579794,0.08221310,0.27057239,-0.00264674,10.07279587
1691759715583513,-0.03254976,-0.10096428,0.00802543,10.67721844
1691759715587571,-0.04877301,-0.10019949,0.00804947,10.54997540
1691759715592497,-0.06965156,-0.07511303,0.00745567,10.55245113
1691759715594254,0.00936815,0.03061598,0.00522821,10.16844654
1691759715597837,-0.01988905,-0.14941670,0.00964985,10.40135860
1691759715602005,-0.03766903,-0.04256537,0.00723533,10.46606541
1691759715605514,-0.03758554,-0.03558413,0.00712537,10.44269848
1691759715609636,0.03716707,0.02691469,0.00566198,10.15608501
1691759715612349,-0.01934478,-0.14752212,0.00992665,10.52264786
1691759715616742,-0.03665088,-0.05592993,0.00775141,10.35127926
1691759715620600,-0.00731268,-0.05071739,0.00779811,10.29844189
1691759715623121,0.00654874,-0.06298674,0.00805436,10.33838081
1691759715627023,0.01423898,-0.02104289,0.00698887,10.30023861
1691759715630655,-0.03729589,-0.14157301,0.00968031,10.59955692
1691759715634758,-0.03582115,-0.06951631,0.00807260,10.32627964
1691759715638589,-0.01940883,-0.02489895,0.00707986,10.38818359
1691759715642392,-0.01305556,-0.02421139,0.00717369,10.18891907
1691759715645043,0.06502997,0.29178095,-0.00256869,10.03847313
1691759715649608,-0.04392960,-0.08609158,0.00753378,10.61177635
1691759715652368,-0.02211910,-0.09161567,0.00790952,10.54695511
1691759715655974,-0.05068668,-0.06881844,0.00736108,10.33643055
1691759715659826,-0.01546287,-0.00557224,0.00590363,10.16782284
1691759715663645,-0.02365072,-0.08773079,0.00782328,10.41364193
1691759715668604,-0.02470597,-0.09820200,0.00815102,10.41111374
1691759715674115,-0.03760498,-0.01992514,0.00644265,10.43478107
1691759715674303,-0.02215650,-0.02831135,0.00649192,10.62713146
1691759715677818,0.04310521,-0.02905321,0.00652002,10.05591774
1691759715681816,-0.01429297,-0.15485471,0.00942416,10.61715603
1691759715686079,-0.02793984,-0.03054296,0.00647170,10.23389149
1691759715692106,0.02532404,-0.04745165,0.00681766,10.35564899
1691759715692717,0.04018597,-0.03901408,0.00646802,10.29157066
1691759715696708,0.02195992,0.04451682,0.00386526,10.21960640
1691759715700736,-0.02171387,-0.08903493,0.00695904,10.56848240
1691759715703691,-0.01952247,-0.01924968,0.00547470,10.30087852
1691759715706980,-0.00441099,-0.02306159,0.00538852,10.28228569
1691759715710690,-0.00775403,0.04200777,0.00385632,10.16764927
1691759715714783,0.07680135,0.32776740,-0.00525499,9.96671772
1691759715718672,-0.04060814,-0.13508403,0.00650774,10.66224575
1691759715722662,-0.00928202,-0.05130202,0.00515524,10.47903824
1691759715725166,-0.01107632,-0.03875779,0.00502093,10.25611591
1691759715728859,0.00466800,-0.00408236,0.00421732,10.41396523
1691759715732635,0.02700426,-0.02980497,0.00468767,10.36301613
1691759715736718,0.00364870,0.01607734,0.00367931,10.39948463
1691759715739714,0.00605383,0.00165874,0.00373155,10.36896324
1691759715743822,0.11828800,0.23432674,-0.00416611,10.21215439
1691759715747808,-0.01151237,-0.07737535,0.00443918,10.61114597
1691759715751263,-0.03044015,-0.01392164,0.00310863,10.47881222
1691759715754464,-0.01922287,-0.04297717,0.00365937,10.43921471
1691759715757854,0.03994617,0.00866132,0.00253085,10.27098274
1691759715762055,0.04301801,0.08870579,0.00049318,10.20163536
1691759715765606,0.09190452,0.23515627,-0.00480296,10.26475906
1691759715769780,0.00013929,-0.11789942,0.00408774,10.79171467
1691759715772795,-0.00756562,-0.09656397,0.00350281,10.51147747
1691759715777165,-0.01962446,-0.03461804,0.00216219,10.57361603
1691759715780774,0.00509139,-0.04588742,0.00238149,10.25508404
1691759715783794,0.05979721,0.05336475,-0.00042784,10.26606655
1691759715788459,-0.01728729,-0.04625112,0.00170655,10.69642258
1691759715790451,-0.00604976,-0.01804834,0.00109818,10.60813332
1691759715794773,-0.00260453,-0.03903462,0.00140898,10.46611118
1691759715798768,0.11422904,0.25520438,-0.00830373,10.17798805
1691759715802295,0.00121052,-0.06666076,0.00068248,10.82655621
1691759715806084,-0.03036775,-0.04141270,-0.00003898,10.44871426
1691759715808763,-0.00906332,-0.01307858,-0.00063369,10.47963428
1691759715812803,0.02486274,0.02837183,-0.00161676,10.36506271
1691759715816583,-0.00953756,0.01148218,-0.00118102,10.64870071
1691759715820686,0.00231994,-0.02256161,-0.00045547,10.46961212
1691759715823643,0.00618081,0.01795781,-0.00131524,10.45572376
1691759715826939,0.01114605,0.03434336,-0.00173615,10.43639755
1691759715830840,0.04794189,0.03287795,-0.00189408,10.13457298
1691759715835875,-0.00140101,-0.04930051,0.00004180,10.70548153
1691759715839238,0.00410308,-0.04425808,-0.00009281,10.52358532
1691759715841867,0.01862098,-0.03232422,-0.00037925,10.46068192
1691759715846543,0.02011643,-0.01657345,-0.00085469,10.24090862
1691759715849946,0.05642339,0.07131042,-0.00332692,10.15706348
1691759715852381,-0.00491907,-0.04194022,-0.00065977,10.78530407
1691759715856113,-0.00563733,0.00060334,-0.00156227,10.61037254
1691759715859881,-0.00201734,0.03598254,-0.00218185,10.42646885
1691759715863796,0.01189109,0.07367824,-0.00309790,10.27308559
1691759715867816,-0.00054664,-0.00235274,-0.00142549,10.56566429
1691759715870931,0.02581195,-0.03844298,-0.00048562,10.44840431
1691759715874217,0.00409600,0.04781841,-0.00234141,10.31996822
1691759715878885,-0.02256267,0.03591097,-0.00201327,10.47895336
1691759715881767,0.03667196,0.06136960,-0.00281714,10.22907925
1691759715885915,0.12566499,0.30654365,-0.01168257,10.20071888
1691759715889315,-0.04348642,-0.05884177,-0.00084171,10.46933842
1691759715892886,-0.00952443,-0.08322682,-0.00020079,10.45333290
1691759715897787,0.01065721,-0.04738630,-0.00080413,10.49352932
1691759715899506,0.02390235,-0.02492402,-0.00121564,10.33715248
1691759715903819,-0.04047211,-0.13828036,0.00088395,10.74199581
1691759715907146,-0.00880740,-0.02083590,-0.00123366,10.35495377
1691759715910961,-0.00290437,0.02034161,-0.00214265,10.43137836
1691759715914771,0.00359085,0.01783776,-0.00203767,10.26455688
1691759715917919,-0.01322988,0.00120643,-0.00159312,10.48881149
1691759715921825,-0.00751397,-0.00791135,-0.00138553,10.32952976
1691759715925876,0.01034814,0.01864040,-0.00183958,10.46882343
1691759715928817,-0.00399295,0.04580760,-0.00232208,10.20648384
1691759715932856,0.07473181,0.32934007,-0.01133269,10.09422016
1691759715936884,-0.01102358,-0.11276199,0.00070951,10.65656757
1691759715939717,-0.00878520,-0.04121548,-0.00073011,10.50627995
1691759715944715,-0.02505177,0.00560620,-0.00161701,10.45408535
1691759715948016,-0.02673550,-0.01499732,-0.00118052,10.38155270
1691759715951027,0.03072002,0.02815031,-0.00214470,10.16084957
1691759715954343,-0.01294372,0.01408898,-0.00162982,10.63431835
1691759715957845,-0.03792156,-0.03550275,-0.00057052,10.34862900
1691759715961977,-0.00039043,-0.02552791,-0.00059083,10.33673000
1691759715965838,0.03625882,-0.02101255,-0.00056483,10.31276512
1691759715969854,0.09846406,0.26291162,-0.00996353,10.28772354
1691759715972418,-0.03600377,-0.06104940,-0.00061607,10.74268913
1691759715976146,-0.03043834,-0.05450918,-0.00071049,10.43730736
1691759715980409,-0.02036427,-0.05028211,-0.00067923,10.26566410
1691759715988066,-0.02029531,0.01797721,-0.00211778,10.12478542
1691759715988199,0.07449494,0.27890843,-0.01031248,9.99557686
1691759715992294,-0.04479419,-0.12739490,0.00052502,10.71855736
1691759715999158,-0.02807865,-0.06252516,-0.00060355,10.52825260
1691759715999305,-0.02812779,-0.02389321,-0.00132483,10.40038681
1691759716001981,-0.02503967,0.00494018,-0.00189021,10.24936390
1691759716006251,0.05085053,0.03488361,-0.00279020,10.13085175
1691759716010058,-0.03746100,-0.08590027,0.00015622,10.68933105
1691759716012390,-0.03219265,-0.00342557,-0.00131979,10.61903858
1691759716016061,-0.00992502,0.03738742,-0.00207815,10.47536755
1691759716019810,0.01006052,0.05957318,-0.00248488,10.39851284
1691759716023286,0.07402978,0.31178036,-0.01059394,10.19766140
1691759716026978,-0.04640039,-0.09147343,0.00041612,10.53594017
1691759716030498,0.00220458,-0.06680579,0.00026110,10.40157032
1691759716034166,-0.00152062,-0.02661194,-0.00062210,10.40963840
1691759716037835,-0.01287406,0.00211365,-0.00127848,10.31748009
1691759716041417,0.04833750,0.22743116,-0.00780743,10.15986443
1691759716045151,0.05627017,0.20949432,-0.00824753,10.18294811
1691759716048765,-0.06782144,-0.14540337,0.00023162,10.65406418
1691759716053055,-0.06380727,-0.08368428,-0.00073959,10.52922535
1691759716056889,-0.03350579,-0.04932910,-0.00117975,10.51930523
1691759716059596,-0.01025850,-0.00218409,-0.00229866,10.35368633
1691759716063624,0.06527633,0.23119281,-0.00964180,10.26779556
1691759716066965,-0.05572783,-0.14579682,0.00008928,10.67562389
1691759716071042,-0.04844214,-0.06025400,-0.00140523,10.51030731
1691759716074979,-0.02465282,-0.01700108,-0.00204240,10.55124664
1691759716078071,0.01704323,0.01466495,-0.00265418,10.22856140
1691759716082052,0.00387736,0.23097201,-0.00834036,10.39114094
1691759716086541,-0.03170762,-0.10878475,-0.00060051,10.49635601
1691759716089994,-0.02100202,-0.06877078,-0.00104313,10.55005836
1691759716092799,-0.01760943,-0.04558758,-0.00110305,10.47222805
1691759716096210,0.05920554,0.23170567,-0.00923748,10.14581203
1691759716100415,-0.04388212,-0.12213065,-0.00011862,10.65625668
1691759716105169,-0.03087167,-0.09029733,-0.00028935,10.48375988
1691759716107892,-0.02712377,-0.05416228,-0.00077339,10.48830318
1691759716110858,-0.00417443,-0.02576333,-0.00115990,10.41725922
1691759716114302,0.08711313,0.21205379,-0.00881146,10.27558708
1691759716118059,-0.04897005,-0.16889046,0.00109714,10.64504433
1691759716122115,-0.05552343,-0.09069119,-0.00020507,10.42367554
1691759716125983,-0.03734672,-0.02041780,-0.00134423,10.57252693
1691759716128908,0.02228716,-0.03157942,-0.00101390,10.21154499
1691759716132378,-0.04277767,-0.16305459,0.00187652,10.55019379
1691759716136043,-0.04921658,-0.01258132,-0.00064028,10.53792191
1691759716140084,-0.03001794,0.03883557,-0.00149774,10.49789715
1691759716143961,0.00248310,0.00654288,-0.00042431,10.42188549
1691759716147901,0.00896191,0.06352678,-0.00161170,10.13280487
1691759716150533,-0.06062622,-0.07970798,0.00163829,10.63289261
1691759716154188,-0.00438253,-0.03967983,0.00128758,10.36049461
1691759716158071,0.00890058,0.00452649,0.00059152,10.44934464
1691759716162408,-0.00042741,0.03341190,0.00016588,10.39755440
1691759716165350,-0.03819572,-0.02403629,0.00163693,10.62065697
1691759716168729,-0.00265365,-0.05338279,0.00262787,10.47197437
1691759716172830,0.01681033,-0.04619198,0.00279435,10.45772934
1691759716178214,-0.01975276,0.00415427,0.00179731,10.45940018
1691759716180065,0.10128817,0.24677990,-0.00606586,10.06711006
1691759716184490,-0.03210242,-0.12453964,0.00426037,10.80986500
1691759716187914,-0.03828472,-0.09730442,0.00384749,10.57915878
1691759716192044,-0.03157307,-0.05288018,0.00325923,10.56067181
1691759716194194,0.00347661,-0.04941152,0.00345026,10.22586727
1691759716198150,-0.01880901,-0.07436350,0.00391232,10.49450970
1691759716202093,-0.02595014,-0.15675688,0.00571061,10.48771954
1691759716206214,-0.02949161,-0.06421962,0.00388407,10.42575264
1691759716208736,-0.00576947,-0.04090468,0.00351517,10.35191727
1691759716213216,0.01146438,0.00034177,0.00257880,10.25748730
1691759716216185,-0.03855059,-0.17958619,0.00621656,10.51764488
1691759716220204,-0.01714768,-0.04993012,0.00384455,10.37593555
1691759716224236,0.01871747,-0.03673005,0.00369758,10.37971783
1691759716227957,0.06182271,0.04668014,0.00140007,10.21396255
1691759716230503,-0.03438457,-0.09243792,0.00461159,10.73414612
1691759716235105,-0.03075499,-0.03536826,0.00355364,10.52937984
1691759716237834,-0.02052533,-0.00345464,0.00292395,10.52884960
1691759716241971,0.02555478,0.01330604,0.00237251,10.26267910
1691759716245184,-0.03715157,-0.15423565,0.00622371,10.48154449
1691759716249117,-0.03155847,-0.02749413,0.00397722,10.39267731
1691759716253064,-0.00237435,0.01401972,0.00316806,10.45044231
1691759716257054,0.01992580,0.02013312,0.00293112,10.26498890
1691759716259674,0.12382532,0.24906440,-0.00512044,9.94279766
1691759716263365,-0.05115211,-0.09058277,0.00473139,10.60159111
1691759716267191,-0.04564923,-0.06140363,0.00416334,10.58585072
1691759716271635,-0.00164046,-0.07657941,0.00475245,10.40171432
1691759716275227,0.05101122,-0.06251299,0.00478952,10.07782841
1691759716278304,-0.03992501,-0.16419026,0.00644779,10.45967770
1691759716282044,-0.02233673,-0.04700158,0.00417052,10.41532993
1691759716285600,0.00396147,-0.03248585,0.00401556,10.48745346
1691759716290450,-0.02668376,-0.03206023,0.00401489,10.46163654
1691759716293192,-0.03235543,-0.02077953,0.00381189,10.39050579
1691759716296095,0.00157346,-0.01997756,0.00376484,10.22841167
1691759716301859,0.02132911,-0.02924847,0.00400669,10.19430923
1691759716304258,0.11481471,0.26580980,-0.00549245,10.02470779
1691759716306905,-0.04075133,-0.05241579,0.00399835,10.50525761
1691759716310953,-0.02888819,-0.03352004,0.00361346,10.41898441
1691759716315588,-0.00293821,-0.08123085,0.00496440,10.22187233
1691759716318171,0.10446434,0.23525210,-0.00431541,9.83573246
1691759716322334,-0.05897849,-0.12772202,0.00530220,10.59455299
1691759716326070,-0.02727626,-0.07761716,0.00463984,10.43419743
1691759716328844,0.00740366,-0.03673353,0.00411940,10.37213802
1691759716332424,0.00185865,0.00619364,0.00323277,10.19110966
1691759716336303,-0.03069850,-0.01045689,0.00357565,10.28561211
1691759716340243,0.02314989,-0.04745476,0.00462805,10.25198078
1691759716344206,0.02654878,-0.03121701,0.00434019,10.38049507
1691759716346844,0.01368398,0.03797482,0.00272381,10.25724220
1691759716350618,-0.02170468,0.03321984,0.00294419,10.38709927
1691759716354277,0.01062476,-0.05084705,0.00487975,10.27950573
1691759716358200,0.01654343,-0.00849916,0.00402128,10.17953491
1691759716362143,0.01807721,0.01219292,0.00363717,10.18009090
1691759716365168,0.09533427,0.25535396,-0.00410228,10.13171673
1691759716368841,0.03078672,0.26181021,-0.00380650,10.37191200
1691759716372542,-0.00580803,-0.16030176,0.00572730,10.24879932
1691759716376300,-0.01413635,-0.08714914,0.00402104,10.24168110
1691759716380352,0.00961818,-0.04591860,0.00312038,10.34486198
1691759716384324,0.05137214,0.00395346,0.00195268,10.27614307
1691759716386824,0.12189387,0.30600357,-0.00818942,9.99438190
1691759716391257,-0.05399535,-0.11116455,0.00323126,10.54481697
1691759716395027,0.02784448,-0.07369729,0.00313456,8.02182388
1691759716397865,0.06166088,0.00024514,0.00141269,7.88660002
1691759716403813,0.03987334,0.04630012,0.00025482,7.82853174
1691759716406084,0.18690054,0.38393304,-0.01294722,7.58229351
1691759716409393,0.08498446,0.30978584,-0.00826235,8.02563286
1691759716413240,0.00513132,-0.21114542,0.00490179,8.01323223
1691759716416306,-0.01345328,-0.13619480,0.00329970,7.81563568
1691759716419617,0.01380218,-0.04682601,0.00170291,7.89524889
1691759716423460,0.04916861,-0.04435515,0.00188087,7.93912697
1691759716427364,0.05191812,0.06951481,-0.00087617,8.00156116
1691759716431280,0.18980475,0.40024260,-0.01436123,7.69675589
1691759716435083,0.05261838,0.03195805,-0.00056928,8.15154552
1691759716437804,0.03007168,0.00436326,0.00022666,8.34729385
1691759716441525,0.02993251,0.05539277,-0.00077540,8.44939709
1691759716445363,0.03037914,0.03052560,0.00003568,8.59939289
1691759716449478,0.03369827,-0.01600785,0.00125483,8.47030354
1691759716453386,0.04698174,0.01941358,0.00062910,8.56640911
1691759716456003,0.00918053,-0.08084561,0.00325400,8.77983093
1691759716459698,0.15758231,0.29315004,-0.00930803,8.48254681
1691759716463369,0.03403570,0.08059590,-0.00084697,8.88975334
1691759716467433,0.01214027,0.03554944,0.00057449,9.05990314
1691759716471282,0.01695729,0.04027504,0.00061265,9.03833866
1691759716475240,0.01096299,0.00935553,0.00164232,9.02723217
1691759716478487,0.00682191,0.03152874,0.00137999,9.14001369
1691759716482363,0.01552395,0.02539165,0.00168898,9.22029591
1691759716485091,0.02046700,0.00950650,0.00241376,9.31693840
1691759716488810,0.00505630,0.00953783,0.00286212,9.36308575
1691759716492446,0.00846484,-0.00178481,0.00359312,9.44356060
1691759716496317,0.00052433,0.00518803,0.00390282,9.56072140
1691759716500487,0.00341580,-0.00475443,0.00453806,9.58467484
1691759716504216,0.00699547,0.00730230,0.00473763,9.65137482
1691759716506934,-0.00009984,0.02152156,0.00492007,9.66908646
1691759716510592,0.01125847,0.02880136,0.00527800,9.65872860
1691759716514344,0.00874896,0.04155617,0.00535827,9.69857121
1691759716518872,0.00947335,0.05489291,0.00534280,9.72679901
1691759716522552,0.00863714,0.06895115,0.00518443,9.75623798
1691759716525653,0.00733736,0.05707810,0.00559530,9.79251480
1691759716528708,0.00794128,0.05623449,0.00594935,9.83177280
1691759716532597,0.00009258,0.07580231,0.00573432,9.86268997
1691759716536408,0.00094758,0.07536602,0.00581025,9.89029884
1691759716540414,0.00588817,0.07322811,0.00602354,9.90030193
1691759716544273,0.06212150,0.22776996,0.00054804,9.86581993
1691759716550955,0.06317549,0.18637006,0.00089677,9.87650204
1691759716551663,-0.00514913,0.04202737,0.00559792,9.98671341
1691759716554050,-0.01708738,0.03747082,0.00600915,9.99542332
1691759716557836,-0.01979372,0.04016054,0.00602764,10.00542545
1691759716566846,-0.01320241,0.03666937,0.00612777,10.04687023
1691759716566999,-0.00969979,0.03881798,0.00621233,10.08724308
1691759716569375,-0.01096993,0.04630844,0.00610028,10.12390137
1691759716572447,-0.00460788,0.04135989,0.00614776,10.15022659
1691759716576466,-0.00307737,0.03224362,0.00641496,10.15691471
1691759716580429,0.05091397,0.15271521,0.00101669,10.22070503
1691759716584353,-0.00194449,0.01487163,0.00509363,10.24084663
1691759716586959,-0.00166659,0.02284323,0.00468132,10.28400993
1691759716590648,-0.00734945,0.01594346,0.00482002,10.30642414
1691759716594547,-0.01214576,0.04287157,0.00398822,10.29173946
1691759716598447,0.04109366,0.15246272,-0.00063016,10.38811111
1691759716601359,0.00768841,0.18456845,-0.00266929,10.53137112
1691759716606130,-0.02787503,-0.00808726,0.00259032,10.43625259
1691759716609534,-0.03070356,-0.02176308,0.00289828,10.39408684
1691759716613230,-0.01804551,-0.00843312,0.00244539,10.49292946
1691759716616021,-0.02445617,-0.00444710,0.00228143,10.40325928
1691759716620841,0.00863271,0.08134027,-0.00131677,10.36573601
1691759716623306,-0.03222688,-0.05674575,0.00233332,10.55069637
1691759716627055,-0.02765585,-0.03747398,0.00194002,10.51174736
1691759716630454,-0.04044145,-0.02039759,0.00174485,10.48629570
1691759716634164,-0.02981214,-0.00424132,0.00099436,10.40366459
1691759716637882,-0.03569621,-0.06683772,0.00259094,10.51213360
1691759716641540,-0.02987387,-0.03170672,0.00191936,10.47473049
1691759716645560,-0.03734542,-0.02161274,0.00175361,10.45049095
1691759716649568,-0.03959116,-0.02297299,0.00185391,10.49062538
1691759716652439,-0.02708390,-0.04099078,0.00243282,10.48327255
1691759716656437,-0.02640825,-0.02000922,0.00197073,10.50591660
1691759716660655,-0.02814608,-0.02412171,0.00219497,10.40835571
1691759716663271,0.02541934,0.09113769,-0.00177481,10.46375465
1691759716666977,-0.01376223,-0.06632790,0.00248776,10.54438877
1691759716670659,-0.01797214,-0.04687170,0.00198965,10.52749252
1691759716674471,-0.03148659,-0.05598037,0.00215411,10.44902134
1691759716678539,0.00885993,0.05642304,-0.00162915,10.43611526
1691759716682423,-0.02723162,-0.09435678,0.00222774,10.53484535
1691759716685099,-0.03616393,-0.06589501,0.00143904,10.43904591
1691759716688721,-0.03990150,-0.06140791,0.00127827,10.41134071
1691759716692518,-0.03064494,-0.04272374,0.00077460,10.35429096
1691759716695950,-0.03511837,-0.09877357,0.00210904,10.44433784
1691759716699749,-0.03392179,-0.05573659,0.00105966,10.41429996
1691759716703509,-0.03422302,-0.04592113,0.00074637,10.37883377
1691759716707597,-0.03950603,-0.05664259,0.00090770,10.37955666
1691759716710633,-0.03307709,-0.05881434,0.00089654,10.39177895
1691759716714976,-0.02871663,-0.03847704,0.00036672,10.41438103
1691759716717843,0.00279352,0.03451778,-0.00184316,10.41276741
1691759716721695,-0.03330826,-0.10420492,0.00176614,10.46639633
1691759716725094,-0.03181515,-0.06328571,0.00064502,10.34134865
1691759716728754,-0.02832740,-0.05521746,0.00049014,10.33629036
1691759716732636,-0.02550612,-0.04975186,0.00038480,10.29963684
1691759716736653,-0.03502277,-0.10158735,0.00198570,10.40475178
1691759716740701,-0.02938802,-0.05638018,0.00097043,10.31781387
1691759716743268,-0.02651282,-0.04493906,0.00071421,10.30835629
1691759716746948,-0.02162704,-0.03313266,0.00042902,10.26296234
1691759716750589,-0.02339929,-0.08375835,0.00216211,10.33822727
1691759716754660,-0.02223990,-0.04449442,0.00124442,10.28121376
1691759716758678,-0.01535319,-0.03131394,0.00098088,10.29819870
1691759716761489,-0.01379007,-0.03529639,0.00109688,10.24607468
1691759716765590,-0.02041420,-0.07649402,0.00240034,10.31319427
1691759716769646,-0.01405760,-0.04187806,0.00157798,10.31534290
1691759716772316,-0.00386058,-0.03256257,0.00148428,10.33802605
1691759716776662,-0.00573668,-0.04093525,0.00178904,10.26882744
1691759716780642,0.03487547,0.04628180,-0.00123264,10.25968838
1691759716783348,-0.00361423,-0.04401856,0.00109446,10.29134846
1691759716786877,-0.00105367,-0.04762121,0.00137316,10.31593609
1691759716790772,-0.00085730,-0.03800159,0.00130258,10.31753063
1691759716794649,-0.00272849,-0.02916377,0.00087572,10.25710869
1691759716798688,-0.00343914,-0.09253745,0.00256371,10.34543800
1691759716801447,0.00063251,-0.05125652,0.00183134,10.28147030
1691759716805954,0.00429356,-0.03694562,0.00184908,10.29797840
1691759716809596,0.00040937,-0.02206702,0.00136661,10.27452087
1691759716812307,0.05327510,0.05291042,-0.00139163,10.26382256
1691759716816033,0.01492256,-0.05719643,0.00192521,10.30387306
1691759716819686,0.00504633,-0.03525478,0.00138150,10.27264309
1691759716823992,0.01111111,-0.02105918,0.00096467,10.31665230
1691759716827612,0.05261327,0.05303087,-0.00155084,10.32668686
1691759716831569,0.01905863,-0.10075004,0.00290341,10.41038132
1691759716834046,0.01112975,-0.04744920,0.00175073,10.31432724
1691759716838673,0.01554481,-0.02176108,0.00111717,10.33128643
1691759716841703,0.02075591,-0.02486395,0.00117460,10.33725071
1691759716845759,0.05515214,0.04640487,-0.00099997,10.31800079
1691759716849790,0.01342031,-0.07852080,0.00241979,10.36261082
1691759716852334,0.01134665,-0.03488146,0.00124732,10.28774071
1691759716856220,0.02209589,-0.01820730,0.00085823,10.31417656
1691759716859710,0.01831673,-0.01758445,0.00091290,10.28695774
1691759716863809,0.06249204,0.07268471,-0.00246451,10.28486443
1691759716867719,0.02956158,-0.02364683,-0.00004135,10.32867718
1691759716871291,0.02948792,-0.02905767,0.00020617,10.32204723
1691759716874717,0.02185302,-0.01151449,-0.00024216,10.31623650
1691759716878697,0.02548484,0.00411573,-0.00096912,10.28799629
1691759716881407,0.03504900,-0.06938858,0.00115038,10.42079353
1691759716885481,0.03231677,-0.02972428,0.00028206,10.37025833
1691759716888802,0.02295160,-0.01151735,-0.00012544,10.31593132
1691759716892724,0.02076233,-0.00325873,-0.00036019,10.31509113
1691759716896717,0.08026704,0.08605567,-0.00384269,10.34632111
1691759716900502,0.03704275,-0.02503771,-0.00051171,10.37613583
1691759716903695,0.01617604,-0.00117169,-0.00111161,10.32199669
1691759716906921,0.02037469,0.00852404,-0.00140369,10.32194328
1691759716910843,0.03214724,0.01438934,-0.00170014,10.27203274
1691759716914743,0.03050567,-0.04432994,0.00041163,10.36008835
1691759716918760,0.01902244,-0.00071192,-0.00062660,10.33235550
1691759716921396,0.02249526,0.01210221,-0.00100839,10.33004475
1691759716925523,0.03710200,0.00664259,-0.00076559,10.33526897
1691759716928841,0.03194072,0.01993100,-0.00119974,10.28324413
1691759716932822,0.02426249,-0.01074280,-0.00029230,10.35499191
1691759716936877,0.03220516,0.00871668,-0.00076544,10.36489391
1691759716940494,0.04262161,0.01840482,-0.00096367,10.38257122
1691759716943215,0.03310284,0.02612315,-0.00108354,10.31472015
1691759716946978,0.01986641,-0.01850520,0.00024448,10.37336826
1691759716951198,0.03160870,0.00971191,-0.00041816,10.34016895
1691759716955227,0.03990299,0.02005352,-0.00054398,10.37687397
1691759716958725,0.02605370,0.03102996,-0.00064080,10.32899952
1691759716961441,0.02927302,0.04404052,-0.00118501,10.27840805
1691759716965143,0.02673193,0.00593628,0.00010806,10.32129765
1691759716968883,0.02452743,0.02871098,-0.00038421,10.31692886
1691759716973765,0.02554409,0.03979262,-0.00058797,10.33739281
1691759716977119,0.07949509,0.14658087,-0.00493258,10.34014606
1691759716980760,0.03251719,-0.00396633,0.00005765,10.34305191
1691759716983186,0.01952752,0.01931934,-0.00046305,10.30093384
1691759716986957,0.01334378,0.02870006,-0.00060880,10.30449295
1691759716990825,0.01876161,0.03201209,-0.00071503,10.31462669
1691759716994924,0.08667523,0.11832149,-0.00484927,10.30781746
1691759716999794,0.01849061,0.00840064,-0.00094241,10.32065010
1691759717004488,0.00056450,0.02291160,-0.00125773,10.29574108
1691759717005064,0.00654281,0.02274110,-0.00119993,10.31202698
1691759717008899,0.05409059,0.09001076,-0.00393474,10.31102085
1691759717012838,0.00671752,-0.00656387,-0.00060981,10.33350658
1691759717016813,-0.00783687,0.01277440,-0.00093733,10.27639008
1691759717019786,-0.00092514,0.01762624,-0.00086948,10.27985287
1691759717023812,0.00297088,0.01437864,-0.00054165,10.27170658
1691759717028220,0.05421619,0.11099257,-0.00473240,10.27402592
1691759717030428,-0.00384258,0.01116541,-0.00135440,10.30198383
1691759717034216,-0.00186400,0.00765229,-0.00120852,10.30498314
1691759717037824,0.00042258,0.01902993,-0.00130061,10.30872822
1691759717042116,-0.00609062,0.02473480,-0.00151474,10.25981045
1691759717045155,-0.00788548,-0.00991982,-0.00018817,10.32955265
1691759717048829,-0.00184640,0.00243726,-0.00033378,10.31924534
1691759717052833,-0.00485778,0.01170002,-0.00030953,10.31717491
1691759717056846,-0.01083808,0.01398798,-0.00019256,10.26907444
1691759717059802,-0.01353615,-0.02506395,0.00128716,10.30753994
1691759717063914,-0.01132950,0.00107277,0.00077394,10.29109001
1691759717067902,-0.00843293,0.00691885,0.00095473,10.30511570
1691759717070946,-0.01182977,0.01753289,0.00068151,10.28125000
1691759717074834,-0.01506585,-0.03629383,0.00255340,10.31175327
1691759717078697,-0.01438384,0.00108153,0.00168154,10.28712654
1691759717081455,-0.01088902,0.01493984,0.00139709,10.29099941
1691759717085153,-0.01131509,0.00919482,0.00181039,10.29107285
1691759717088914,0.04523379,0.10675135,-0.00210063,10.28409767
1691759717092799,-0.01292230,0.00368162,0.00146540,10.29258633
1691759717096972,-0.02356555,0.00483109,0.00162647,10.27041149
1691759717099576,-0.02264396,0.00447502,0.00202745,10.27783966
1691759717103268,-0.01669142,0.00957859,0.00196835,10.27078533
1691759717106918,0.04325651,0.10139824,-0.00193263,10.27100277
1691759717110719,-0.01394505,-0.00996884,0.00205478,10.30306816
1691759717114292,-0.02514704,-0.00737651,0.00223089,10.27890396
1691759717118047,-0.02600873,-0.00709614,0.00240664,10.27092648
1691759717122009,-0.02310956,-0.00863799,0.00257145,10.25407219
1691759717125848,-0.02370322,-0.01226542,0.00298029,10.29350376
1691759717129129,-0.02333372,-0.02020845,0.00354755,10.28390598
1691759717132313,-0.01929697,-0.02148798,0.00383862,10.28002930
1691759717135895,-0.01906150,-0.01090564,0.00362213,10.28123188
1691759717139557,0.03568099,0.05843344,0.00097359,10.26100159
1691759717143766,-0.00989562,-0.04410308,0.00452159,10.30444145
1691759717147424,-0.01929211,-0.02731646,0.00415413,10.29150200
1691759717150886,-0.01678576,-0.02511107,0.00430757,10.29775047
1691759717154903,-0.01360507,-0.02444003,0.00448646,10.26918507
1691759717157818,-0.01733437,-0.06313019,0.00591236,10.33137321
1691759717162366,-0.01992508,-0.03493100,0.00523680,10.29387951
1691759717165940,-0.00802335,-0.03181083,0.00555984,10.32334709
1691759717170365,-0.01577584,-0.02800955,0.00564342,10.29034233
1691759717172368,0.03056814,0.05201048,0.00290160,10.26284504
1691759717176008,-0.01165087,-0.03629433,0.00570314,10.28621101
1691759717179948,-0.01594405,-0.03340090,0.00577439,10.28439999
1691759717183982,-0.01818233,-0.02910515,0.00592912,10.29543209
1691759717186901,0.00781554,0.03200988,0.00392587,10.27987099
1691759717191091,-0.01385969,-0.06941198,0.00718043,10.33154011
1691759717195038,-0.01384757,-0.04984593,0.00692253,10.29596519
1691759717197800,-0.02003167,-0.03573873,0.00678802,10.28047466
1691759717202029,-0.02419121,-0.02597311,0.00666674,10.28005791
1691759717206067,0.02678580,0.03309863,0.00484229,10.28418159
1691759717208941,-0.00697025,-0.08208856,0.00908019,10.33991909
1691759717212961,-0.02018715,-0.04711019,0.00841609,10.28434658
1691759717216000,-0.02014595,-0.03580184,0.00827493,10.27423096
1691759717219557,-0.01007471,-0.04131891,0.00880286,10.27193832
1691759717223161,0.02737237,0.02844342,0.00682074,10.25328732
1691759717226848,-0.01308169,-0.05097200,0.00952647,10.28532887
1691759717231000,-0.01781934,-0.03464615,0.00925821,10.27131176
1691759717234898,-0.00694046,-0.03878242,0.00969289,10.27420616
1691759717237751,-0.01449054,-0.02903703,0.00961229,10.25172997
1691759717241424,0.02946863,0.03886467,0.00744585,10.23719311
1691759717245095,0.00033322,-0.06595750,0.01100382,10.30434036
1691759717249085,-0.00784076,-0.04165033,0.01054381,10.28295231
1691759717253054,-0.01263920,-0.02684427,0.01031730,10.27312183
1691759717256017,-0.01440165,-0.02824829,0.01045880,10.25882053
1691759717259928,0.03806373,0.03620803,0.00819234,10.25606346
1691759717264037,0.00928569,-0.09124359,0.01250953,10.33588314
1691759717267805,-0.01085301,-0.03952064,0.01114421,10.27714443
1691759717271087,-0.00855790,-0.02598519,0.01077734,10.27418041
1691759717275118,0.00650873,-0.03651255,0.01116482,10.27474880
1691759717277888,0.00365578,-0.02565631,0.01088597,10.24207783
1691759717282076,-0.00309376,-0.06791856,0.01232567,10.28005123
1691759717285974,-0.00522109,-0.03349530,0.01144156,10.26844883
1691759717288861,0.00487756,-0.02627152,0.01139629,10.27532005
1691759717292951,-0.00341876,-0.02388543,0.01143732,10.24962139
1691759717296065,0.04595827,0.05535585,0.00845799,10.21565247
1691759717300220,0.01332998,-0.05012918,0.01174600,10.26758099
1691759717304096,0.00656963,-0.02752313,0.01118421,10.26836967
1691759717307152,-0.00325972,-0.01511608,0.01087946,10.26136875
1691759717310673,-0.00117351,-0.01248521,0.01073117,10.25773144
1691759717314790,0.02072386,-0.00705357,0.01035076,10.24579525
1691759717317721,0.01659359,-0.06684189,0.01230022,10.28671455
1691759717321396,0.00052512,-0.02390620,0.01113252,10.26763630
1691759717324976,0.00245900,-0.01384981,0.01081220,10.27124214
1691759717329871,0.01445293,-0.01535697,0.01084172,10.27829647
1691759717334212,0.01812353,-0.00680697,0.01051395,10.24186897
1691759717336498,0.00677556,-0.04000735,0.01156033,10.26525211
1691759717340125,0.00687147,-0.01560044,0.01069019,10.25065136
1691759717343427,0.01565969,-0.00578839,0.01038017,10.26544666
1691759717347132,0.00657742,-0.00026622,0.01017059,10.25352955
1691759717351114,0.06064914,0.08268381,0.00654922,10.23624706
1691759717356218,0.02742758,-0.04358885,0.01049425,10.27777672
1691759717358821,0.01549038,-0.01482848,0.00962405,10.25121117
1691759717361440,0.00639002,0.00280464,0.00901980,10.25613117
1691759717365172,0.01176381,-0.00202245,0.00900782,10.26637745
1691759717369173,0.02582868,-0.00113626,0.00878786,10.25585651
1691759717373438,0.08327036,0.09348914,0.00470116,10.22419739
1691759717377139,0.01690038,-0.01148012,0.00805657,10.26441574
1691759717379960,0.01357600,-0.01026388,0.00785084,10.25362301
1691759717383144,0.01910112,-0.00666315,0.00756305,10.26089478
1691759717386894,0.00949994,0.00539117,0.00710681,10.26843166
1691759717390579,0.05355487,0.07572028,0.00423783,10.25376034
1691759717394144,0.07646962,0.09264371,0.00237967,10.22793865
1691759717398155,0.02225514,-0.01521573,0.00574791,10.26948071
1691759717401486,0.00036599,0.00445538,0.00503110,10.25383091
1691759717405133,0.00399912,0.00307367,0.00486578,10.26122856
1691759717408665,0.01377730,0.00165152,0.00474532,10.27006817
1691759717412890,0.05829916,0.08476283,0.00148200,10.25885582
1691759717416189,0.03841424,0.08497215,0.00089809,10.27211857
1691759717420123,0.02451974,-0.02627251,0.00396430,10.28839970
1691759717425342,0.01044140,-0.00901977,0.00333889,10.26800060
1691759717427151,0.00153443,0.00686149,0.00281396,10.27387428
1691759717430977,0.00845964,0.00710085,0.00268607,10.26655197
1691759717434509,0.08003739,0.08223150,-0.00086404,10.24432564
1691759717438200,0.02567837,-0.01728704,0.00234133,10.30492115
1691759717442934,0.00253536,-0.00204858,0.00174017,10.27142715
1691759717445146,0.00782032,0.00038538,0.00152356,10.27928543
1691759717450330,0.01164100,0.00860461,0.00114409,10.28494740
1691759717453556,0.06758512,0.10051257,-0.00290552,10.27973557
1691759717456381,0.01105207,-0.01016191,0.00075648,10.31105709
1691759717459984,0.00797705,-0.00127321,0.00044518,10.29703903
1691759717463765,0.01037215,0.00199304,0.00027981,10.27942848
1691759717467364,0.00060086,0.01453812,-0.00009658,10.27832317
1691759717471311,0.00283212,0.01674337,-0.00029775,10.26433754
1691759717475181,0.08752389,0.12337267,-0.00525350,10.27131462
1691759717477808,0.01203637,0.01828579,-0.00146283,10.30119133
1691759717481392,-0.00396068,0.01815912,-0.00140921,10.29453659
1691759717485252,0.00372189,0.01810680,-0.00143140,10.31328773
1691759717489592,0.00521106,0.01457636,-0.00140037,10.28614712
1691759717493554,0.06543632,0.11485271,-0.00569514,10.26986599
1691759717496240,0.00077730,-0.00624465,-0.00140346,10.33482075
1691759717500324,-0.00636513,0.00708641,-0.00179473,10.31059074
1691759717503291,-0.00880956,0.01872559,-0.00212317,10.30496597
1691759717507339,-0.01175535,0.02104219,-0.00205785,10.30136585
1691759717511356,-0.01150018,0.02301848,-0.00222175,10.28168297
1691759717514157,0.06565804,0.15602556,-0.00830290,10.28007793
1691759717517746,-0.00767619,0.03130846,-0.00371898,10.28901672
1691759717521447,-0.01630102,0.02574791,-0.00349346,10.31231689
1691759717525157,-0.01136870,0.02380267,-0.00330793,10.32390499
1691759717529314,-0.01007715,0.02872016,-0.00343038,10.31217575
1691759717533282,0.05049317,0.13723435,-0.00789139,10.31060505
1691759717536097,-0.01410043,0.01901202,-0.00345478,10.34058666
1691759717539553,-0.01921042,0.01935317,-0.00326115,10.30923939
1691759717543264,-0.01288857,0.02982455,-0.00342598,10.34637165
1691759717547329,-0.02250420,0.02913424,-0.00305362,10.32641697
1691759717551328,0.02906369,0.12699300,-0.00670003,10.33205795
1691759717554081,-0.01891727,0.00856957,-0.00250224,10.35189056
1691759717557778,-0.02878962,0.01863839,-0.00258054,10.30851364
1691759717561471,-0.02552796,0.02774004,-0.00241947,10.32211876
1691759717565435,-0.02190304,0.02199616,-0.00184588,10.31744766
1691759717569379,0.03951997,0.13701139,-0.00624226,10.32581902
1691759717572349,-0.01860802,0.01142678,-0.00122639,10.33727264
1691759717575957,-0.02528787,0.01747553,-0.00093267,10.31815434
1691759717579622,-0.02407775,0.01741308,-0.00064681,10.30930614
1691759717583208,-0.02171883,0.01948497,-0.00044968,10.31390953
1691759717586820,-0.01937772,0.02689612,-0.00028872,10.31424046
1691759717590570,0.03747063,0.14129655,-0.00464502,10.32041454
1691759717594281,-0.02482137,0.01051431,0.00010626,10.31648922
1691759717598364,-0.02607470,0.01305218,0.00043240,10.30148125
1691759717602051,-0.02569110,0.02335110,0.00059054,10.31529713
1691759717605371,-0.02596466,0.01091463,0.00114584,10.30686283
1691759717609402,0.03580246,0.12013250,-0.00308445,10.32735252
1691759717613102,0.04227718,0.14244384,-0.00470645,10.29766369
1691759717615924,-0.02571293,0.01781084,-0.00022566,10.30588341
1691759717619668,-0.03100612,0.00856378,0.00013719,10.29925632
1691759717623407,-0.02736984,0.00685973,0.00030366,10.29673576
1691759717628682,-0.03163736,0.00586102,0.00053061,10.29547787
1691759717631391,0.01334712,0.08021250,-0.00242193,10.30088520
1691759717634129,-0.02841692,-0.02044376,0.00093673,10.32946777
1691759717638821,-0.03544177,-0.00707868,0.00057757,10.29494572
1691759717642366,-0.03415092,-0.00668653,0.00090418,10.29632759
1691759717645048,-0.03156715,-0.00188957,0.00096327,10.30038166
1691759717649123,-0.02269028,0.00360325,0.00067094,10.28325939
1691759717652376,-0.03058016,-0.03000717,0.00206070,10.32138634
1691759717656419,-0.02963233,-0.01011563,0.00188540,10.31265926
1691759717660402,-0.02308285,0.00360966,0.00157557,10.32555294
1691759717664228,-0.02308579,0.00645921,0.00159876,10.31749630
1691759717666925,-0.01507112,0.01998799,0.00132886,10.30576992
1691759717670450,0.01322823,0.17632632,-0.00457263,10.36606884
1691759717674354,-0.02559772,0.01521806,0.00048058,10.31020641
1691759717678418,-0.02376821,0.00056575,0.00103554,10.31106281
1691759717682408,-0.02391630,-0.00209295,0.00149364,10.31128025
1691759717685425,-0.02596911,0.00100410,0.00150761,10.30157280
1691759717688861,-0.01279586,0.01390299,0.00112861,10.29819298
1691759717692484,0.05502263,0.13792208,-0.00364089,10.29083252
1691759717696394,-0.01810832,-0.00535244,0.00186058,10.32185555
1691759717700522,-0.02494585,-0.00906004,0.00219949,10.31489563
1691759717703153,-0.01768874,-0.00633904,0.00245711,10.32996655
1691759717706933,-0.02114374,-0.01153443,0.00301291,10.31484985
