timestamp,roll,pitch,thrust,yaw,aux1,aux2,aux3,aux4
1691768706635668,1500,1500,1000,1500,1000,0,0,0
1691768706645682,1500,1500,1000,1500,1000,0,0,0
1691768706655774,1500,1500,1000,1500,1000,0,0,0
1691768706665607,1500,1500,1000,1500,1000,0,0,0
1691768706675648,1500,1500,1000,1500,1000,0,0,0
1691768706685591,1500,1500,1000,1500,1000,0,0,0
1691768706695662,1500,1500,1000,1500,1000,0,0,0
1691768706705616,1500,1500,1000,1500,1000,0,0,0
1691768706715669,1500,1500,1000,1500,1000,0,0,0
1691768706725601,1500,1500,1000,1500,1000,0,0,0
1691768706736289,1496,1527,1253,1456,1000,0,0,0
1691768706740132,1496,1530,1278,1452,1000,0,0,0
1691768706742720,1496,1530,1280,1451,1000,0,0,0
1691768706746511,1496,1530,1281,1451,1000,0,0,0
1691768706750228,1496,1530,1282,1451,1000,0,0,0
1691768706754340,1496,1530,1282,1451,1000,0,0,0
1691768706758199,1496,1531,1282,1451,1000,0,0,0
1691768706760799,1496,1530,1282,1451,1000,0,0,0
1691768706764566,1496,1530,1283,1451,1000,0,0,0
1691768706768202,1496,1530,1283,1451,1000,0,0,0
1691768706772348,1496,1530,1283,1452,1000,0,0,0
1691768706776083,1496,1530,1285,1452,1000,0,0,0
1691768706780212,1496,1529,1285,1453,1000,0,0,0
1691768706782945,1496,1529,1284,1454,1000,0,0,0
1691768706786360,1495,1528,1284,1455,1000,0,0,0
1691768706790303,1496,1527,1285,1457,1000,0,0,0
1691768706794312,1495,1525,1284,1458,1000,0,0,0
1691768706798274,1493,1524,1285,1460,1000,0,0,0
1691768706800813,1488,1512,1289,1462,1000,0,0,0
1691768706804685,1488,1510,1288,1464,1000,0,0,0
1691768706808300,1486,1510,1287,1466,1000,0,0,0
1691768706812550,1485,1513,1290,1469,1000,0,0,0
1691768706816776,1486,1513,1289,1471,1000,0,0,0
1691768706821198,1490,1509,1289,1473,1000,0,0,0
1691768706822639,1487,1508,1284,1474,1000,0,0,0
1691768706826300,1490,1504,1284,1476,1000,0,0,0
1691768706830349,1484,1493,1284,1478,1000,0,0,0
1691768706834332,1486,1499,1271,1479,1000,0,0,0
1691768706838363,1482,1486,1276,1480,1000,0,0,0
1691768706841139,1486,1484,1274,1482,1000,0,0,0
1691768706844634,1489,1483,1267,1483,1000,0,0,0
1691768706848383,1493,1483,1261,1483,1000,0,0,0
1691768706852467,1504,1494,1244,1485,1000,0,0,0
1691768706856346,1495,1483,1260,1486,1000,0,0,0
1691768706860326,1505,1489,1244,1487,1000,0,0,0
1691768706862868,1498,1480,1257,1488,1000,0,0,0
1691768706866792,1499,1477,1255,1489,1000,0,0,0
1691768706871318,1513,1489,1232,1489,1000,0,0,0
1691768706874407,1505,1480,1249,1490,1000,0,0,0
1691768706877360,1499,1477,1250,1491,1000,0,0,0
1691768706881616,1512,1480,1242,1491,1000,0,0,0
1691768706885764,1502,1472,1248,1493,1000,0,0,0
1691768706891646,1504,1470,1246,1493,1000,0,0,0
1691768706892135,1508,1469,1243,1494,1000,0,0,0
1691768706895787,1508,1473,1239,1494,1000,0,0,0
1691768706900601,1519,1493,1220,1495,1000,0,0,0
1691768706903612,1504,1474,1247,1496,1000,0,0,0
1691768706907441,1505,1469,1248,1496,1000,0,0,0
1691768706910531,1508,1466,1244,1497,1000,0,0,0
1691768706913984,1508,1469,1242,1497,1000,0,0,0
1691768706918939,1510,1470,1241,1497,1000,0,0,0
1691768706921673,1512,1471,1240,1498,1000,0,0,0
1691768706925630,1514,1471,1239,1498,1000,0,0,0
1691768706929460,1536,1486,1219,1498,1000,0,0,0
1691768706932190,1529,1487,1231,1499,1000,0,0,0
1691768706935959,1504,1476,1248,1500,1000,0,0,0
1691768706939631,1500,1472,1249,1500,1000,0,0,0
1691768706943570,1489,1437,1230,1502,1000,0,0,0
1691768706946554,1500,1453,1237,1501,1000,0,0,0
1691768706950449,1511,1485,1250,1500,1000,0,0,0
1691768706955090,1506,1466,1233,1500,1000,0,0,0
1691768706958384,1506,1472,1238,1500,1000,0,0,0
1691768706961318,1507,1475,1242,1500,1000,0,0,0
1691768706965071,1508,1476,1246,1500,1000,0,0,0
1691768706970196,1508,1478,1247,1500,1000,0,0,0
1691768706972557,1507,1482,1243,1500,1000,0,0,0
1691768706976419,1507,1484,1241,1500,1000,0,0,0
1691768706980867,1507,1486,1245,1500,1000,0,0,0
1691768706982931,1505,1484,1251,1500,1000,0,0,0
1691768706986566,1506,1483,1249,1499,1000,0,0,0
1691768706990608,1509,1483,1249,1499,1000,0,0,0
1691768706994463,1508,1485,1249,1499,1000,0,0,0
1691768707000843,1511,1485,1245,1499,1000,0,0,0
1691768707001398,1510,1488,1247,1499,1000,0,0,0
1691768707004718,1508,1490,1249,1499,1000,0,0,0
1691768707008441,1620,1504,1177,1500,1000,0,0,0
1691768707012471,1573,1531,1201,1503,1000,0,0,0
1691768707017291,1531,1526,1231,1502,1000,0,0,0
1691768707019613,1481,1506,1265,1501,1000,0,0,0
1691768707023005,1502,1505,1254,1501,1000,0,0,0
1691768707026434,1513,1509,1241,1501,1000,0,0,0
1691768707030658,1511,1509,1238,1502,1000,0,0,0
1691768707034595,1503,1507,1247,1502,1000,0,0,0
1691768707038343,1497,1506,1248,1502,1000,0,0,0
1691768707041079,1496,1504,1247,1502,1000,0,0,0
1691768707044607,1495,1501,1249,1502,1000,0,0,0
1691768707048538,1494,1502,1242,1502,1000,0,0,0
1691768707052542,1493,1506,1247,1502,1000,0,0,0
1691768707055768,1487,1499,1247,1502,1000,0,0,0
1691768707059221,1486,1503,1245,1502,1000,0,0,0
1691768707062698,1486,1506,1251,1502,1000,0,0,0
1691768707066693,1488,1497,1249,1502,1000,0,0,0
1691768707071258,1485,1499,1250,1502,1000,0,0,0
1691768707074577,1482,1502,1253,1502,1000,0,0,0
1691768707078200,1484,1501,1254,1502,1000,0,0,0
1691768707080967,1482,1500,1251,1502,1000,0,0,0
1691768707084661,1479,1501,1253,1502,1000,0,0,0
1691768707088577,1479,1502,1254,1502,1000,0,0,0
1691768707092575,1481,1499,1252,1501,1000,0,0,0
1691768707095611,1482,1500,1250,1501,1000,0,0,0
1691768707099687,1442,1480,1275,1501,1000,0,0,0
1691768707103524,1441,1473,1281,1500,1000,0,0,0
1691768707107360,1456,1483,1277,1499,1000,0,0,0
1691768707110070,1463,1487,1271,1498,1000,0,0,0
1691768707113709,1468,1493,1263,1498,1000,0,0,0
1691768707118327,1476,1491,1259,1498,1000,0,0,0
1691768707125263,1485,1486,1255,1497,1000,0,0,0
1691768707125593,1487,1486,1252,1497,1000,0,0,0
1691768707128401,1495,1485,1251,1496,1000,0,0,0
1691768707132708,1496,1487,1250,1496,1000,0,0,0
1691768707136390,1498,1491,1249,1496,1000,0,0,0
1691768707139649,1496,1491,1255,1496,1000,0,0,0
1691768707142791,1499,1486,1250,1496,1000,0,0,0
1691768707146686,1500,1489,1247,1496,1000,0,0,0
1691768707150628,1504,1491,1242,1496,1000,0,0,0
1691768707154683,1505,1494,1240,1496,1000,0,0,0
1691768707157364,1502,1499,1243,1496,1000,0,0,0
1691768707160985,1503,1494,1249,1496,1000,0,0,0
1691768707164671,1506,1498,1245,1496,1000,0,0,0
1691768707168673,1507,1488,1246,1496,1000,0,0,0
1691768707174958,1508,1491,1247,1496,1000,0,0,0
1691768707176157,1644,1505,1169,1497,1000,0,0,0
1691768707179206,1563,1516,1219,1498,1000,0,0,0
1691768707182745,1531,1512,1241,1498,1000,0,0,0
1691768707186533,1521,1509,1246,1498,1000,0,0,0
1691768707190804,1515,1505,1247,1498,1000,0,0,0
1691768707194581,1510,1504,1247,1498,1000,0,0,0
1691768707197376,1512,1500,1246,1499,1000,0,0,0
1691768707201127,1513,1501,1243,1499,1000,0,0,0
1691768707205127,1508,1506,1244,1499,1000,0,0,0
1691768707208667,1503,1502,1248,1499,1000,0,0,0
1691768707212859,1505,1506,1249,1499,1000,0,0,0
1691768707215652,1502,1499,1246,1499,1000,0,0,0
1691768707219653,1502,1500,1249,1499,1000,0,0,0
1691768707223856,1507,1506,1240,1500,1000,0,0,0
1691768707226699,1467,1485,1270,1500,1000,0,0,0
1691768707230752,1475,1491,1272,1500,1000,0,0,0
1691768707234678,1484,1493,1269,1499,1000,0,0,0
1691768707237301,1565,1493,1208,1499,1000,0,0,0
1691768707241097,1536,1510,1231,1500,1000,0,0,0
1691768707244646,1522,1508,1243,1500,1000,0,0,0
1691768707248822,1513,1507,1254,1500,1000,0,0,0
1691768707252664,1512,1504,1252,1500,1000,0,0,0
1691768707256361,1509,1503,1252,1500,1000,0,0,0
1691768707259223,1508,1503,1250,1500,1000,0,0,0
1691768707262993,1512,1504,1246,1500,1000,0,0,0
1691768707266653,1505,1506,1248,1500,1000,0,0,0
1691768707270727,1504,1503,1252,1500,1000,0,0,0
1691768707274483,1504,1504,1251,1500,1000,0,0,0
1691768707277808,1504,1503,1252,1500,1000,0,0,0
1691768707281031,1506,1503,1252,1500,1000,0,0,0
1691768707284618,1506,1504,1251,1500,1000,0,0,0
1691768707288895,1503,1504,1251,1500,1000,0,0,0
1691768707292621,1504,1503,1251,1501,1000,0,0,0
1691768707295682,1505,1506,1250,1501,1000,0,0,0
1691768707299335,1503,1505,1254,1501,1000,0,0,0
1691768707303665,1504,1503,1253,1501,1000,0,0,0
1691768707306405,1506,1502,1253,1501,1000,0,0,0
1691768707310029,1505,1503,1254,1501,1000,0,0,0
1691768707313789,1506,1503,1253,1501,1000,0,0,0
1691768707318620,1505,1509,1250,1501,1000,0,0,0
1691768707321728,1500,1507,1253,1500,1000,0,0,0
1691768707325613,1462,1493,1275,1500,1000,0,0,0
1691768707328701,1469,1494,1278,1500,1000,0,0,0
1691768707331813,1477,1497,1274,1499,1000,0,0,0
1691768707335875,1484,1498,1271,1499,1000,0,0,0
1691768707339809,1488,1492,1268,1499,1000,0,0,0
1691768707343938,1492,1494,1264,1499,1000,0,0,0
1691768707346396,1495,1495,1261,1498,1000,0,0,0
1691768707350030,1501,1494,1256,1498,1000,0,0,0
1691768707354601,1510,1502,1248,1498,1000,0,0,0
1691768707357768,1505,1498,1258,1498,1000,0,0,0
1691768707361753,1505,1498,1258,1498,1000,0,0,0
1691768707364680,1508,1498,1255,1498,1000,0,0,0
1691768707368276,1511,1498,1254,1497,1000,0,0,0
1691768707371912,1515,1496,1252,1497,1000,0,0,0
1691768707375667,1589,1542,1206,1502,1000,0,0,0
1691768707379059,1570,1519,1212,1500,1000,0,0,0
1691768707382830,1537,1511,1242,1499,1000,0,0,0
1691768707386832,1523,1508,1248,1499,1000,0,0,0
1691768707390924,1513,1505,1256,1499,1000,0,0,0
1691768707394640,1508,1508,1254,1500,1000,0,0,0
1691768707397407,1509,1501,1257,1500,1000,0,0,0
1691768707401028,1507,1498,1255,1500,1000,0,0,0
1691768707404946,1505,1499,1254,1500,1000,0,0,0
1691768707408870,1502,1501,1252,1500,1000,0,0,0
1691768707411730,1498,1500,1260,1500,1000,0,0,0
1691768707415981,1497,1499,1260,1501,1000,0,0,0
1691768707419793,1500,1506,1254,1501,1000,0,0,0
1691768707429958,1499,1499,1258,1501,1000,0,0,0
1691768707430157,1498,1497,1262,1501,1000,0,0,0
1691768707430589,1496,1497,1264,1501,1000,0,0,0
1691768707433880,1492,1500,1262,1501,1000,0,0,0
1691768707437950,1494,1499,1261,1501,1000,0,0,0
1691768707441920,1498,1500,1258,1501,1000,0,0,0
1691768707444693,1496,1499,1260,1501,1000,0,0,0
1691768707448394,1493,1506,1261,1501,1000,0,0,0
1691768707451829,1479,1502,1278,1501,1000,0,0,0
1691768707456041,1476,1499,1277,1500,1000,0,0,0
1691768707460288,1478,1500,1275,1500,1000,0,0,0
1691768707463818,1480,1497,1269,1500,1000,0,0,0
1691768707466415,1513,1485,1240,1500,1000,0,0,0
1691768707470080,1513,1496,1247,1500,1000,0,0,0
1691768707474061,1502,1498,1257,1500,1000,0,0,0
1691768707477867,1501,1500,1260,1500,1000,0,0,0
1691768707484376,1500,1502,1260,1500,1000,0,0,0
1691768707484975,1497,1503,1258,1500,1000,0,0,0
1691768707488707,1491,1500,1265,1500,1000,0,0,0
1691768707493181,1492,1496,1263,1500,1000,0,0,0
1691768707497084,1494,1496,1265,1500,1000,0,0,0
1691768707505689,1495,1501,1261,1500,1000,0,0,0
1691768707506297,1496,1498,1259,1500,1000,0,0,0
1691768707510076,1494,1499,1261,1500,1000,0,0,0
1691768707513989,1490,1496,1265,1500,1000,0,0,0
1691768707518302,1494,1495,1259,1500,1000,0,0,0
1691768707522169,1492,1495,1260,1500,1000,0,0,0
1691768707525060,1492,1497,1262,1500,1000,0,0,0
1691768707528219,1494,1501,1256,1500,1000,0,0,0
1691768707533831,1478,1501,1276,1499,1000,0,0,0
1691768707535918,1478,1499,1276,1499,1000,0,0,0
1691768707540154,1481,1495,1275,1499,1000,0,0,0
1691768707543619,1482,1488,1265,1499,1000,0,0,0
1691768707546364,1516,1492,1235,1499,1000,0,0,0
1691768707550189,1519,1495,1241,1499,1000,0,0,0
1691768707554309,1493,1500,1268,1499,1000,0,0,0
1691768707558003,1488,1500,1269,1499,1000,0,0,0
1691768707560869,1507,1494,1247,1499,1000,0,0,0
1691768707564560,1514,1495,1250,1499,1000,0,0,0
1691768707568069,1513,1500,1250,1499,1000,0,0,0
1691768707572011,1507,1502,1256,1499,1000,0,0,0
1691768707576165,1506,1505,1257,1499,1000,0,0,0
1691768707580441,1506,1501,1256,1499,1000,0,0,0
1691768707583737,1499,1498,1260,1499,1000,0,0,0
1691768707589975,1499,1499,1260,1499,1000,0,0,0
1691768707590685,1502,1497,1257,1499,1000,0,0,0
1691768707593971,1504,1499,1256,1499,1000,0,0,0
1691768707598067,1503,1502,1254,1499,1000,0,0,0
1691768707601705,1500,1499,1260,1499,1000,0,0,0
1691768707604597,1500,1498,1261,1499,1000,0,0,0
1691768707608291,1500,1497,1259,1499,1000,0,0,0
1691768707612446,1499,1497,1257,1499,1000,0,0,0
1691768707616562,1502,1500,1260,1499,1000,0,0,0
1691768707620130,1505,1502,1260,1499,1000,0,0,0
1691768707622980,1502,1498,1257,1499,1000,0,0,0
1691768707628745,1500,1501,1259,1499,1000,0,0,0
1691768707632141,1502,1500,1254,1499,1000,0,0,0
1691768707634121,1500,1498,1263,1499,1000,0,0,0
1691768707637769,1499,1497,1260,1499,1000,0,0,0
1691768707641100,1502,1500,1259,1499,1000,0,0,0
1691768707645015,1507,1501,1256,1499,1000,0,0,0
1691768707649175,1502,1506,1255,1499,1000,0,0,0
1691768707652765,1499,1503,1252,1499,1000,0,0,0
1691768707655712,1499,1498,1259,1499,1000,0,0,0
1691768707659213,1502,1497,1251,1499,1000,0,0,0
1691768707663306,1500,1501,1255,1500,1000,0,0,0
1691768707666778,1503,1500,1251,1500,1000,0,0,0
1691768707669966,1508,1508,1253,1500,1000,0,0,0
1691768707674149,1503,1502,1256,1500,1000,0,0,0
1691768707678143,1498,1500,1262,1500,1000,0,0,0
1691768707681918,1500,1498,1260,1500,1000,0,0,0
1691768707684609,1503,1499,1261,1500,1000,0,0,0
1691768707688370,1504,1500,1257,1500,1000,0,0,0
1691768707692140,1489,1504,1273,1500,1000,0,0,0
1691768707696167,1483,1497,1271,1500,1000,0,0,0
1691768707700101,1486,1494,1269,1499,1000,0,0,0
1691768707702648,1517,1495,1235,1499,1000,0,0,0
1691768707706508,1513,1501,1247,1499,1000,0,0,0
1691768707710177,1511,1503,1254,1499,1000,0,0,0
1691768707714071,1511,1504,1256,1500,1000,0,0,0
1691768707718160,1503,1512,1266,1500,1000,0,0,0
1691768707721952,1513,1500,1249,1499,1000,0,0,0
1691768707724512,1507,1498,1257,1499,1000,0,0,0
1691768707728122,1506,1501,1254,1500,1000,0,0,0
1691768707732092,1503,1501,1260,1500,1000,0,0,0
1691768707736030,1505,1500,1259,1500,1000,0,0,0
1691768707739601,1490,1502,1274,1499,1000,0,0,0
1691768707743143,1486,1501,1273,1499,1000,0,0,0
1691768707747199,1487,1496,1267,1499,1000,0,0,0
1691768707750875,1516,1492,1240,1499,1000,0,0,0
1691768707753646,1514,1502,1245,1499,1000,0,0,0
1691768707757574,1508,1505,1254,1499,1000,0,0,0
1691768707761121,1507,1500,1259,1499,1000,0,0,0
1691768707765207,1504,1502,1262,1499,1000,0,0,0
1691768707769139,1502,1503,1262,1499,1000,0,0,0
1691768707771967,1506,1504,1256,1499,1000,0,0,0
1691768707775682,1489,1502,1276,1499,1000,0,0,0
1691768707779242,1483,1499,1276,1499,1000,0,0,0
1691768707783174,1483,1493,1272,1499,1000,0,0,0
1691768707787191,1515,1496,1244,1499,1000,0,0,0
1691768707791036,1516,1501,1249,1499,1000,0,0,0
1691768707793544,1510,1503,1256,1499,1000,0,0,0
1691768707797343,1510,1505,1254,1499,1000,0,0,0
1691768707801198,1505,1503,1261,1499,1000,0,0,0
1691768707805307,1491,1506,1276,1499,1000,0,0,0
1691768707809197,1484,1503,1274,1498,1000,0,0,0
1691768707811664,1483,1492,1272,1498,1000,0,0,0
1691768707815659,1500,1504,1261,1498,1000,0,0,0
1691768707819181,1518,1497,1243,1498,1000,0,0,0
1691768707823250,1515,1504,1246,1499,1000,0,0,0
1691768707827272,1505,1500,1257,1499,1000,0,0,0
1691768707831102,1503,1500,1260,1499,1000,0,0,0
1691768707833608,1499,1498,1265,1499,1000,0,0,0
1691768707837412,1499,1496,1265,1499,1000,0,0,0
1691768707841697,1500,1498,1260,1499,1000,0,0,0
1691768707845198,1499,1500,1266,1499,1000,0,0,0
1691768707849269,1500,1500,1264,1499,1000,0,0,0
1691768707851826,1501,1504,1262,1499,1000,0,0,0
1691768707855710,1500,1502,1261,1499,1000,0,0,0
1691768707859185,1499,1502,1263,1499,1000,0,0,0
1691768707863641,1496,1499,1261,1499,1000,0,0,0
1691768707867096,1497,1500,1265,1499,1000,0,0,0
1691768707870095,1496,1496,1266,1499,1000,0,0,0
1691768707874313,1496,1498,1266,1499,1000,0,0,0
1691768707879292,1498,1498,1264,1499,1000,0,0,0
1691768707881048,1486,1503,1279,1499,1000,0,0,0
1691768707884674,1480,1496,1274,1499,1000,0,0,0
1691768707888396,1479,1491,1274,1499,1000,0,0,0
1691768707896366,1484,1492,1272,1499,1000,0,0,0
1691768707896625,1491,1493,1268,1499,1000,0,0,0
1691768707900095,1523,1493,1235,1498,1000,0,0,0
1691768707902621,1513,1500,1250,1499,1000,0,0,0
1691768707906452,1506,1515,1266,1499,1000,0,0,0
1691768707910395,1508,1499,1249,1499,1000,0,0,0
1691768707914415,1500,1495,1258,1499,1000,0,0,0
1691768707917425,1498,1495,1260,1499,1000,0,0,0
1691768707921418,1498,1497,1260,1499,1000,0,0,0
1691768707925563,1486,1497,1273,1499,1000,0,0,0
1691768707929663,1479,1493,1274,1499,1000,0,0,0
1691768707931809,1484,1495,1270,1499,1000,0,0,0
1691768707935706,1503,1505,1252,1499,1000,0,0,0
1691768707943733,1493,1495,1262,1499,1000,0,0,0
1691768707943991,1508,1507,1252,1499,1000,0,0,0
1691768707947284,1515,1495,1237,1499,1000,0,0,0
1691768707951122,1511,1496,1248,1499,1000,0,0,0
1691768707953717,1505,1494,1252,1499,1000,0,0,0
1691768707957388,1498,1494,1259,1499,1000,0,0,0
1691768707961295,1499,1496,1261,1499,1000,0,0,0
1691768707965523,1487,1496,1273,1499,1000,0,0,0
1691768707969077,1481,1494,1268,1499,1000,0,0,0
1691768707972060,1482,1491,1268,1499,1000,0,0,0
1691768707979708,1486,1490,1267,1499,1000,0,0,0
1691768707979937,1508,1503,1250,1499,1000,0,0,0
1691768707983437,1520,1493,1236,1499,1000,0,0,0
1691768707987293,1512,1498,1248,1499,1000,0,0,0
1691768707990214,1509,1498,1256,1499,1000,0,0,0
1691768707994350,1508,1498,1254,1499,1000,0,0,0
1691768707997375,1507,1503,1253,1499,1000,0,0,0
1691768708001337,1503,1505,1253,1499,1000,0,0,0
1691768708005631,1499,1498,1260,1499,1000,0,0,0
1691768708009215,1499,1495,1262,1499,1000,0,0,0
1691768708011728,1500,1503,1261,1499,1000,0,0,0
1691768708015614,1501,1497,1253,1499,1000,0,0,0
1691768708019607,1500,1494,1259,1500,1000,0,0,0
1691768708025093,1498,1494,1258,1500,1000,0,0,0
1691768708028563,1498,1495,1258,1500,1000,0,0,0
1691768708030491,1500,1496,1260,1500,1000,0,0,0
1691768708035652,1500,1498,1258,1500,1000,0,0,0
1691768708038673,1500,1499,1259,1500,1000,0,0,0
1691768708041366,1502,1498,1257,1500,1000,0,0,0
1691768708044864,1489,1500,1274,1500,1000,0,0,0
1691768708048406,1486,1501,1272,1500,1000,0,0,0
1691768708052382,1482,1492,1267,1500,1000,0,0,0
1691768708056397,1485,1492,1268,1500,1000,0,0,0
1691768708059183,1491,1492,1263,1499,1000,0,0,0
1691768708062675,1497,1495,1259,1499,1000,0,0,0
1691768708066425,1537,1501,1228,1500,1000,0,0,0
1691768708070396,1503,1505,1267,1499,1000,0,0,0
1691768708074449,1497,1508,1269,1499,1000,0,0,0
1691768708078140,1492,1499,1263,1499,1000,0,0,0
1691768708081072,1524,1493,1236,1499,1000,0,0,0
1691768708084608,1520,1503,1243,1499,1000,0,0,0
1691768708088478,1510,1507,1256,1499,1000,0,0,0
1691768708092753,1509,1507,1259,1500,1000,0,0,0
1691768708096462,1504,1499,1262,1499,1000,0,0,0
1691768708099932,1500,1500,1261,1499,1000,0,0,0
1691768708103389,1500,1498,1259,1499,1000,0,0,0
1691768708107598,1500,1497,1259,1500,1000,0,0,0
1691768708113760,1499,1500,1263,1500,1000,0,0,0
1691768708114470,1501,1506,1260,1500,1000,0,0,0
1691768708118528,1502,1502,1259,1500,1000,0,0,0
1691768708120986,1489,1503,1278,1500,1000,0,0,0
1691768708127073,1486,1502,1275,1499,1000,0,0,0
1691768708128389,1497,1512,1261,1500,1000,0,0,0
1691768708132591,1510,1496,1243,1499,1000,0,0,0
1691768708135514,1503,1497,1258,1500,1000,0,0,0
1691768708139607,1500,1498,1262,1500,1000,0,0,0
1691768708143713,1499,1502,1263,1500,1000,0,0,0
1691768708147686,1505,1506,1259,1500,1000,0,0,0
1691768708150029,1496,1511,1270,1500,1000,0,0,0
1691768708153768,1496,1511,1268,1500,1000,0,0,0
1691768708157604,1501,1492,1253,1499,1000,0,0,0
1691768708161052,1500,1495,1255,1500,1000,0,0,0
1691768708164751,1498,1499,1261,1500,1000,0,0,0
1691768708168161,1501,1499,1259,1500,1000,0,0,0
1691768708171896,1503,1502,1256,1500,1000,0,0,0
1691768708175603,1498,1501,1263,1500,1000,0,0,0
1691768708179248,1496,1500,1262,1500,1000,0,0,0
1691768708183604,1495,1499,1260,1500,1000,0,0,0
1691768708187936,1498,1507,1268,1500,1000,0,0,0
1691768708190143,1499,1500,1259,1500,1000,0,0,0
1691768708193656,1501,1507,1262,1500,1000,0,0,0
1691768708197602,1501,1502,1254,1500,1000,0,0,0
1691768708201661,1499,1509,1263,1500,1000,0,0,0
1691768708205702,1495,1495,1255,1499,1000,0,0,0
1691768708208213,1496,1502,1264,1499,1000,0,0,0
1691768708211719,1499,1496,1256,1499,1000,0,0,0
1691768708215736,1486,1498,1273,1499,1000,0,0,0
1691768708219637,1485,1507,1280,1499,1000,0,0,0
1691768708223623,1484,1504,1278,1499,1000,0,0,0
1691768708227661,1487,1500,1272,1499,1000,0,0,0
1691768708230234,1492,1480,1247,1499,1000,0,0,0
1691768708233731,1500,1502,1263,1499,1000,0,0,0
1691768708237645,1502,1488,1248,1499,1000,0,0,0
1691768708241639,1509,1512,1253,1499,1000,0,0,0
1691768708246220,1506,1509,1263,1499,1000,0,0,0
1691768708249026,1503,1506,1259,1499,1000,0,0,0
1691768708251781,1498,1495,1263,1499,1000,0,0,0
1691768708255704,1502,1491,1257,1499,1000,0,0,0
1691768708259560,1505,1497,1251,1499,1000,0,0,0
1691768708263692,1500,1496,1259,1499,1000,0,0,0
1691768708267247,1501,1490,1258,1499,1000,0,0,0
1691768708270056,1514,1497,1246,1499,1000,0,0,0
1691768708273852,1513,1499,1248,1499,1000,0,0,0
1691768708277559,1503,1492,1259,1499,1000,0,0,0
1691768708281700,1502,1490,1259,1499,1000,0,0,0
1691768708285291,1503,1489,1255,1499,1000,0,0,0
1691768708288825,1503,1492,1255,1499,1000,0,0,0
1691768708291837,1501,1491,1261,1499,1000,0,0,0
1691768708295724,1503,1491,1261,1499,1000,0,0,0
1691768708299596,1504,1491,1256,1499,1000,0,0,0
1691768708303606,1505,1490,1255,1499,1000,0,0,0
1691768708307721,1506,1489,1257,1499,1000,0,0,0
1691768708309913,1509,1491,1256,1499,1000,0,0,0
1691768708313741,1507,1491,1255,1499,1000,0,0,0
1691768708317670,1518,1502,1246,1499,1000,0,0,0
1691768708321746,1527,1490,1233,1499,1000,0,0,0
1691768708325184,1511,1504,1259,1499,1000,0,0,0
1691768708329083,1507,1504,1263,1499,1000,0,0,0
1691768708331827,1497,1492,1272,1499,1000,0,0,0
1691768708335724,1497,1487,1266,1499,1000,0,0,0
1691768708339830,1498,1469,1245,1499,1000,0,0,0
1691768708343771,1533,1486,1230,1499,1000,0,0,0
1691768708346381,1503,1489,1261,1499,1000,0,0,0
1691768708350228,1498,1491,1263,1499,1000,0,0,0
1691768708353771,1499,1498,1260,1499,1000,0,0,0
1691768708357681,1499,1504,1275,1499,1000,0,0,0
1691768708361620,1501,1486,1252,1499,1000,0,0,0
1691768708365686,1529,1487,1227,1498,1000,0,0,0
1691768708368143,1515,1504,1254,1499,1000,0,0,0
1691768708371959,1494,1498,1270,1499,1000,0,0,0
1691768708375678,1488,1495,1271,1499,1000,0,0,0
1691768708379787,1485,1491,1270,1499,1000,0,0,0
1691768708383798,1491,1490,1266,1499,1000,0,0,0
1691768708386260,1496,1494,1263,1499,1000,0,0,0
1691768708395021,1497,1498,1260,1499,1000,0,0,0
1691768708395228,1499,1500,1258,1499,1000,0,0,0
1691768708397811,1528,1504,1233,1499,1000,0,0,0
1691768708402340,1512,1504,1250,1499,1000,0,0,0
1691768708405867,1507,1503,1258,1499,1000,0,0,0
1691768708408626,1504,1502,1259,1499,1000,0,0,0
1691768708411689,1501,1500,1259,1499,1000,0,0,0
1691768708415862,1502,1504,1260,1499,1000,0,0,0
1691768708420126,1487,1505,1275,1499,1000,0,0,0
1691768708424633,1481,1500,1274,1499,1000,0,0,0
1691768708426294,1481,1500,1269,1499,1000,0,0,0
1691768708430228,1488,1500,1264,1499,1000,0,0,0
1691768708433807,1494,1505,1261,1499,1000,0,0,0
1691768708437890,1510,1517,1248,1499,1000,0,0,0
1691768708442845,1518,1505,1239,1499,1000,0,0,0
1691768708444803,1494,1505,1269,1499,1000,0,0,0
1691768708448853,1490,1504,1271,1499,1000,0,0,0
1691768708453209,1488,1503,1264,1498,1000,0,0,0
1691768708455758,1487,1503,1265,1498,1000,0,0,0
1691768708459120,1505,1513,1254,1499,1000,0,0,0
1691768708462909,1516,1514,1249,1499,1000,0,0,0
1691768708466783,1515,1513,1252,1499,1000,0,0,0
1691768708470866,1508,1508,1256,1499,1000,0,0,0
1691768708474633,1488,1499,1270,1498,1000,0,0,0
1691768708477257,1493,1516,1272,1499,1000,0,0,0
1691768708481118,1500,1508,1252,1499,1000,0,0,0
1691768708484780,1506,1490,1246,1498,1000,0,0,0
1691768708488993,1501,1503,1261,1499,1000,0,0,0
1691768708495791,1499,1500,1259,1499,1000,0,0,0
1691768708496766,1500,1506,1265,1499,1000,0,0,0
1691768708500387,1499,1507,1265,1499,1000,0,0,0
1691768708503219,1496,1507,1265,1499,1000,0,0,0
1691768708506929,1498,1504,1263,1499,1000,0,0,0
1691768708510939,1490,1510,1283,1499,1000,0,0,0
1691768708513847,1485,1507,1279,1499,1000,0,0,0
1691768708517774,1490,1512,1263,1499,1000,0,0,0
1691768708522118,1494,1512,1261,1499,1000,0,0,0
1691768708524579,1493,1507,1265,1499,1000,0,0,0
1691768708528793,1488,1498,1271,1499,1000,0,0,0
1691768708532748,1497,1502,1258,1499,1000,0,0,0
1691768708535294,1493,1496,1266,1499,1000,0,0,0
1691768708539143,1503,1503,1253,1499,1000,0,0,0
1691768708543744,1496,1497,1264,1499,1000,0,0,0
1691768708546995,1504,1505,1254,1499,1000,0,0,0
1691768708550756,1496,1501,1268,1499,1000,0,0,0
1691768708554438,1498,1503,1262,1499,1000,0,0,0
1691768708557862,1492,1495,1271,1499,1000,0,0,0
1691768708561780,1496,1493,1266,1499,1000,0,0,0
1691768708564535,1500,1493,1260,1499,1000,0,0,0
1691768708568144,1501,1496,1256,1499,1000,0,0,0
1691768708572165,1509,1509,1245,1500,1000,0,0,0
1691768708576002,1506,1511,1259,1500,1000,0,0,0
1691768708579993,1502,1503,1261,1499,1000,0,0,0
1691768708583664,1499,1499,1261,1499,1000,0,0,0
1691768708586552,1501,1497,1262,1499,1000,0,0,0
1691768708590198,1496,1492,1268,1499,1000,0,0,0
1691768708593892,1506,1496,1252,1499,1000,0,0,0
1691768708598051,1507,1502,1255,1499,1000,0,0,0
1691768708600895,1506,1503,1258,1500,1000,0,0,0
1691768708605945,1496,1493,1270,1499,1000,0,0,0
1691768708608956,1500,1497,1258,1499,1000,0,0,0
1691768708611726,1495,1493,1269,1499,1000,0,0,0
1691768708615778,1504,1503,1258,1499,1000,0,0,0
1691768708619047,1506,1503,1257,1499,1000,0,0,0
1691768708622635,1507,1501,1256,1499,1000,0,0,0
1691768708626409,1507,1496,1259,1499,1000,0,0,0
1691768708631654,1507,1496,1259,1499,1000,0,0,0
1691768708635283,1504,1497,1256,1499,1000,0,0,0
1691768708637910,1503,1500,1261,1499,1000,0,0,0
1691768708640920,1502,1498,1261,1499,1000,0,0,0
1691768708646367,1492,1489,1274,1499,1000,0,0,0
1691768708648178,1492,1487,1270,1499,1000,0,0,0
1691768708652031,1504,1497,1259,1499,1000,0,0,0
1691768708656466,1504,1496,1258,1499,1000,0,0,0
1691768708660143,1506,1497,1262,1499,1000,0,0,0
1691768708662779,1506,1497,1259,1499,1000,0,0,0
1691768708666266,1508,1503,1260,1499,1000,0,0,0
1691768708669965,1504,1499,1261,1499,1000,0,0,0
1691768708673975,1497,1491,1268,1499,1000,0,0,0
1691768708678080,1503,1494,1263,1499,1000,0,0,0
1691768708680973,1501,1496,1264,1499,1000,0,0,0
1691768708685124,1500,1496,1261,1499,1000,0,0,0
1691768708689172,1504,1495,1259,1499,1000,0,0,0
1691768708692770,1505,1496,1257,1499,1000,0,0,0
1691768708695766,1505,1502,1257,1499,1000,0,0,0
1691768708699314,1503,1499,1260,1499,1000,0,0,0
1691768708703006,1501,1496,1267,1499,1000,0,0,0
1691768708707152,1498,1496,1266,1499,1000,0,0,0
1691768708709876,1496,1495,1263,1499,1000,0,0,0
1691768708714062,1499,1494,1261,1499,1000,0,0,0
1691768708717303,1497,1488,1268,1499,1000,0,0,0
1691768708720935,1502,1498,1254,1499,1000,0,0,0
1691768708724422,1506,1505,1255,1499,1000,0,0,0
1691768708728483,1495,1491,1272,1499,1000,0,0,0
1691768708732169,1498,1496,1260,1499,1000,0,0,0
1691768708735936,1491,1491,1268,1499,1000,0,0,0
1691768708740094,1494,1489,1266,1499,1000,0,0,0
1691768708742826,1509,1498,1249,1499,1000,0,0,0
1691768708746974,1508,1502,1251,1499,1000,0,0,0
1691768708752410,1504,1503,1257,1499,1000,0,0,0
1691768708754212,1503,1503,1258,1499,1000,0,0,0
1691768708758404,1500,1504,1263,1499,1000,0,0,0
1691768708761709,1496,1499,1264,1499,1000,0,0,0
1691768708764495,1500,1496,1260,1499,1000,0,0,0
1691768708768195,1496,1489,1266,1499,1000,0,0,0
1691768708772205,1503,1501,1250,1499,1000,0,0,0
1691768708776050,1501,1503,1256,1499,1000,0,0,0
1691768708780009,1498,1498,1264,1499,1000,0,0,0
1691768708782804,1496,1499,1264,1499,1000,0,0,0
1691768708786380,1493,1499,1262,1499,1000,0,0,0
1691768708790241,1498,1502,1260,1499,1000,0,0,0
1691768708794001,1498,1498,1260,1499,1000,0,0,0
1691768708798210,1497,1499,1258,1499,1000,0,0,0
1691768708801854,1500,1497,1257,1499,1000,0,0,0
1691768708804662,1502,1499,1258,1499,1000,0,0,0
1691768708808300,1501,1503,1256,1499,1000,0,0,0
1691768708812255,1497,1503,1256,1499,1000,0,0,0
1691768708816207,1496,1499,1265,1499,1000,0,0,0
1691768708819849,1498,1502,1263,1499,1000,0,0,0
1691768708822786,1495,1498,1259,1499,1000,0,0,0
1691768708826395,1499,1497,1259,1499,1000,0,0,0
1691768708830309,1501,1500,1259,1499,1000,0,0,0
1691768708834479,1498,1502,1258,1499,1000,0,0,0
1691768708838162,1496,1505,1258,1499,1000,0,0,0
1691768708841864,1494,1499,1264,1499,1000,0,0,0
1691768708844413,1489,1493,1270,1499,1000,0,0,0
1691768708848148,1493,1500,1258,1499,1000,0,0,0
1691768708852114,1496,1502,1257,1499,1000,0,0,0
1691768708857129,1501,1505,1257,1499,1000,0,0,0
1691768708859368,1501,1501,1256,1499,1000,0,0,0
1691768708863145,1499,1503,1256,1499,1000,0,0,0
1691768708867184,1499,1504,1257,1499,1000,0,0,0
1691768708871046,1497,1505,1260,1499,1000,0,0,0
1691768708873603,1494,1502,1264,1499,1000,0,0,0
1691768708877257,1494,1501,1264,1499,1000,0,0,0
1691768708881239,1495,1500,1262,1499,1000,0,0,0
1691768708885200,1498,1503,1257,1499,1000,0,0,0
1691768708889257,1499,1500,1257,1499,1000,0,0,0
1691768708891916,1499,1502,1257,1499,1000,0,0,0
1691768708895782,1498,1503,1256,1499,1000,0,0,0
1691768708899238,1493,1500,1262,1499,1000,0,0,0
1691768708903031,1495,1501,1262,1499,1000,0,0,0
1691768708907612,1495,1501,1261,1499,1000,0,0,0
1691768708914506,1495,1502,1258,1499,1000,0,0,0
1691768708914690,1499,1501,1256,1499,1000,0,0,0
1691768708917716,1504,1505,1252,1499,1000,0,0,0
1691768708921458,1498,1504,1257,1499,1000,0,0,0
1691768708926715,1497,1504,1259,1499,1000,0,0,0
1691768708930467,1496,1501,1264,1499,1000,0,0,0
1691768708931807,1496,1501,1263,1499,1000,0,0,0
1691768708935616,1495,1501,1259,1499,1000,0,0,0
1691768708939253,1497,1499,1256,1499,1000,0,0,0
1691768708942721,1501,1501,1256,1499,1000,0,0,0
1691768708946409,1502,1508,1251,1499,1000,0,0,0
1691768708951353,1499,1509,1255,1499,1000,0,0,0
1691768708953645,1497,1499,1263,1499,1000,0,0,0
1691768708957586,1498,1498,1261,1499,1000,0,0,0
1691768708961606,1495,1501,1259,1499,1000,0,0,0
1691768708965544,1497,1501,1258,1499,1000,0,0,0
1691768708969327,1501,1499,1256,1499,1000,0,0,0
1691768708971944,1501,1501,1254,1499,1000,0,0,0
1691768708975668,1500,1503,1255,1499,1000,0,0,0
1691768708979642,1501,1503,1255,1499,1000,0,0,0
1691768708983735,1501,1503,1257,1499,1000,0,0,0
1691768708987328,1503,1508,1256,1499,1000,0,0,0
1691768708990118,1497,1500,1264,1499,1000,0,0,0
1691768708994208,1499,1498,1262,1499,1000,0,0,0
1691768708998387,1494,1502,1260,1499,1000,0,0,0
1691768709001004,1497,1500,1258,1499,1000,0,0,0
1691768709005092,1503,1498,1257,1499,1000,0,0,0
1691768709008377,1504,1501,1256,1499,1000,0,0,0
1691768709012150,1502,1504,1254,1499,1000,0,0,0
1691768709016181,1501,1502,1256,1499,1000,0,0,0
1691768709020039,1508,1506,1251,1499,1000,0,0,0
1691768709022720,1500,1502,1262,1499,1000,0,0,0
1691768709026448,1495,1498,1263,1499,1000,0,0,0
1691768709030473,1496,1497,1262,1499,1000,0,0,0
1691768709035238,1498,1498,1259,1499,1000,0,0,0
1691768709038324,1501,1497,1255,1499,1000,0,0,0
1691768709041380,1503,1498,1257,1499,1000,0,0,0
1691768709045181,1503,1502,1257,1499,1000,0,0,0
1691768709049159,1501,1503,1258,1499,1000,0,0,0
1691768709051752,1501,1502,1258,1499,1000,0,0,0
1691768709055659,1498,1498,1263,1499,1000,0,0,0
1691768709059036,1500,1502,1261,1499,1000,0,0,0
1691768709063619,1500,1503,1257,1499,1000,0,0,0
1691768709067342,1501,1496,1258,1499,1000,0,0,0
1691768709069844,1504,1497,1254,1499,1000,0,0,0
1691768709073609,1504,1501,1255,1499,1000,0,0,0
1691768709077276,1503,1494,1201,1499,1000,0,0,0
1691768709081439,1513,1499,1193,1499,1000,0,0,0
1691768709085210,1499,1490,1202,1499,1000,0,0,0
1691768709089195,1496,1488,1201,1499,1000,0,0,0
1691768709092725,1498,1485,1199,1499,1000,0,0,0
1691768709095613,1505,1485,1194,1499,1000,0,0,0
1691768709099639,1504,1486,1193,1499,1000,0,0,0
1691768709103281,1504,1486,1195,1499,1000,0,0,0
1691768709107274,1500,1490,1198,1499,1000,0,0,0
1691768709109978,1500,1492,1200,1499,1000,0,0,0
1691768709113676,1508,1499,1191,1499,1000,0,0,0
1691768709118511,1503,1491,1204,1499,1000,0,0,0
1691768709121895,1499,1490,1207,1499,1000,0,0,0
1691768709126754,1516,1503,1192,1499,1000,0,0,0
1691768709128141,1505,1494,1210,1499,1000,0,0,0
1691768709132592,1499,1491,1214,1499,1000,0,0,0
1691768709136731,1496,1493,1217,1499,1000,0,0,0
1691768709141527,1509,1498,1207,1499,1000,0,0,0
1691768709142552,1511,1500,1209,1499,1000,0,0,0
1691768709150481,1500,1493,1221,1499,1000,0,0,0
1691768709150862,1496,1493,1224,1499,1000,0,0,0
1691768709154680,1497,1493,1226,1499,1000,0,0,0
1691768709158269,1501,1498,1223,1499,1000,0,0,0
1691768709161033,1500,1496,1227,1499,1000,0,0,0
1691768709164970,1499,1495,1230,1499,1000,0,0,0
1691768709168378,1498,1497,1232,1499,1000,0,0,0
1691768709172413,1499,1500,1233,1499,1000,0,0,0
1691768709176313,1498,1498,1234,1499,1000,0,0,0
1691768709179143,1506,1504,1228,1499,1000,0,0,0
1691768709182741,1500,1500,1235,1499,1000,0,0,0
1691768709186363,1498,1499,1238,1499,1000,0,0,0
1691768709190559,1497,1501,1241,1499,1000,0,0,0
1691768709194356,1496,1501,1242,1499,1000,0,0,0
1691768709198360,1497,1502,1243,1499,1000,0,0,0
1691768709200737,1497,1502,1244,1499,1000,0,0,0
1691768709204962,1498,1503,1245,1499,1000,0,0,0
1691768709208608,1498,1504,1245,1499,1000,0,0,0
1691768709212566,1501,1506,1244,1499,1000,0,0,0
1691768709215728,1502,1506,1244,1499,1000,0,0,0
1691768709219419,1501,1506,1245,1499,1000,0,0,0
1691768709223643,1498,1505,1247,1499,1000,0,0,0
1691768709227133,1499,1506,1248,1499,1000,0,0,0
1691768709230043,1499,1506,1248,1499,1000,0,0,0
1691768709233606,1497,1502,1251,1499,1000,0,0,0
1691768709237498,1496,1501,1252,1499,1000,0,0,0
1691768709241599,1496,1502,1253,1499,1000,0,0,0
1691768709245552,1496,1503,1254,1499,1000,0,0,0
1691768709249233,1497,1503,1255,1499,1000,0,0,0
1691768709252885,1497,1504,1256,1499,1000,0,0,0
1691768709255597,1497,1504,1257,1499,1000,0,0,0
1691768709259034,1496,1501,1258,1499,1000,0,0,0
1691768709262748,1496,1501,1259,1499,1000,0,0,0
1691768709266648,1496,1501,1260,1499,1000,0,0,0
1691768709270592,1497,1502,1259,1499,1000,0,0,0
1691768709274542,1498,1502,1259,1499,1000,0,0,0
1691768709278155,1499,1503,1259,1499,1000,0,0,0
1691768709280975,1499,1504,1259,1499,1000,0,0,0
1691768709284878,1499,1505,1259,1499,1000,0,0,0
1691768709288579,1501,1509,1257,1499,1000,0,0,0
1691768709292483,1500,1509,1257,1499,1000,0,0,0
1691768709296290,1497,1506,1261,1499,1000,0,0,0
1691768709299048,1496,1504,1263,1499,1000,0,0,0
1691768709302610,1495,1504,1263,1499,1000,0,0,0
1691768709306588,1497,1504,1261,1499,1000,0,0,0
1691768709310866,1497,1505,1259,1499,1000,0,0,0
1691768709314442,1497,1506,1259,1499,1000,0,0,0
1691768709317689,1499,1508,1257,1499,1000,0,0,0
1691768709321033,1496,1504,1261,1499,1000,0,0,0
1691768709324726,1496,1506,1261,1499,1000,0,0,0
1691768709328590,1495,1504,1263,1499,1000,0,0,0
1691768709332577,1496,1504,1262,1499,1000,0,0,0
1691768709336239,1497,1504,1260,1499,1000,0,0,0
1691768709339158,1498,1505,1259,1499,1000,0,0,0
1691768709342679,1500,1508,1257,1499,1000,0,0,0
1691768709347652,1500,1508,1256,1499,1000,0,0,0
1691768709350487,1496,1504,1260,1499,1000,0,0,0
1691768709354800,1497,1505,1260,1499,1000,0,0,0
1691768709357316,1496,1503,1260,1499,1000,0,0,0
1691768709360834,1498,1503,1259,1499,1000,0,0,0
1691768709364566,1498,1503,1258,1499,1000,0,0,0
1691768709368866,1498,1504,1257,1499,1000,0,0,0
1691768709372959,1500,1506,1256,1499,1000,0,0,0
1691768709376303,1497,1502,1259,1499,1000,0,0,0
1691768709379633,1497,1502,1260,1499,1000,0,0,0
1691768709382659,1497,1503,1258,1499,1000,0,0,0
1691768709386484,1497,1501,1259,1499,1000,0,0,0
1691768709390726,1498,1501,1259,1499,1000,0,0,0
1691768709393356,1499,1501,1258,1499,1000,0,0,0
1691768709397355,1499,1502,1256,1499,1000,0,0,0
1691768709401624,1500,1504,1255,1499,1000,0,0,0
1691768709405718,1501,1504,1255,1499,1000,0,0,0
1691768709408340,1498,1500,1258,1499,1000,0,0,0
1691768709411782,1498,1500,1259,1499,1000,0,0,0
1691768709415878,1499,1500,1259,1499,1000,0,0,0
1691768709419666,1499,1499,1259,1499,1000,0,0,0
1691768709423004,1499,1499,1257,1499,1000,0,0,0
1691768709426390,1500,1500,1257,1499,1000,0,0,0
1691768709430124,1500,1500,1257,1499,1000,0,0,0
1691768709433818,1499,1499,1258,1499,1000,0,0,0
1691768709437720,1499,1498,1258,1499,1000,0,0,0
1691768709441727,1499,1498,1258,1499,1000,0,0,0
1691768709445526,1499,1498,1258,1499,1000,0,0,0
1691768709448224,1500,1499,1257,1499,1000,0,0,0
1691768709451823,1500,1499,1257,1499,1000,0,0,0
1691768709455813,1502,1501,1255,1499,1000,0,0,0
1691768709459759,1502,1501,1255,1499,1000,0,0,0
1691768709463883,1500,1497,1258,1499,1000,0,0,0
1691768709466280,1499,1496,1259,1499,1000,0,0,0
1691768709470498,1499,1496,1258,1499,1000,0,0,0
1691768709473827,1500,1496,1258,1499,1000,0,0,0
1691768709477741,1500,1496,1257,1499,1000,0,0,0
1691768709482582,1500,1497,1257,1499,1000,0,0,0
1691768709485322,1503,1500,1255,1499,1000,0,0,0
1691768709488349,1500,1496,1258,1499,1000,0,0,0
1691768709491928,1500,1495,1259,1499,1000,0,0,0
1691768709496004,1500,1495,1258,1499,1000,0,0,0
1691768709499742,1500,1496,1258,1499,1000,0,0,0
1691768709502589,1500,1496,1258,1499,1000,0,0,0
1691768709506749,1501,1495,1257,1499,1000,0,0,0
1691768709510706,1501,1496,1256,1499,1000,0,0,0
1691768709514591,1501,1497,1256,1499,1000,0,0,0
1691768709517256,1503,1499,1255,1499,1000,0,0,0
1691768709520759,1501,1497,1256,1499,1000,0,0,0
1691768709524816,1501,1496,1257,1499,1000,0,0,0
1691768709528757,1500,1494,1258,1499,1000,0,0,0
1691768709532851,1500,1494,1258,1499,1000,0,0,0
1691768709535306,1501,1494,1258,1499,1000,0,0,0
1691768709539127,1502,1494,1257,1499,1000,0,0,0
1691768709542638,1502,1495,1257,1499,1000,0,0,0
1691768709547199,1503,1498,1255,1499,1000,0,0,0
1691768709550668,1501,1496,1256,1499,1000,0,0,0
1691768709554976,1501,1493,1259,1499,1000,0,0,0
1691768709557119,1500,1493,1259,1499,1000,0,0,0
1691768709560788,1500,1496,1257,1499,1000,0,0,0
1691768709564780,1500,1494,1259,1499,1000,0,0,0
1691768709568748,1502,1493,1258,1499,1000,0,0,0
1691768709573119,1501,1495,1257,1499,1000,0,0,0
1691768709575660,1501,1496,1257,1499,1000,0,0,0
1691768709579196,1503,1498,1256,1499,1000,0,0,0
1691768709582842,1501,1493,1259,1499,1000,0,0,0
1691768709586715,1500,1493,1260,1499,1000,0,0,0
1691768709590832,1500,1494,1260,1499,1000,0,0,0
1691768709594404,1501,1496,1258,1499,1000,0,0,0
1691768709597350,1501,1494,1258,1499,1000,0,0,0
1691768709600808,1501,1495,1258,1499,1000,0,0,0
1691768709604844,1502,1496,1258,1499,1000,0,0,0
1691768709608809,1501,1497,1257,1499,1000,0,0,0
1691768709611857,1500,1495,1259,1499,1000,0,0,0
1691768709615938,1500,1494,1260,1499,1000,0,0,0
1691768709619742,1500,1496,1259,1499,1000,0,0,0
1691768709623664,1500,1498,1258,1499,1000,0,0,0
1691768709626326,1501,1496,1258,1499,1000,0,0,0
1691768709630216,1501,1497,1257,1499,1000,0,0,0
1691768709633956,1501,1499,1256,1499,1000,0,0,0
1691768709637862,1500,1497,1258,1499,1000,0,0,0
1691768709642049,1500,1496,1258,1499,1000,0,0,0
1691768709644389,1500,1496,1258,1499,1000,0,0,0
1691768709648090,1499,1497,1258,1499,1000,0,0,0
1691768709651758,1501,1498,1257,1499,1000,0,0,0
1691768709655836,1502,1498,1257,1499,1000,0,0,0
1691768709659885,1501,1500,1256,1499,1000,0,0,0
1691768709663877,1500,1498,1257,1499,1000,0,0,0
1691768709666241,1501,1497,1258,1499,1000,0,0,0
1691768709669872,1500,1498,1257,1499,1000,0,0,0
1691768709674325,1500,1498,1257,1499,1000,0,0,0
1691768709677775,1500,1498,1257,1499,1000,0,0,0
1691768709682095,1502,1500,1256,1499,1000,0,0,0
1691768709684389,1503,1502,1254,1499,1000,0,0,0
1691768709688125,1500,1502,1255,1499,1000,0,0,0
1691768709691979,1500,1498,1257,1499,1000,0,0,0
1691768709695901,1500,1498,1257,1499,1000,0,0,0
1691768709699962,1499,1499,1257,1499,1000,0,0,0
1691768709702998,1500,1499,1257,1499,1000,0,0,0
1691768709706226,1501,1498,1257,1499,1000,0,0,0
1691768709709958,1500,1500,1256,1499,1000,0,0,0
1691768709713745,1501,1501,1256,1499,1000,0,0,0
1691768709720023,1501,1501,1256,1499,1000,0,0,0
1691768709721389,1500,1499,1257,1499,1000,0,0,0
1691768709724821,1499,1499,1257,1499,1000,0,0,0
1691768709728886,1500,1499,1257,1499,1000,0,0,0
1691768709732712,1500,1500,1257,1499,1000,0,0,0
1691768709735117,1499,1500,1256,1499,1000,0,0,0
1691768709739242,1501,1500,1256,1499,1000,0,0,0
1691768709742903,1501,1501,1256,1499,1000,0,0,0
1691768709746955,1501,1502,1256,1499,1000,0,0,0
1691768709750882,1501,1503,1255,1499,1000,0,0,0
1691768709753503,1501,1500,1257,1499,1000,0,0,0
1691768709757241,1500,1499,1257,1499,1000,0,0,0
1691768709760972,1500,1500,1257,1499,1000,0,0,0
1691768709765099,1500,1499,1257,1499,1000,0,0,0
1691768709768823,1501,1500,1257,1499,1000,0,0,0
1691768709772722,1500,1501,1256,1499,1000,0,0,0
1691768709775799,1500,1502,1256,1499,1000,0,0,0
1691768709779212,1503,1504,1255,1499,1000,0,0,0
1691768709787092,1501,1502,1257,1499,1000,0,0,0
1691768709787642,1500,1502,1257,1499,1000,0,0,0
1691768709790141,1499,1500,1258,1499,1000,0,0,0
1691768709794099,1499,1500,1258,1499,1000,0,0,0
1691768709798125,1499,1500,1258,1499,1000,0,0,0
1691768709801620,1500,1501,1257,1499,1000,0,0,0
1691768709804621,1500,1502,1257,1499,1000,0,0,0
1691768709808165,1499,1502,1257,1499,1000,0,0,0
1691768709812028,1499,1501,1258,1499,1000,0,0,0
1691768709816037,1499,1500,1259,1499,1000,0,0,0
1691768709820088,1499,1502,1258,1499,1000,0,0,0
1691768709822663,1499,1501,1258,1499,1000,0,0,0
1691768709826243,1500,1500,1258,1499,1000,0,0,0
1691768709830097,1500,1501,1258,1499,1000,0,0,0
1691768709834013,1499,1503,1257,1499,1000,0,0,0
1691768709838170,1499,1503,1257,1499,1000,0,0,0
1691768709841775,1499,1501,1258,1499,1000,0,0,0
1691768709844608,1499,1501,1258,1499,1000,0,0,0
1691768709848296,1499,1503,1257,1499,1000,0,0,0
1691768709852045,1500,1503,1257,1499,1000,0,0,0
1691768709856915,1500,1501,1257,1499,1000,0,0,0
1691768709859910,1499,1502,1257,1499,1000,0,0,0
1691768709862781,1501,1504,1256,1499,1000,0,0,0
1691768709866337,1500,1501,1258,1499,1000,0,0,0
1691768709870048,1499,1501,1258,1499,1000,0,0,0
1691768709874152,1498,1501,1257,1499,1000,0,0,0
1691768709878423,1499,1502,1257,1499,1000,0,0,0
1691768709880838,1500,1502,1256,1499,1000,0,0,0
1691768709884476,1499,1502,1256,1499,1000,0,0,0
1691768709888181,1500,1504,1255,1499,1000,0,0,0
1691768709892145,1499,1502,1256,1499,1000,0,0,0
1691768709896234,1499,1500,1257,1499,1000,0,0,0
1691768709899185,1498,1501,1257,1499,1000,0,0,0
1691768709902965,1499,1500,1257,1499,1000,0,0,0
1691768709907029,1499,1500,1257,1499,1000,0,0,0
1691768709910742,1499,1502,1256,1499,1000,0,0,0
1691768709913724,1500,1502,1256,1499,1000,0,0,0
1691768709917355,1499,1502,1256,1499,1000,0,0,0
1691768709921247,1500,1503,1255,1499,1000,0,0,0
1691768709925191,1499,1502,1256,1499,1000,0,0,0
1691768709929231,1499,1499,1257,1499,1000,0,0,0
1691768709931740,1498,1499,1258,1499,1000,0,0,0
1691768709935196,1498,1499,1257,1499,1000,0,0,0
1691768709939266,1498,1500,1257,1499,1000,0,0,0
1691768709943207,1499,1500,1256,1499,1000,0,0,0
1691768709947173,1498,1501,1256,1499,1000,0,0,0
1691768709950833,1499,1502,1256,1499,1000,0,0,0
1691768709953660,1499,1502,1256,1499,1000,0,0,0
1691768709957330,1498,1501,1256,1499,1000,0,0,0
1691768709961037,1498,1500,1257,1499,1000,0,0,0
1691768709965139,1498,1499,1257,1499,1000,0,0,0
1691768709969064,1498,1499,1257,1499,1000,0,0,0
1691768709971844,1498,1499,1257,1499,1000,0,0,0
1691768709975637,1499,1499,1257,1499,1000,0,0,0
1691768709979720,1499,1500,1257,1499,1000,0,0,0
1691768709983207,1498,1501,1256,1499,1000,0,0,0
1691768709987324,1498,1501,1256,1499,1000,0,0,0
1691768709990918,1499,1500,1257,1499,1000,0,0,0
1691768709993648,1498,1501,1257,1499,1000,0,0,0
1691768709997247,1498,1500,1257,1499,1000,0,0,0
1691768710001200,1498,1499,1257,1499,1000,0,0,0
1691768710005266,1499,1498,1257,1499,1000,0,0,0
1691768710008174,1499,1500,1257,1499,1000,0,0,0
1691768710012651,1499,1500,1256,1499,1000,0,0,0
1691768710016257,1499,1500,1256,1499,1000,0,0,0
1691768710019913,1499,1498,1258,1499,1000,0,0,0
1691768710022630,1498,1498,1258,1499,1000,0,0,0
1691768710026182,1498,1499,1257,1499,1000,0,0,0
1691768710030369,1498,1498,1258,1499,1000,0,0,0
1691768710034187,1499,1500,1257,1499,1000,0,0,0
1691768710038306,1499,1499,1257,1499,1000,0,0,0
1691768710040909,1500,1499,1257,1499,1000,0,0,0
1691768710044597,1499,1500,1256,1499,1000,0,0,0
1691768710048331,1499,1498,1257,1499,1000,0,0,0
1691768710052244,1499,1498,1258,1499,1000,0,0,0
1691768710056171,1498,1498,1258,1499,1000,0,0,0
1691768710060017,1498,1498,1258,1499,1000,0,0,0
1691768710062686,1499,1498,1258,1499,1000,0,0,0
1691768710066428,1500,1498,1257,1499,1000,0,0,0
1691768710070236,1499,1500,1257,1499,1000,0,0,0
1691768710074277,1499,1501,1256,1499,1000,0,0,0
1691768710077109,1500,1498,1258,1499,1000,0,0,0
1691768710081183,1499,1497,1258,1499,1000,0,0,0
1691768710084526,1498,1498,1258,1499,1000,0,0,0
1691768710088321,1499,1497,1258,1499,1000,0,0,0
1691768710091741,1500,1497,1258,1499,1000,0,0,0
1691768710095365,1499,1499,1257,1499,1000,0,0,0
1691768710099154,1499,1500,1257,1499,1000,0,0,0
1691768710102722,1500,1499,1257,1499,1000,0,0,0
1691768710106414,1499,1500,1257,1499,1000,0,0,0
1691768710109967,1499,1500,1257,1499,1000,0,0,0
1691768710114410,1499,1498,1258,1499,1000,0,0,0
1691768710117318,1499,1497,1257,1499,1000,0,0,0
1691768710121691,1500,1498,1257,1499,1000,0,0,0
1691768710125214,1499,1499,1256,1499,1000,0,0,0
1691768710129044,1501,1498,1256,1499,1000,0,0,0
1691768710131729,1499,1498,1257,1499,1000,0,0,0
1691768710135316,1498,1498,1257,1499,1000,0,0,0
1691768710139460,1499,1497,1257,1499,1000,0,0,0
1691768710143289,1500,1497,1257,1499,1000,0,0,0
1691768710147319,1500,1499,1256,1499,1000,0,0,0
1691768710149964,1500,1498,1256,1499,1000,0,0,0
1691768710153697,1500,1499,1256,1499,1000,0,0,0
1691768710157412,1500,1499,1256,1499,1000,0,0,0
1691768710161297,1499,1498,1256,1499,1000,0,0,0
1691768710165590,1499,1498,1257,1499,1000,0,0,0
1691768710168962,1499,1498,1257,1499,1000,0,0,0
1691768710171753,1499,1498,1257,1499,1000,0,0,0
1691768710175791,1500,1498,1257,1499,1000,0,0,0
1691768710179462,1501,1497,1256,1499,1000,0,0,0
1691768710183658,1501,1498,1256,1499,1000,0,0,0
1691768710186286,1500,1500,1256,1499,1000,0,0,0
1691768710189989,1504,1502,1254,1499,1000,0,0,0
1691768710194239,1501,1498,1257,1499,1000,0,0,0
1691768710198145,1499,1499,1257,1499,1000,0,0,0
1691768710200779,1499,1499,1257,1499,1000,0,0,0
1691768710204556,1499,1499,1257,1499,1000,0,0,0
1691768710208371,1499,1498,1257,1499,1000,0,0,0
1691768710212329,1500,1499,1257,1499,1000,0,0,0
1691768710216234,1500,1499,1256,1499,1000,0,0,0
1691768710218942,1499,1500,1256,1499,1000,0,0,0
1691768710222832,1499,1499,1257,1499,1000,0,0,0
1691768710226357,1499,1500,1257,1499,1000,0,0,0
1691768710230574,1499,1499,1257,1499,1000,0,0,0
1691768710234320,1499,1499,1257,1499,1000,0,0,0
1691768710238216,1499,1498,1257,1499,1000,0,0,0
1691768710240834,1500,1498,1257,1499,1000,0,0,0
1691768710244543,1500,1500,1256,1499,1000,0,0,0
1691768710248519,1499,1500,1256,1499,1000,0,0,0
1691768710252347,1500,1499,1257,1499,1000,0,0,0
1691768710256310,1500,1499,1257,1499,1000,0,0,0
1691768710259185,1499,1500,1257,1499,1000,0,0,0
1691768710262764,1500,1501,1257,1499,1000,0,0,0
1691768710266460,1500,1501,1256,1499,1000,0,0,0
1691768710270347,1500,1500,1256,1499,1000,0,0,0
1691768710274406,1500,1500,1256,1499,1000,0,0,0
1691768710278168,1500,1501,1256,1499,1000,0,0,0
1691768710281046,1500,1500,1256,1499,1000,0,0,0
1691768710284867,1499,1500,1256,1499,1000,0,0,0
1691768710288579,1499,1500,1257,1499,1000,0,0,0
1691768710292361,1500,1499,1257,1499,1000,0,0,0
1691768710295317,1500,1500,1256,1499,1000,0,0,0
1691768710299262,1500,1501,1256,1499,1000,0,0,0
1691768710302588,1501,1501,1256,1499,1000,0,0,0
1691768710306303,1506,1504,1254,1499,1000,0,0,0
1691768710309842,1501,1502,1256,1499,1000,0,0,0
1691768710313965,1500,1501,1257,1499,1000,0,0,0
1691768710317195,1500,1500,1257,1499,1000,0,0,0
1691768710321844,1499,1501,1257,1499,1000,0,0,0
1691768710325754,1499,1501,1256,1499,1000,0,0,0
1691768710328178,1500,1500,1256,1499,1000,0,0,0
1691768710331706,1500,1501,1256,1499,1000,0,0,0
1691768710335373,1500,1501,1256,1499,1000,0,0,0
1691768710339490,1500,1501,1256,1499,1000,0,0,0
1691768710344554,1500,1500,1256,1499,1000,0,0,0
1691768710347305,1499,1501,1256,1499,1000,0,0,0
1691768710350048,1499,1502,1256,1499,1000,0,0,0
1691768710353729,1500,1500,1257,1499,1000,0,0,0
1691768710357538,1500,1500,1257,1499,1000,0,0,0
1691768710361465,1500,1501,1256,1499,1000,0,0,0
1691768710365706,1500,1501,1256,1499,1000,0,0,0
1691768710368300,1504,1503,1255,1499,1000,0,0,0
1691768710371774,1500,1502,1256,1499,1000,0,0,0
1691768710375774,1499,1501,1257,1499,1000,0,0,0
1691768710379765,1499,1500,1257,1499,1000,0,0,0
1691768710383711,1499,1501,1257,1499,1000,0,0,0
1691768710387535,1499,1500,1256,1499,1000,0,0,0
1691768710390035,1500,1501,1256,1499,1000,0,0,0
1691768710393710,1500,1502,1256,1499,1000,0,0,0
1691768710397683,1499,1502,1256,1499,1000,0,0,0
1691768710401457,1499,1501,1256,1499,1000,0,0,0
1691768710404633,1499,1500,1257,1499,1000,0,0,0
1691768710408563,1498,1501,1257,1499,1000,0,0,0
1691768710412916,1499,1501,1257,1499,1000,0,0,0
1691768710416351,1499,1499,1257,1499,1000,0,0,0
1691768710418925,1500,1500,1257,1499,1000,0,0,0
1691768710422679,1500,1500,1256,1499,1000,0,0,0
1691768710426526,1500,1501,1256,1499,1000,0,0,0
1691768710430544,1499,1501,1256,1499,1000,0,0,0
1691768710434898,1499,1502,1256,1499,1000,0,0,0
1691768710437161,1499,1501,1256,1499,1000,0,0,0
1691768710440976,1499,1500,1257,1499,1000,0,0,0
1691768710444612,1499,1500,1257,1499,1000,0,0,0
1691768710448534,1499,1500,1256,1499,1000,0,0,0
1691768710452498,1500,1499,1256,1499,1000,0,0,0
1691768710456347,1500,1500,1256,1499,1000,0,0,0
1691768710459088,1499,1501,1256,1499,1000,0,0,0
1691768710463317,1499,1501,1256,1499,1000,0,0,0
1691768710466521,1499,1500,1257,1499,1000,0,0,0
1691768710470607,1499,1500,1257,1499,1000,0,0,0
1691768710473682,1499,1501,1257,1499,1000,0,0,0
1691768710477213,1500,1501,1256,1499,1000,0,0,0
1691768710481670,1500,1500,1257,1499,1000,0,0,0
1691768710485266,1499,1500,1256,1499,1000,0,0,0
1691768710488714,1502,1502,1255,1499,1000,0,0,0
1691768710491918,1499,1501,1256,1499,1000,0,0,0
1691768710495818,1499,1500,1256,1499,1000,0,0,0
1691768710500471,1498,1500,1256,1499,1000,0,0,0
1691768710503654,1499,1500,1257,1499,1000,0,0,0
1691768710506374,1499,1499,1257,1499,1000,0,0,0
1691768710510604,1499,1500,1256,1499,1000,0,0,0
1691768710513779,1499,1500,1256,1499,1000,0,0,0
1691768710517699,1500,1501,1256,1499,1000,0,0,0
1691768710521682,1500,1501,1256,1499,1000,0,0,0
1691768710525576,1499,1501,1256,1499,1000,0,0,0
1691768710528208,1499,1499,1257,1499,1000,0,0,0
1691768710532220,1499,1499,1257,1499,1000,0,0,0
1691768710535781,1498,1499,1257,1499,1000,0,0,0
1691768710539703,1499,1499,1257,1499,1000,0,0,0
1691768710543520,1499,1498,1257,1499,1000,0,0,0
1691768710546225,1499,1499,1256,1499,1000,0,0,0
1691768710550115,1499,1500,1256,1499,1000,0,0,0
1691768710553710,1499,1500,1256,1499,1000,0,0,0
1691768710557715,1499,1499,1257,1499,1000,0,0,0
1691768710561680,1498,1499,1257,1499,1000,0,0,0
1691768710565725,1498,1500,1257,1499,1000,0,0,0
1691768710568492,1499,1499,1257,1499,1000,0,0,0
1691768710571931,1499,1499,1257,1499,1000,0,0,0
1691768710575787,1499,1499,1257,1499,1000,0,0,0
1691768710579822,1499,1499,1256,1499,1000,0,0,0
1691768710582907,1499,1500,1256,1499,1000,0,0,0
1691768710586508,1499,1499,1257,1499,1000,0,0,0
1691768710591115,1498,1499,1257,1499,1000,0,0,0
1691768710594455,1498,1499,1257,1499,1000,0,0,0
1691768710597807,1499,1498,1257,1499,1000,0,0,0
1691768710601399,1499,1498,1257,1499,1000,0,0,0
1691768710604904,1499,1499,1256,1499,1000,0,0,0
1691768710608752,1500,1500,1256,1499,1000,0,0,0
1691768710611857,1499,1499,1256,1499,1000,0,0,0
1691768710616102,1498,1499,1256,1499,1000,0,0,0
1691768710619701,1498,1499,1257,1499,1000,0,0,0
1691768710622747,1498,1498,1257,1499,1000,0,0,0
1691768710626786,1499,1498,1256,1499,1000,0,0,0
1691768710630860,1499,1498,1256,1499,1000,0,0,0
1691768710634520,1499,1499,1256,1499,1000,0,0,0
1691768710637187,1502,1501,1255,1499,1000,0,0,0
1691768710644878,1499,1498,1256,1499,1000,0,0,0
1691768710645083,1498,1498,1256,1499,1000,0,0,0
1691768710648831,1498,1499,1256,1499,1000,0,0,0
1691768710652730,1499,1499,1256,1499,1000,0,0,0
1691768710656204,1499,1498,1256,1499,1000,0,0,0
1691768710659135,1499,1498,1256,1499,1000,0,0,0
1691768710662929,1499,1498,1255,1499,1000,0,0,0
1691768710666743,1498,1497,1256,1499,1000,0,0,0
1691768710670987,1498,1498,1256,1499,1000,0,0,0
1691768710674494,1499,1498,1256,1499,1000,0,0,0
1691768710677636,1499,1498,1256,1499,1000,0,0,0
1691768710680834,1499,1497,1256,1499,1000,0,0,0
1691768710684851,1499,1498,1256,1499,1000,0,0,0
1691768710688810,1499,1498,1255,1499,1000,0,0,0
1691768710692968,1500,1499,1255,1499,1000,0,0,0
1691768710695381,1500,1499,1255,1499,1000,0,0,0
1691768710699507,1499,1497,1255,1499,1000,0,0,0
1691768710703730,1499,1498,1256,1499,1000,0,0,0
1691768710706815,1498,1498,1256,1499,1000,0,0,0
1691768710710786,1499,1497,1255,1499,1000,0,0,0
1691768710714645,1500,1497,1255,1499,1000,0,0,0
1691768710717342,1499,1498,1255,1499,1000,0,0,0
1691768710720914,1500,1498,1255,1499,1000,0,0,0
1691768710724724,1500,1498,1254,1499,1000,0,0,0
1691768710728722,1499,1498,1255,1499,1000,0,0,0
1691768710731943,1499,1498,1255,1499,1000,0,0,0
1691768710735350,1499,1499,1255,1499,1000,0,0,0
1691768710739069,1499,1498,1255,1499,1000,0,0,0
1691768710742784,1499,1498,1255,1499,1000,0,0,0
1691768710747787,1500,1498,1255,1499,1000,0,0,0
1691768710750780,1500,1498,1255,1499,1000,0,0,0
1691768710753693,1500,1498,1254,1499,1000,0,0,0
1691768710757985,1500,1499,1255,1499,1000,0,0,0
1691768710761856,1500,1498,1255,1499,1000,0,0,0
1691768710764454,1499,1498,1255,1499,1000,0,0,0
1691768710768126,1499,1499,1255,1499,1000,0,0,0
1691768710771996,1499,1498,1255,1499,1000,0,0,0
1691768710776122,1501,1498,1254,1499,1000,0,0,0
1691768710780096,1500,1498,1255,1499,1000,0,0,0
1691768710783756,1500,1499,1254,1499,1000,0,0,0
1691768710786259,1501,1499,1254,1499,1000,0,0,0
1691768710790003,1500,1498,1255,1499,1000,0,0,0
1691768710794336,1499,1499,1255,1499,1000,0,0,0
1691768710798242,1499,1499,1255,1499,1000,0,0,0
1691768710801734,1499,1498,1255,1499,1000,0,0,0
1691768710805237,1500,1498,1255,1499,1000,0,0,0
1691768710808215,1500,1498,1255,1499,1000,0,0,0
1691768710812676,1500,1499,1255,1499,1000,0,0,0
1691768710815888,1500,1500,1254,1499,1000,0,0,0
1691768710819806,1501,1501,1254,1499,1000,0,0,0
1691768710824534,1500,1499,1255,1499,1000,0,0,0
1691768710827704,1499,1499,1255,1499,1000,0,0,0
1691768710830114,1499,1499,1255,1499,1000,0,0,0
1691768710833959,1499,1499,1255,1499,1000,0,0,0
1691768710838389,1500,1498,1255,1499,1000,0,0,0
1691768710842101,1500,1499,1255,1499,1000,0,0,0
1691768710844379,1500,1500,1255,1499,1000,0,0,0
1691768710848261,1501,1500,1255,1499,1000,0,0,0
1691768710852524,1500,1500,1255,1499,1000,0,0,0
1691768710856248,1499,1500,1255,1499,1000,0,0,0
1691768710860025,1499,1499,1256,1499,1000,0,0,0
1691768710863922,1500,1500,1256,1499,1000,0,0,0
1691768710866891,1500,1500,1255,1499,1000,0,0,0
1691768710871072,1500,1499,1255,1499,1000,0,0,0
1691768710873627,1501,1500,1255,1499,1000,0,0,0
1691768710877116,1500,1500,1255,1499,1000,0,0,0
1691768710881145,1500,1501,1255,1499,1000,0,0,0
1691768710885058,1500,1500,1256,1499,1000,0,0,0
1691768710889179,1499,1500,1256,1499,1000,0,0,0
1691768710892651,1499,1500,1256,1499,1000,0,0,0
1691768710897181,1500,1500,1256,1499,1000,0,0,0
1691768710899119,1501,1499,1256,1499,1000,0,0,0
1691768710903389,1501,1501,1255,1499,1000,0,0,0
1691768710907141,1502,1502,1255,1499,1000,0,0,0
1691768710910013,1501,1501,1255,1499,1000,0,0,0
1691768710914138,1500,1500,1256,1499,1000,0,0,0
1691768710918449,1499,1501,1256,1499,1000,0,0,0
1691768710921913,1499,1501,1256,1499,1000,0,0,0
1691768710924763,1501,1500,1256,1499,1000,0,0,0
1691768710928181,1500,1501,1256,1499,1000,0,0,0
1691768710932146,1500,1501,1256,1499,1000,0,0,0
1691768710936018,1504,1504,1254,1499,1000,0,0,0
1691768710940222,1500,1501,1255,1499,1000,0,0,0
1691768710942622,1499,1501,1256,1499,1000,0,0,0
1691768710946821,1499,1501,1256,1499,1000,0,0,0
1691768710950218,1500,1500,1256,1499,1000,0,0,0
1691768710954165,1500,1500,1256,1499,1000,0,0,0
1691768710958474,1500,1501,1255,1499,1000,0,0,0
1691768710961739,1501,1501,1255,1499,1000,0,0,0
1691768710965081,1500,1501,1255,1499,1000,0,0,0
1691768710969678,1499,1501,1256,1499,1000,0,0,0
1691768710972253,1499,1501,1256,1499,1000,0,0,0
1691768710976268,1499,1500,1256,1499,1000,0,0,0
1691768710979115,1499,1501,1256,1499,1000,0,0,0
1691768710983122,1500,1501,1255,1499,1000,0,0,0
1691768710987202,1500,1500,1255,1499,1000,0,0,0
1691768710990875,1501,1501,1255,1499,1000,0,0,0
1691768710994095,1500,1501,1255,1499,1000,0,0,0
1691768710997818,1499,1501,1255,1499,1000,0,0,0
1691768711001156,1499,1501,1256,1499,1000,0,0,0
1691768711005316,1499,1501,1256,1499,1000,0,0,0
1691768711008978,1499,1501,1256,1499,1000,0,0,0
1691768711011963,1500,1500,1255,1499,1000,0,0,0
1691768711015743,1500,1500,1255,1499,1000,0,0,0
1691768711019147,1501,1502,1255,1499,1000,0,0,0
1691768711023287,1501,1502,1254,1499,1000,0,0,0
1691768711027274,1500,1501,1255,1499,1000,0,0,0
1691768711030924,1499,1500,1255,1499,1000,0,0,0
1691768711033487,1499,1500,1255,1499,1000,0,0,0
1691768711037364,1499,1500,1255,1499,1000,0,0,0
1691768711041329,1500,1500,1255,1499,1000,0,0,0
1691768711044995,1500,1500,1255,1499,1000,0,0,0
1691768711049106,1500,1501,1254,1499,1000,0,0,0
1691768711051793,1500,1501,1254,1499,1000,0,0,0
1691768711056749,1499,1500,1255,1499,1000,0,0,0
1691768711059108,1498,1500,1255,1499,1000,0,0,0
1691768711063393,1499,1501,1255,1499,1000,0,0,0
1691768711067209,1499,1500,1255,1499,1000,0,0,0
1691768711070959,1499,1500,1255,1499,1000,0,0,0
1691768711073695,1500,1500,1254,1499,1000,0,0,0
1691768711077703,1500,1500,1254,1499,1000,0,0,0
1691768711081244,1499,1501,1254,1499,1000,0,0,0
1691768711085226,1499,1500,1255,1499,1000,0,0,0
1691768711089306,1498,1500,1255,1499,1000,0,0,0
1691768711091671,1498,1500,1255,1499,1000,0,0,0
1691768711095865,1498,1500,1255,1499,1000,0,0,0
1691768711099967,1499,1499,1254,1499,1000,0,0,0
1691768711103216,1500,1501,1254,1499,1000,0,0,0
1691768711107343,1500,1501,1253,1499,1000,0,0,0
1691768711109925,1500,1500,1253,1499,1000,0,0,0
1691768711115749,1500,1500,1253,1499,1000,0,0,0
1691768711118233,1498,1500,1254,1499,1000,0,0,0
1691768711120969,1498,1500,1255,1499,1000,0,0,0
1691768711125672,1498,1500,1255,1499,1000,0,0,0
1691768711128245,1498,1500,1255,1499,1000,0,0,0
1691768711132349,1498,1500,1255,1499,1000,0,0,0
1691768711136329,1499,1500,1254,1499,1000,0,0,0
1691768711140004,1499,1500,1254,1499,1000,0,0,0
1691768711142707,1499,1500,1254,1499,1000,0,0,0
1691768711146267,1499,1500,1254,1499,1000,0,0,0
1691768711150425,1499,1500,1255,1499,1000,0,0,0
1691768711154201,1498,1500,1255,1499,1000,0,0,0
1691768711157195,1498,1500,1255,1499,1000,0,0,0
1691768711161228,1498,1499,1255,1499,1000,0,0,0
1691768711165329,1498,1499,1255,1499,1000,0,0,0
1691768711169010,1498,1499,1255,1499,1000,0,0,0
1691768711171951,1499,1499,1255,1499,1000,0,0,0
1691768711175686,1499,1500,1255,1499,1000,0,0,0
1691768711179387,1498,1500,1255,1499,1000,0,0,0
1691768711183729,1498,1500,1255,1499,1000,0,0,0
1691768711187201,1498,1499,1255,1499,1000,0,0,0
1691768711190235,1498,1499,1255,1499,1000,0,0,0
1691768711194285,1498,1500,1255,1499,1000,0,0,0
1691768711197384,1499,1500,1255,1499,1000,0,0,0
1691768711201729,1499,1499,1255,1499,1000,0,0,0
1691768711205809,1499,1500,1255,1499,1000,0,0,0
1691768711209122,1499,1500,1255,1499,1000,0,0,0
1691768711212348,1498,1499,1255,1499,1000,0,0,0
1691768711215839,1498,1499,1255,1499,1000,0,0,0
1691768711219398,1498,1499,1255,1499,1000,0,0,0
1691768711223946,1498,1499,1255,1499,1000,0,0,0
1691768711227659,1498,1499,1255,1499,1000,0,0,0
1691768711230121,1498,1499,1255,1499,1000,0,0,0
1691768711233698,1498,1499,1255,1499,1000,0,0,0
1691768711237436,1499,1500,1255,1499,1000,0,0,0
