timestamp,roll,pitch,yaw,norm_thrust
1691768706635463,0.00000000,0.00000000,0.00000000,0.00000000
1691768706645365,0.00000000,0.00000000,0.00000000,0.00000000
1691768706655368,0.00000000,0.00000000,0.00000000,0.00000000
1691768706665363,0.00000000,0.00000000,0.00000000,0.00000000
1691768706675364,0.00000000,0.00000000,0.00000000,0.00000000
1691768706685369,0.00000000,0.00000000,0.00000000,0.00000000
1691768706695363,0.00000000,0.00000000,0.00000000,0.00000000
1691768706705364,0.00000000,0.00000000,0.00000000,0.00000000
1691768706715367,0.00000000,0.00000000,0.00000000,0.00000000
1691768706725378,0.00000000,0.00000000,0.00000000,0.00000000
1691768706736035,-0.04561912,0.38285157,0.60386735,11.24491119
1691768706739984,-0.04189201,0.38377526,0.60369360,11.23785210
1691768706742599,-0.04649107,0.37989509,0.60395062,11.24165630
1691768706746300,-0.04358855,0.38949287,0.60433811,11.27553749
1691768706750110,-0.04490081,0.38353869,0.60439730,11.28211021
1691768706754095,-0.04668918,0.38303286,0.60447437,11.28054047
1691768706758070,-0.04679246,0.39179632,0.60501558,11.31081963
1691768706760682,-0.04448200,0.38521606,0.60495907,11.31376743
1691768706764451,-0.04575437,0.38291860,0.60463899,11.32120514
1691768706768045,-0.04669321,0.38373029,0.60351348,11.35545349
1691768706772209,-0.04596828,0.38212481,0.60054159,11.36007309
1691768706775946,-0.04478107,0.37684751,0.59302413,11.40747833
1691768706779997,-0.04630233,0.37664571,0.58462775,11.40362453
1691768706782836,-0.04800550,0.37175351,0.57105696,11.38767433
1691768706786227,-0.05172728,0.35719812,0.55472106,11.38864326
1691768706790174,-0.04689606,0.33808124,0.53485471,11.41398239
1691768706794178,-0.06085455,0.32040772,0.51348573,11.36116505
1691768706798141,-0.08477471,0.30976397,0.49004707,11.40910912
1691768706800715,-0.14636074,0.14177416,0.46403345,11.61814499
1691768706804545,-0.14467864,0.13229693,0.43695697,11.53353882
1691768706808184,-0.16587046,0.13142231,0.41478524,11.50350761
1691768706812409,-0.18871245,0.17195545,0.38413769,11.61118412
1691768706816595,-0.16131781,0.16680391,0.35668096,11.57863903
1691768706821033,-0.10772688,0.11903887,0.33262756,11.56719398
1691768706822520,-0.16511686,0.10146581,0.31289411,11.36403275
1691768706826203,-0.11841652,0.04973314,0.29206157,11.38295937
1691768706830179,-0.20452054,-0.09827141,0.27174503,11.36616135
1691768706834175,-0.17116496,-0.00243045,0.25609380,10.82376194
1691768706838206,-0.21870840,-0.18737146,0.23793030,11.09562874
1691768706840985,-0.16205738,-0.20266715,0.22337313,10.98496342
1691768706844439,-0.12480830,-0.21474253,0.21185592,10.64945698
1691768706848234,-0.07781421,-0.20577024,0.19987823,10.43033123
1691768706852310,0.07395405,-0.05113802,0.18523420,9.71910095
1691768706856168,-0.06362206,-0.22162269,0.17078520,10.49900532
1691768706860122,0.08536183,-0.12131836,0.16067806,9.70470142
1691768706862709,-0.02205250,-0.25306308,0.14646336,10.36686707
1691768706866594,-0.00336206,-0.28800139,0.13704993,10.20802021
1691768706871143,0.18361655,-0.11082377,0.13016672,9.19441700
1691768706874247,0.06137317,-0.25228035,0.11707230,10.07623768
1691768706877211,-0.00839932,-0.28964928,0.10535878,10.00652885
1691768706881339,0.17986138,-0.23429866,0.10009029,9.65353394
1691768706885645,0.01415631,-0.36048108,0.08631220,9.97073936
1691768706891442,0.05517681,-0.37998089,0.07963388,9.84949875
1691768706892011,0.11122530,-0.37783998,0.07346047,9.70959473
1691768706895436,0.10092998,-0.33252934,0.06683005,9.55315304
1691768706900444,0.25697261,-0.04734527,0.05934638,8.75554562
1691768706903343,0.04243260,-0.34384853,0.04678474,10.00959396
1691768706907268,0.06333269,-0.38878208,0.04083017,9.96028900
1691768706910387,0.11077572,-0.42552364,0.03612859,9.77904701
1691768706913796,0.10263027,-0.38181567,0.03048043,9.69574070
1691768706918790,0.12895305,-0.36537212,0.02545392,9.67490768
1691768706921296,0.16061954,-0.36279663,0.02104300,9.59536934
1691768706925442,0.18150459,-0.36377621,0.01751208,9.57116604
1691768706929274,0.49377424,-0.14510436,0.01493330,8.70301247
1691768706932053,0.36099043,-0.15046726,0.00627156,9.29726791
1691768706935853,0.02620479,-0.30511704,-0.00399482,10.03616905
1691768706939486,0.00174824,-0.35482392,-0.00869083,9.97259235
1691768706943383,-0.14067467,-0.83575481,-0.02847891,9.12385845
1691768706946444,0.01633429,-0.56755018,-0.01159155,9.54999447
1691768706950334,0.15632592,-0.13188425,-0.00360421,10.08840084
1691768706954956,0.07679494,-0.44793487,-0.00777364,9.24763107
1691768706958264,0.08777482,-0.33494714,-0.00566079,9.55510235
1691768706961168,0.10094070,-0.30906215,-0.00375492,9.71309662
1691768706964940,0.10143062,-0.28674155,-0.00329808,9.85919571
1691768706970076,0.11182612,-0.27313510,-0.00281581,9.89286709
1691768706972431,0.08846413,-0.20998223,-0.00242343,9.72331619
1691768706976285,0.09044860,-0.18951757,-0.00212296,9.66451359
1691768706980739,0.09054852,-0.17283002,-0.00183163,9.82318592
1691768706982819,0.06601445,-0.19236796,-0.00078404,10.06715775
1691768706986417,0.08326226,-0.20943882,0.00029115,9.97021866
1691768706990463,0.12192808,-0.20063962,0.00095061,9.97940159
1691768706994352,0.11069865,-0.17700161,0.00135189,9.96440220
1691768707000704,0.14480232,-0.18574922,0.00326848,9.82214546
1691768707001296,0.12451561,-0.14596112,0.00396024,9.90633965
1691768707004576,0.10962120,-0.11800487,0.00447112,9.98689270
1691768707008315,1.66834724,0.07402689,-0.01405710,6.79398108
1691768707012346,0.85801435,0.42802238,-0.04204913,8.14346981
1691768707017170,0.33611706,0.33010748,-0.02687208,9.40527153
1691768707019324,-0.30015844,0.05372576,-0.01421772,10.74944496
1691768707022893,0.05555858,0.06181767,-0.01906883,10.11280727
1691768707026350,0.18830265,0.13145995,-0.02536372,9.62526894
1691768707030529,0.14280525,0.11294244,-0.02723221,9.53475189
1691768707034467,0.03908068,0.09213364,-0.02826515,9.92523861
1691768707038213,-0.04330041,0.07568182,-0.02927687,9.96610355
1691768707040972,-0.05190517,0.05450511,-0.02946206,9.89312077
1691768707044465,-0.05945891,0.01799193,-0.02969192,10.00569057
1691768707048407,-0.06957739,0.03145810,-0.03308196,9.65537071
1691768707052427,-0.08330568,0.09064163,-0.03124852,9.94231796
1691768707055655,-0.15924221,-0.01049692,-0.02942873,9.90442944
1691768707059129,-0.17335308,0.04603598,-0.03130871,9.82749081
1691768707062585,-0.17044173,0.08689439,-0.03193119,10.09790325
1691768707066478,-0.14291210,-0.04677011,-0.02876266,9.96032143
1691768707071141,-0.19296381,0.00254240,-0.02933737,10.02391148
1691768707074473,-0.22346996,0.03581192,-0.02899409,10.14319134
1691768707078099,-0.19258669,0.02322228,-0.02830130,10.20095253
1691768707080854,-0.21566516,0.00076311,-0.02712004,10.04279041
1691768707084574,-0.25585705,0.01797783,-0.02623892,10.12868404
1691768707088466,-0.26379523,0.02941384,-0.02523165,10.20407867
1691768707092482,-0.22791700,-0.00645006,-0.02384067,10.09520340
1691768707095319,-0.22411844,0.00308539,-0.02289842,10.02820492
1691768707099558,-0.78205633,-0.26565394,-0.01721047,11.11230946
1691768707103447,-0.74270988,-0.33828682,-0.01017550,11.28404713
1691768707107238,-0.53131676,-0.18772626,0.00633254,11.09810734
1691768707109981,-0.44649935,-0.14869104,0.01518619,10.82200432
1691768707113609,-0.39466271,-0.07781101,0.02027159,10.49539661
1691768707118229,-0.29028693,-0.10588358,0.02359512,10.35525322
1691768707125139,-0.17360418,-0.17965984,0.02868832,10.19771194
1691768707125256,-0.14788909,-0.17313841,0.03380616,10.07555008
1691768707128300,-0.05151429,-0.17895909,0.03907027,10.04572582
1691768707132592,-0.03518160,-0.14800620,0.04226371,10.01955700
1691768707136244,-0.02102082,-0.10522635,0.04364957,9.98995781
1691768707139459,-0.04796371,-0.10852028,0.04467962,10.23552227
1691768707142682,-0.00830473,-0.17413226,0.04632530,9.98014069
1691768707146541,0.00181164,-0.12148454,0.04716986,9.87963581
1691768707150525,0.06216038,-0.10335921,0.04900295,9.67310715
1691768707154549,0.06775471,-0.07175184,0.04956632,9.62537861
1691768707157207,0.02432524,0.00775753,0.04871167,9.76726627
1691768707160897,0.04653044,-0.07405519,0.04735456,9.99313545
1691768707164546,0.08771148,-0.01871580,0.04989456,9.81837749
1691768707168558,0.09122273,-0.15518598,0.04826085,9.84423065
1691768707174838,0.10654131,-0.10323775,0.04832141,9.89724064
1691768707176076,2.01065254,0.08494024,0.02775409,6.44955015
1691768707179069,0.68113762,0.21659069,0.02309135,8.98618412
1691768707182645,0.35800448,0.14898284,0.02353833,9.76579380
1691768707186447,0.25282982,0.12057873,0.01883588,9.89061165
1691768707190671,0.18886752,0.06215351,0.01467615,9.89749146
1691768707194432,0.12125821,0.06080538,0.01252417,9.91705894
1691768707197178,0.15791020,-0.00294682,0.01034345,9.85044479
1691768707201026,0.16561882,0.02637573,0.00793881,9.74843788
1691768707204990,0.09867954,0.09347571,0.00598495,9.79658413
1691768707208553,0.03350736,0.02649606,0.00416769,9.95778656
1691768707212712,0.06683347,0.08134991,0.00351365,9.96895313
1691768707215341,0.02108919,-0.01916736,0.00189502,9.86742210
1691768707219521,0.02955084,0.01452041,0.00056057,10.00224400
1691768707223733,0.10560908,0.08414204,-0.00195949,9.59816647
1691768707226606,-0.45781198,-0.20817803,-0.00830527,10.95679283
1691768707230618,-0.30064476,-0.09286091,0.00014079,10.91971779
1691768707234574,-0.17636977,-0.07825657,0.00360173,10.78591061
1691768707237169,0.93444377,-0.07613058,0.00886426,8.06641483
1691768707240979,0.41409966,0.15017255,-0.00217003,9.38045216
1691768707244549,0.26475370,0.10670950,-0.00066226,9.81135082
1691768707248682,0.15345322,0.09834273,-0.00102270,10.22825336
1691768707252549,0.15210050,0.05322820,-0.00224185,10.07178593
1691768707256247,0.12018224,0.04895595,-0.00330091,10.10695744
1691768707259127,0.10428123,0.04898492,-0.00419511,9.99510956
1691768707262785,0.16027759,0.06298640,-0.00654789,9.85123634
1691768707266552,0.06506677,0.08920993,-0.00775984,9.96141815
1691768707270587,0.05581251,0.04539678,-0.00834625,10.11774349
1691768707274370,0.05948187,0.06142468,-0.00938353,10.05219650
1691768707277684,0.05666351,0.04848528,-0.01020794,10.08353138
1691768707280911,0.07927646,0.04508425,-0.01115025,10.08174419
1691768707284527,0.08107176,0.05126768,-0.01206643,10.05585480
1691768707288761,0.04224808,0.05675658,-0.01248537,10.07559299
1691768707292505,0.06170958,0.03703546,-0.01269811,10.07578564
1691768707295428,0.07012346,0.07980995,-0.01333388,10.01452637
1691768707299204,0.04134915,0.06555212,-0.01343947,10.20661354
1691768707303525,0.05347603,0.03887131,-0.01361509,10.11767578
1691768707306304,0.08686537,0.03426699,-0.01337741,10.15849113
1691768707309939,0.06958469,0.04791287,-0.01335262,10.16264629
1691768707313673,0.08863766,0.04873262,-0.01375897,10.14881706
1691768707318521,0.06742801,0.12673910,-0.01344198,10.01851177
1691768707321614,0.00397284,0.08812059,-0.01202968,10.13296413
1691768707325522,-0.52531099,-0.09949539,-0.00777744,11.12314510
1691768707328571,-0.37579131,-0.06129236,-0.00071768,11.15961170
1691768707331695,-0.26824647,-0.02409349,0.00376825,10.96901703
1691768707335753,-0.18993466,-0.01709739,0.00698370,10.84014606
1691768707339689,-0.13501847,-0.09675043,0.00936555,10.71685028
1691768707343808,-0.08584189,-0.06917837,0.01270389,10.57174206
1691768707346298,-0.05445580,-0.05813190,0.01567801,10.43797588
1691768707349941,0.02968302,-0.06751067,0.01826143,10.25012302
1691768707354473,0.14497170,0.04660546,0.01978299,9.91968346
1691768707357658,0.05703707,-0.02921447,0.02207169,10.36131859
1691768707361626,0.07569646,-0.02390583,0.02368213,10.35682964
1691768707364543,0.10630476,-0.01779103,0.02488358,10.18352985
1691768707368095,0.15306267,-0.02474467,0.02579331,10.18207550
1691768707371750,0.19841367,-0.05300856,0.02731179,10.10827827
1691768707375357,1.22703302,0.59420311,-0.03491826,8.04574394
1691768707378930,0.85948032,0.20830186,0.00063321,8.54381466
1691768707382709,0.42242354,0.14052378,0.00450430,9.82324696
1691768707386689,0.27139908,0.10077482,0.00349021,9.98926735
1691768707390797,0.15593904,0.06204536,0.00126805,10.28891945
1691768707394489,0.10511777,0.11339664,-0.00314122,10.16066933
1691768707397185,0.11949502,0.01217389,-0.00388612,10.30209541
1691768707400916,0.09751423,-0.02319644,-0.00508834,10.21373940
1691768707404797,0.05942331,-0.00217926,-0.00807610,10.19633007
1691768707408761,0.03001993,0.01509683,-0.01008581,10.07812881
1691768707411616,-0.02504051,0.00177147,-0.01124180,10.44070148
1691768707415868,-0.02650592,-0.00968654,-0.01297926,10.43223381
1691768707419706,0.01445619,0.08996094,-0.01672166,10.13188171
1691768707429815,-0.01287697,-0.02248495,-0.01542993,10.37112904
1691768707429953,-0.02036674,-0.02765337,-0.01543180,10.53240776
1691768707430489,-0.04331296,-0.02578380,-0.01617145,10.56931114
1691768707433767,-0.09673395,0.01471195,-0.01708769,10.49654293
1691768707437826,-0.07300521,-0.01479241,-0.01613330,10.45805740
1691768707441799,-0.01220347,0.01130857,-0.01604972,10.34142017
1691768707444579,-0.05371346,-0.00274664,-0.01533292,10.43128777
1691768707448257,-0.07925730,0.09506023,-0.01618452,10.44909477
1691768707451715,-0.27172124,0.02694369,-0.01321733,11.23386097
1691768707455932,-0.29478031,-0.00384001,-0.01142051,11.11044598
1691768707460143,-0.26471207,0.00253921,-0.00987987,11.01549816
1691768707463680,-0.24250981,-0.03165302,-0.00859195,10.77330494
1691768707466274,0.21862103,-0.19871931,-0.00009852,9.49124622
1691768707469895,0.17163223,-0.03510002,-0.00730629,9.93219471
1691768707473888,0.02202461,-0.01903591,-0.00765838,10.33662701
1691768707477735,0.01223869,0.00695965,-0.00814190,10.45367241
1691768707484237,-0.00109738,0.03623904,-0.00877681,10.40350628
1691768707484868,-0.03077544,0.05160272,-0.00897862,10.35021305
1691768707488572,-0.11197369,0.00728157,-0.00775895,10.64225197
1691768707493064,-0.08699638,-0.05554646,-0.00603313,10.54050732
1691768707496886,-0.06208701,-0.04029402,-0.00584885,10.60649586
1691768707505378,-0.01227316,-0.07028431,-0.00462026,10.35152340
1691768707505533,-0.04991242,0.02028532,-0.00653331,10.45963669
1691768707506175,-0.04236126,-0.01884717,-0.00565228,10.35926819
1691768707509938,-0.07162942,-0.00642242,-0.00579792,10.46380043
1691768707513856,-0.12272978,-0.04705089,-0.00463121,10.64954948
1691768707518200,-0.06941926,-0.06155142,-0.00356837,10.37017155
1691768707521954,-0.09211706,-0.05660993,-0.00350394,10.44156837
1691768707524957,-0.10046931,-0.02516809,-0.00364166,10.49516487
1691768707528098,-0.06470672,0.02690205,-0.00203482,10.24796677
1691768707533688,-0.28681669,0.01936838,0.00157359,11.14367199
1691768707535814,-0.27050054,-0.00286326,0.00288061,11.05180073
1691768707540020,-0.22760440,-0.06771918,0.00503011,10.99701977
1691768707543506,-0.22350311,-0.15100485,0.00814692,10.55592918
1691768707546204,0.25216052,-0.09451694,0.01219149,9.27238369
1691768707550004,0.24470416,-0.05183143,0.01084214,9.69103432
1691768707554094,-0.12138246,0.01275400,0.01046550,10.83937168
1691768707557875,-0.15488638,0.00838277,0.01109015,10.80116653
1691768707560724,0.11687081,-0.07564128,0.01252240,9.78908825
1691768707564412,0.18871310,-0.05818177,0.01223900,10.03010654
1691768707567953,0.16290629,0.00881620,0.01001005,10.03995037
1691768707571874,0.08742223,0.02856312,0.00938518,10.30241585
1691768707576032,0.07910962,0.07187911,0.00795671,10.30310726
1691768707580303,0.07523680,0.00881003,0.00829154,10.25716972
1691768707583634,-0.01566096,-0.02824282,0.00839070,10.44456863
1691768707589820,-0.01183702,-0.00098596,0.00768541,10.42544460
1691768707590589,0.04247447,-0.03864296,0.00809096,10.29317570
1691768707593847,0.05302183,0.00039781,0.00744016,10.24128628
1691768707597934,0.04104438,0.03966921,0.00638735,10.15451145
1691768707601585,-0.00018098,-0.01302711,0.00653603,10.43584728
1691768707604431,0.00495722,-0.02185209,0.00609037,10.44705868
1691768707608109,0.00516509,-0.03287413,0.00582759,10.38740063
1691768707612290,-0.00774718,-0.02804285,0.00542607,10.27705383
1691768707616427,0.03448642,0.01106218,0.00448202,10.44502258
1691768707619989,0.06757199,0.03893492,0.00402997,10.42234993
1691768707622836,0.03394555,-0.02115170,0.00471537,10.29552364
1691768707628572,0.00652255,0.02002821,0.00387583,10.38740253
1691768707632012,0.03631283,0.01016705,0.00327339,10.16152668
1691768707634017,0.00386647,-0.01646222,0.00321767,10.55742264
1691768707637635,-0.00201297,-0.02753483,0.00281586,10.39018250
1691768707640981,0.03201122,0.00386703,0.00186849,10.37275219
1691768707644901,0.10401887,0.01622048,0.00123844,10.22591686
1691768707649036,0.02489843,0.08863213,0.00005460,10.20237827
1691768707652653,-0.00607952,0.04370380,-0.00000323,10.10983086
1691768707655439,0.00019244,-0.02683245,0.00022612,10.39118862
1691768707659095,0.03892558,-0.03943567,0.00017032,10.01656246
1691768707663143,0.00635644,0.02308991,-0.00107121,10.23485184
1691768707666632,0.04790222,0.00807940,-0.00113868,10.02419949
1691768707669860,0.11156373,0.11106331,-0.00357805,10.15543079
1691768707674010,0.03117495,0.02412103,-0.00198110,10.25115967
1691768707677983,-0.02041409,0.00248443,-0.00202874,10.51704025
1691768707681784,0.01093645,-0.02506771,-0.00196851,10.42199802
1691768707684494,0.04392168,-0.00326387,-0.00241800,10.46676922
1691768707688204,0.05481296,0.00816218,-0.00263054,10.28599548
1691768707692027,-0.15589905,0.06244512,-0.00136393,11.02950859
1691768707696049,-0.21730213,-0.03908321,-0.00081456,10.84412384
1691768707699974,-0.16847749,-0.08045589,0.00041796,10.76149559
1691768707702549,0.26705644,-0.04877203,0.00231683,9.26980305
1691768707706382,0.16651891,0.02134189,0.00033071,9.93499756
1691768707710068,0.13564940,0.04062267,-0.00004890,10.20036030
1691768707713961,0.14317870,0.05956797,-0.00040728,10.27748775
1691768707718067,0.03739441,0.16832829,-0.00137518,10.69440842
1691768707721828,0.18037239,-0.01570080,0.00032069,9.90903854
1691768707724415,0.08827797,-0.02182812,0.00012168,10.33310032
1691768707728023,0.08151833,0.02353003,-0.00070669,10.17858505
1691768707731945,0.04466900,0.01755895,-0.00061745,10.46693611
1691768707735908,0.07782952,0.01178669,-0.00040913,10.35316277
1691768707739366,-0.13906927,0.03963225,0.00088781,11.03172016
1691768707743054,-0.17892769,0.01810690,0.00163406,10.95254135
1691768707747061,-0.15750919,-0.04576795,0.00211783,10.65998363
1691768707750770,0.24645153,-0.09915102,0.00536501,9.51607132
1691768707753494,0.17697710,0.04710849,0.00127661,9.83242798
1691768707757361,0.10153249,0.07774862,0.00202722,10.20471668
1691768707761019,0.08865315,-0.00462104,0.00379257,10.40200901
1691768707765064,0.05903299,0.03597010,0.00314453,10.52202988
1691768707769022,0.03179045,0.03969885,0.00330873,10.49393177
1691768707771789,0.08140278,0.05186524,0.00323969,10.21998405
1691768707775375,-0.15642066,0.02386096,0.00529827,11.14476109
1691768707779088,-0.21982454,-0.01679312,0.00640722,11.04133034
1691768707783055,-0.20046024,-0.09236854,0.00768378,10.90564060
1691768707787071,0.24064223,-0.03605756,0.00927422,9.64369869
1691768707790894,0.20187232,0.01894201,0.00771246,10.01692390
1691768707793466,0.11922189,0.04540434,0.00762606,10.27043152
1691768707797202,0.13066314,0.07383095,0.00694918,10.18169117
1691768707801073,0.06175203,0.04199882,0.00781616,10.47842789
1691768707805140,-0.12358260,0.08632716,0.01049405,11.13157558
1691768707809087,-0.20103616,0.04429683,0.01323788,10.95034218
1691768707811566,-0.21363105,-0.10918828,0.01345091,10.89584637
1691768707815427,0.03684599,0.06855760,0.01298230,10.42463779
1691768707819091,0.25139123,-0.04332850,0.01532795,9.67527771
1691768707823130,0.18482320,0.05964930,0.01150512,9.86339474
1691768707827180,0.05520928,0.00420367,0.01257645,10.35230160
1691768707830980,0.04135126,0.00976336,0.01160176,10.42309284
1691768707833511,-0.01154423,-0.02279849,0.01161127,10.64654541
1691768707837267,-0.01127872,-0.03973796,0.01158907,10.62861061
1691768707841590,0.01463175,-0.01007086,0.01093209,10.41028595
1691768707845054,-0.00609871,0.01248334,0.01046218,10.66823864
1691768707849148,0.00748998,0.00661822,0.01039964,10.56038380
1691768707851741,0.01967601,0.06328072,0.00849091,10.48910713
1691768707855472,0.00159426,0.03455588,0.00804964,10.44470882
1691768707859096,-0.00991482,0.02662883,0.00732534,10.54163551
1691768707863386,-0.04366779,-0.00662778,0.00740943,10.45176888
1691768707867014,-0.03337149,0.00238863,0.00678823,10.62818146
1691768707869998,-0.04758256,-0.04473599,0.00720719,10.68654728
1691768707874181,-0.04877346,-0.01422950,0.00660202,10.66712666
1691768707879135,-0.01972305,-0.02069223,0.00634449,10.57305908
1691768707880916,-0.18464005,0.04686470,0.00799307,11.22822189
1691768707884552,-0.26028404,-0.05265045,0.00850461,10.95201015
1691768707888282,-0.25999475,-0.11911584,0.00887278,10.99888992
1691768707896228,-0.19357385,-0.09034837,0.00989856,10.89585495
1691768707896417,-0.10087461,-0.08552057,0.01094441,10.74010658
1691768707899964,0.33685148,-0.08756673,0.01415628,9.26910973
1691768707902516,0.15085314,0.01604414,0.00954391,10.06876278
1691768707906330,0.06897962,0.21309042,0.00481947,10.73080826
1691768707910211,0.10836850,-0.03030309,0.00959175,9.92059040
1691768707914239,0.00051397,-0.06047618,0.00942653,10.39676762
1691768707917323,-0.01698024,-0.05573956,0.00869214,10.43163204
1691768707921269,-0.01605890,-0.03081115,0.00788151,10.41170883
1691768707925260,-0.18495119,-0.02558981,0.00784867,11.00881100
1691768707929323,-0.27381936,-0.08482610,0.00816964,10.99143791
1691768707931695,-0.18231896,-0.05617216,0.00942742,10.78095150
1691768707935515,0.06655528,0.08715205,0.00746505,10.00142956
1691768707943562,-0.09282802,-0.07345282,0.00971155,10.53954887
1691768707943739,0.12368239,0.10824382,0.00597499,10.05738926
1691768707947148,0.20619407,-0.07643322,0.00980212,9.45121002
1691768707950993,0.13969761,-0.04609485,0.00758589,10.00397682
1691768707953604,0.06471245,-0.07207002,0.00699715,10.10963821
1691768707957255,-0.02760854,-0.06790140,0.00575820,10.43361473
1691768707961181,-0.01062258,-0.04713371,0.00477698,10.46473408
1691768707965241,-0.17570907,-0.04519898,0.00442864,10.99654770
1691768707968987,-0.23910818,-0.07296016,0.00424962,10.72601223
1691768707971924,-0.21643351,-0.10505600,0.00427991,10.73782825
1691768707979326,-0.16784997,-0.12271718,0.00498728,10.69315338
1691768707979661,0.13694000,0.06887173,0.00354530,9.96598816
1691768707983294,0.27427623,-0.09026411,0.00709331,9.39665508
1691768707987185,0.14185478,-0.01708384,0.00355085,10.00545502
1691768707990064,0.11581022,-0.01761688,0.00265914,10.27281761
1691768707994232,0.11090662,-0.02105527,0.00212730,10.18449593
1691768707997242,0.09493709,0.04759927,0.00081589,10.15245724
1691768708001230,0.04261341,0.07030989,0.00059694,10.15394783
1691768708005346,-0.01887929,-0.02931447,0.00187233,10.43041134
1691768708009083,-0.00816587,-0.05657399,0.00159266,10.52523708
1691768708011638,0.01401553,0.05409473,-0.00000647,10.46640301
1691768708015250,0.01927170,-0.03664372,0.00028236,10.08886623
1691768708019432,0.00174239,-0.07415631,-0.00005416,10.39628887
1691768708024953,-0.02773618,-0.06504888,-0.00089447,10.35202885
1691768708028452,-0.01574739,-0.05789788,-0.00159132,10.33057213
1691768708030370,0.01054842,-0.03834164,-0.00226155,10.44061661
1691768708035338,0.00026169,-0.01940244,-0.00275404,10.32973003
1691768708038562,0.00244357,-0.00640480,-0.00326908,10.36351490
1691768708041236,0.03491228,-0.02001122,-0.00340951,10.27484798
1691768708044754,-0.15148138,0.01040226,-0.00325209,11.07510948
1691768708048264,-0.17128929,0.01318966,-0.00284727,10.90903473
1691768708052285,-0.22270180,-0.09935362,-0.00289636,10.68359375
1691768708056280,-0.17323713,-0.09208769,-0.00140281,10.73082638
1691768708059036,-0.10409815,-0.09188072,0.00035458,10.53853607
1691768708062552,-0.02107516,-0.05414528,0.00151706,10.36817455
1691768708066325,0.52792835,0.03335404,-0.00093040,8.98867989
1691768708070288,-0.00505273,0.07255744,0.00067274,10.85274506
1691768708074347,-0.04619831,0.10986946,0.00224700,10.77134705
1691768708078033,-0.09675624,-0.01814181,0.00312120,10.53400135
1691768708080943,0.35447949,-0.09100645,0.00581254,9.34227467
1691768708084480,0.25208491,0.05862005,0.00007781,9.76008892
1691768708088353,0.12416371,0.09304217,0.00029266,10.30579376
1691768708092646,0.11286505,0.08863933,-0.00028970,10.38357735
1691768708096304,0.05066906,-0.01147715,0.00071655,10.50913715
1691768708099817,0.00537178,0.00360038,-0.00002640,10.46091747
1691768708103279,0.00788789,-0.02601703,0.00006215,10.37693501
1691768708107420,0.00751388,-0.02871063,-0.00015678,10.38887215
1691768708113606,-0.00818668,0.01306219,-0.00087155,10.57741928
1691768708114258,0.01673218,0.08681192,-0.00129877,10.38374805
1691768708118439,0.02993966,0.02872415,-0.00081074,10.38235569
1691768708120856,-0.15342504,0.04865225,-0.00007967,11.21960831
1691768708126973,-0.16972409,0.02429760,0.00031334,11.02137184
1691768708128272,-0.01379530,0.17173459,-0.00199114,10.37986088
1691768708132480,0.15226392,-0.07173508,0.00099946,9.65459919
1691768708135250,0.03383516,-0.03429960,-0.00033374,10.39391804
1691768708139503,0.00057563,-0.01139853,-0.00086987,10.52652073
1691768708143633,-0.00245563,0.03112824,-0.00157437,10.53676033
1691768708147550,0.08034473,0.08800757,-0.00234070,10.35441399
1691768708149925,-0.05271774,0.15034252,-0.00216544,10.86592102
1691768708153646,-0.04970234,0.14026414,-0.00254265,10.71707344
1691768708157501,0.02238683,-0.11400187,0.00054759,10.06021881
1691768708160934,-0.00064420,-0.05857669,-0.00044189,10.23597050
1691768708164609,-0.01965961,0.00274986,-0.00121877,10.48006153
1691768708168065,0.01748166,-0.00155932,-0.00094775,10.38199425
1691768708171773,0.05121636,0.04199008,-0.00187600,10.25141716
1691768708175284,-0.02858671,0.02324024,-0.00142427,10.59224129
1691768708179109,-0.04933479,0.00257881,-0.00106592,10.47451496
1691768708183329,-0.05252639,-0.00346155,-0.00078975,10.43410969
1691768708187826,-0.01358088,0.09861447,-0.00235829,10.76728916
1691768708190046,-0.00275386,0.00275358,-0.00078308,10.32871246
1691768708193578,0.01724157,0.09874745,-0.00223943,10.49735546
1691768708197491,0.01749904,0.02272659,-0.00090334,10.14488316
1691768708201568,-0.01196690,0.13603188,-0.00153958,10.59418869
1691768708205588,-0.06416816,-0.07887647,0.00123835,10.19117451
1691768708208121,-0.04084142,0.03687835,0.00021968,10.61361885
1691768708211619,-0.00589446,-0.04996510,0.00138676,10.24515915
1691768708215563,-0.18170840,-0.01832657,0.00224311,11.01576805
1691768708219508,-0.17865469,0.10779455,0.00413914,11.26436329
1691768708223372,-0.19388162,0.04657531,0.00539678,11.13594913
1691768708227546,-0.15388599,0.00484519,0.00591935,10.86280537
1691768708230026,-0.08085353,-0.27727017,0.00790724,9.78622818
1691768708233625,0.01408509,0.05611936,0.00956053,10.63231850
1691768708237507,0.02777763,-0.16701396,0.01249195,9.85723591
1691768708241534,0.13427164,0.18998998,0.00652859,10.15205860
1691768708246049,0.07355785,0.12073278,0.00773907,10.56410408
1691768708248904,0.04636849,0.07419969,0.00784021,10.36252594
1691768708251699,-0.03261395,-0.07624070,0.00894675,10.57458687
1691768708255522,0.03996132,-0.11317112,0.00979713,10.25141525
1691768708259398,0.07470208,-0.02732251,0.01040778,10.01669693
1691768708263530,0.00043746,-0.04447538,0.01181015,10.40616131
1691768708267145,0.02453822,-0.12921971,0.01204101,10.34321594
1691768708269952,0.19837868,-0.01549448,0.01133882,9.82595444
1691768708273716,0.17122874,-0.00309207,0.01080356,9.92930412
1691768708277441,0.02557271,-0.11090633,0.01103509,10.43432808
1691768708281591,0.03569987,-0.12668124,0.01089867,10.39262772
1691768708285202,0.04920965,-0.13039105,0.01083953,10.18956852
1691768708288698,0.04249440,-0.09649607,0.01052176,10.21566772
1691768708291744,0.01381882,-0.10877736,0.01006777,10.49329948
1691768708295552,0.05383173,-0.10877880,0.01018844,10.47683334
1691768708299488,0.06033582,-0.11300707,0.01024129,10.24281120
1691768708303479,0.07658444,-0.11707463,0.01037695,10.19471836
1691768708307564,0.08437081,-0.13579018,0.01051826,10.32703400
1691768708309840,0.11867414,-0.10979544,0.01057871,10.24143791
1691768708313626,0.09672376,-0.10426939,0.01028078,10.19827271
1691768708317585,0.24684139,0.04756405,0.00770488,9.84040833
1691768708321630,0.35141838,-0.14049284,0.01182607,9.25978565
1691768708325085,0.11760113,0.07708777,0.00590912,10.49971104
1691768708328931,0.08256990,0.05582446,0.00507846,10.54529285
1691768708331707,-0.05010169,-0.10741153,0.00510724,10.93240070
1691768708335633,-0.03377714,-0.16244341,0.00518993,10.63154984
1691768708339712,-0.01260460,-0.41541249,0.00683553,9.73299599
1691768708343685,0.46495882,-0.14597264,0.01055382,9.13296127
1691768708346242,0.00893421,-0.12114373,0.00593800,10.61973381
1691768708350117,-0.02527836,-0.10183771,0.00645973,10.55342293
1691768708353661,-0.00878819,-0.01595792,0.00717791,10.39844227
1691768708357564,-0.00487963,0.06548075,0.00662165,11.08510399
1691768708361530,0.02111558,-0.20027342,0.01019753,10.01299858
1691768708365371,0.40302616,-0.15051369,0.01392146,8.97043514
1691768708368053,0.18198748,0.08377858,0.00369717,10.29696178
1691768708371829,-0.09555108,-0.02698209,0.00692042,10.90065289
1691768708375534,-0.15050821,-0.05492944,0.00741826,10.84753227
1691768708379629,-0.18531877,-0.11341432,0.00844074,10.82049179
1691768708383682,-0.10502101,-0.11632728,0.01033913,10.63929272
1691768708386119,-0.04116419,-0.07027002,0.01152762,10.51341915
1691768708394874,-0.02482515,-0.00968562,0.01152574,10.38953495
1691768708394995,-0.00974449,0.01074342,0.01176082,10.34519958
1691768708397685,0.39347470,0.06709866,0.00950141,9.23902321
1691768708402225,0.13580620,0.05296158,0.01040845,10.10703850
1691768708405759,0.09180618,0.03763985,0.01035248,10.38919544
1691768708408540,0.04957156,0.02456679,0.00997287,10.37841892
1691768708411554,0.01241643,0.00557820,0.00998221,10.40030670
1691768708415734,0.03488356,0.06368984,0.00851884,10.42702198
1691768708420007,-0.17914128,0.06817739,0.00994965,11.07445431
1691768708424501,-0.24499558,0.00441803,0.01068389,10.95522785
1691768708426194,-0.22694090,0.01148071,0.01128658,10.77450943
1691768708429989,-0.13975339,0.01230134,0.01147458,10.57235527
1691768708433697,-0.05571229,0.06927510,0.01230262,10.43372726
1691768708437725,0.15580711,0.23336668,0.00622187,9.87233639
1691768708442712,0.23996997,0.05773730,0.01055529,9.52914047
1691768708444667,-0.09999380,0.06311728,0.01225194,10.91887856
1691768708448708,-0.11891019,0.05751701,0.01246042,10.86343575
1691768708453084,-0.14388625,0.04503303,0.01288616,10.54260540
1691768708455384,-0.16524734,0.04390679,0.01503836,10.62990093
1691768708458982,0.10052577,0.18990764,0.01078034,10.12146473
1691768708462744,0.22802597,0.17668483,0.00944981,9.94650745
1691768708466661,0.18934831,0.17160285,0.01020424,10.09994030
1691768708470738,0.09396772,0.09798481,0.01245247,10.29525757
1691768708474495,-0.16572683,-0.01391742,0.01494225,10.89748287
1691768708477070,-0.07844908,0.22907501,0.01098941,10.92480469
1691768708481003,0.01392208,0.10105713,0.01020199,10.01557446
1691768708484660,0.08923944,-0.14868627,0.01467445,9.82581997
1691768708488859,0.01730287,0.05650321,0.00955157,10.53423595
1691768708495554,-0.00678049,0.00527697,0.00977796,10.35553455
1691768708496632,0.00307401,0.08809724,0.00782625,10.63577843
1691768708500213,-0.01098597,0.09693809,0.00717949,10.63131905
1691768708503099,-0.04235058,0.09048560,0.00638213,10.61897755
1691768708506670,-0.01406430,0.05004951,0.00598959,10.51116180
1691768708510798,-0.13406010,0.13397916,0.00801855,11.44848728
1691768708513739,-0.18422377,0.08788420,0.00844126,11.14890575
1691768708517674,-0.11809881,0.16679129,0.00641176,10.46194839
1691768708521954,-0.06499802,0.16359791,0.00438645,10.43995380
1691768708524453,-0.07592288,0.09134369,0.00406932,10.64852905
1691768708528671,-0.15914053,-0.02568466,0.00432917,10.88404274
1691768708532639,-0.01887294,0.04124022,0.00291116,10.29543018
1691768708535182,-0.08648323,-0.05938662,0.00354313,10.69112110
1691768708539016,0.05372445,0.05867078,0.00168266,10.10074615
1691768708543622,-0.05195161,-0.04526784,0.00314015,10.62662125
1691768708546689,0.07006561,0.08362477,0.00029575,10.13348293
1691768708550653,-0.04957798,0.00989530,0.00127444,10.78444099
1691768708554325,-0.01460454,0.04536165,0.00039081,10.45403671
1691768708557749,-0.09954318,-0.06204670,0.00160130,10.88210297
1691768708561677,-0.03928958,-0.09177976,0.00224019,10.62072182
1691768708564423,0.01256455,-0.07908908,0.00289727,10.37515068
1691768708568046,0.02510328,-0.03742573,0.00278074,10.25239754
1691768708572004,0.13170178,0.13039456,-0.00076458,9.78300381
1691768708575866,0.07094556,0.15199971,-0.00011795,10.45876122
1691768708579865,0.02131148,0.02598837,0.00149390,10.48750782
1691768708583539,-0.00577647,-0.01350880,0.00173145,10.47406864
1691768708586314,0.01981278,-0.02838231,0.00145926,10.49780464
1691768708590050,-0.05603488,-0.10377356,0.00164315,10.77875233
1691768708593748,0.10274410,-0.03995979,0.00192870,10.01822948
1691768708597883,0.09855634,0.03821790,0.00047532,10.25008965
1691768708600766,0.07809915,0.04524332,-0.00013643,10.33281136
1691768708605811,-0.05643912,-0.09861805,0.00086386,10.89577293
1691768708608853,0.01724539,-0.02997441,0.00076454,10.26418591
1691768708611650,-0.06517365,-0.08302313,0.00073229,10.83833790
1691768708615397,0.07526474,0.05228578,0.00021705,10.27958488
1691768708618927,0.08019412,0.03957802,0.00072475,10.29583454
1691768708622515,0.09235565,0.02249092,0.00109695,10.25594711
1691768708626281,0.09308579,-0.05023145,0.00199633,10.41163540
1691768708631483,0.08881384,-0.04040697,0.00175363,10.39413261
1691768708635166,0.05470431,-0.02577824,0.00126514,10.23076534
1691768708637785,0.04166056,0.01129330,0.00038082,10.50265408
1691768708640765,0.02368430,-0.02081629,0.00047273,10.45846653
1691768708646206,-0.10908074,-0.14334334,0.00033379,11.03806496
1691768708648065,-0.08726303,-0.16123506,0.00068171,10.79853058
1691768708651877,0.07131353,-0.02144386,0.00089964,10.33314419
1691768708656304,0.06081729,-0.04562414,0.00121918,10.34290314
1691768708659940,0.07963923,-0.03231066,0.00115691,10.51604748
1691768708662638,0.08727456,-0.02940780,0.00122278,10.34976482
1691768708666142,0.10876872,0.05811549,0.00065399,10.40992355
1691768708669845,0.05317916,-0.00796427,0.00168107,10.46055412
1691768708673826,-0.04513275,-0.11183397,0.00216889,10.77740479
1691768708677943,0.04675271,-0.06834929,0.00242633,10.53268528
1691768708680815,0.01588351,-0.03634826,0.00190808,10.57710743
1691768708684988,0.00263929,-0.04196946,0.00179621,10.42557430
1691768708689035,0.06680290,-0.06360178,0.00241721,10.36001492
1691768708692670,0.06909947,-0.04169070,0.00248674,10.31139660
1691768708695416,0.06391814,0.03761886,0.00175238,10.29721260
1691768708699168,0.03914177,-0.01180108,0.00185020,10.42333508
1691768708702877,0.01133400,-0.05083185,0.00218114,10.71323299
1691768708707020,-0.02766422,-0.04585608,0.00203723,10.66991806
1691768708709781,-0.04141712,-0.05635254,0.00199199,10.51576138
1691768708713909,-0.00067191,-0.07256032,0.00248704,10.45824242
1691768708717183,-0.03216971,-0.15372348,0.00359497,10.79118156
1691768708720809,0.04476883,-0.00030582,0.00241398,10.13691235
1691768708724282,0.08341604,0.07287039,0.00138001,10.20109844
1691768708728368,-0.06812827,-0.12533984,0.00372737,10.99485874
1691768708732045,-0.01913747,-0.04018535,0.00366943,10.37470722
1691768708735828,-0.12201617,-0.11375065,0.00378941,10.79613304
1691768708739960,-0.06889413,-0.12903273,0.00474274,10.62744236
1691768708742700,0.14509971,-0.01313286,0.00484687,9.91473770
1691768708746855,0.10093042,0.03421990,0.00408199,10.04826260
1691768708752232,0.05397843,0.05145612,0.00369727,10.31330681
1691768708754080,0.04847957,0.04137675,0.00384875,10.35150814
1691768708758294,-0.00138567,0.06233051,0.00438245,10.56178761
1691768708761608,-0.05044545,-0.01078095,0.00520954,10.56269073
1691768708764384,0.00603451,-0.05145672,0.00583713,10.42314720
1691768708768072,-0.05394750,-0.14597736,0.00718944,10.69994164
1691768708772077,0.04807112,0.02920889,0.00546188,9.96249008
1691768708775905,0.01217585,0.04993689,0.00493376,10.28651047
1691768708779895,-0.02299038,-0.01996380,0.00593893,10.60737991
1691768708782680,-0.04973300,-0.00841507,0.00583041,10.58097076
1691768708786247,-0.07914469,-0.00738608,0.00585630,10.48197269
1691768708790093,-0.00895300,0.03096965,0.00566053,10.41860867
1691768708793886,-0.02195994,-0.02602202,0.00637805,10.43764305
1691768708798051,-0.03307778,-0.01042848,0.00616302,10.32855129
1691768708801727,0.01510958,-0.03525355,0.00666124,10.28295422
1691768708804530,0.03565801,-0.00572533,0.00629791,10.34195232
1691768708808164,0.01719217,0.04847189,0.00545150,10.27278233
1691768708812080,-0.03473150,0.04956551,0.00554823,10.23999214
1691768708816056,-0.04627582,-0.00906043,0.00622112,10.68229485
1691768708819733,-0.01753215,0.03878659,0.00598380,10.51990128
1691768708822647,-0.06280768,-0.02799333,0.00685800,10.35189342
1691768708826263,0.00529042,-0.03833031,0.00736985,10.38692570
1691768708830177,0.02696092,0.00595383,0.00675447,10.37667084
1691768708834344,-0.02032047,0.03818973,0.00631634,10.32382107
1691768708838032,-0.04824203,0.07345507,0.00597676,10.32159233
1691768708841755,-0.07338207,-0.01101453,0.00699868,10.60707855
1691768708844311,-0.14482903,-0.09128572,0.00773689,10.85952950
1691768708848035,-0.07602543,0.02156889,0.00736812,10.29259777
1691768708851977,-0.03764265,0.02803512,0.00728040,10.30781269
1691768708857002,0.02768775,0.06790960,0.00685145,10.30893707
1691768708859259,0.01206903,0.00946028,0.00799167,10.26762009
1691768708863008,-0.00579611,0.04287203,0.00759387,10.27189922
1691768708867055,-0.01223750,0.05702295,0.00743346,10.30704212
1691768708870892,-0.03396624,0.06413160,0.00747272,10.43111515
1691768708873488,-0.07685180,0.02952619,0.00796024,10.60271072
1691768708877129,-0.07097790,0.01622819,0.00790907,10.59671497
1691768708881125,-0.05048238,0.01081700,0.00784636,10.49827385
1691768708885118,-0.00964552,0.04184802,0.00793319,10.27287102
1691768708889124,0.00065290,0.00642433,0.00840896,10.29569817
1691768708891796,-0.00266092,0.03034205,0.00806056,10.29159355
1691768708895345,-0.02407663,0.04921016,0.00785997,10.23549843
1691768708899124,-0.08218958,0.00198064,0.00843415,10.51397896
1691768708902946,-0.05778313,0.02681656,0.00794858,10.49698067
1691768708907501,-0.05229210,0.02436927,0.00775713,10.44998932
1691768708914383,-0.05732816,0.03143382,0.00752311,10.31679249
1691768708914524,0.00384978,0.02031995,0.00746119,10.24505234
1691768708917640,0.06992366,0.07557604,0.00679543,10.06715298
1691768708921316,-0.02145938,0.05939245,0.00752620,10.31669903
1691768708926570,-0.03152683,0.06302442,0.00737054,10.37956142
1691768708930350,-0.04095501,0.01954696,0.00758866,10.60321045
1691768708931718,-0.05012370,0.01680029,0.00732475,10.51891994
1691768708935330,-0.05638758,0.02248400,0.00702863,10.37452126
1691768708939142,-0.02622570,-0.00855861,0.00704586,10.26236248
1691768708942633,0.02775148,0.02093349,0.00651537,10.24235439
1691768708946294,0.03449812,0.11313785,0.00589543,10.05549526
1691768708951236,-0.00691381,0.12713645,0.00686430,10.22641754
1691768708953449,-0.02906984,-0.01934284,0.00820737,10.58777523
1691768708957414,-0.02212860,-0.01568610,0.00793969,10.45343399
1691768708961514,-0.05595019,0.02094941,0.00736676,10.37785912
1691768708965230,-0.02805113,0.01390123,0.00706484,10.32404137
1691768708969218,0.02071778,-0.01384718,0.00711643,10.24516201
1691768708971822,0.02190998,0.02055464,0.00669966,10.18932533
1691768708975460,0.00413354,0.04356575,0.00641722,10.22106647
1691768708979399,0.02307955,0.03933773,0.00612208,10.24085617
1691768708983635,0.01616521,0.04634296,0.00564057,10.30484867
1691768708987220,0.04054158,0.11567836,0.00482959,10.27713108
1691768708989992,-0.03322610,-0.00695063,0.00614976,10.62853050
1691768708994093,-0.00681268,-0.01623793,0.00592834,10.50924110
1691768708998209,-0.07274655,0.02968401,0.00515938,10.38925266
1691768709000915,-0.02331260,0.00814053,0.00501969,10.34433651
1691768709004932,0.04831959,-0.02289106,0.00527750,10.27279186
1691768709008249,0.05679531,0.01876941,0.00457723,10.23578644
1691768709012038,0.03410201,0.05463745,0.00391575,10.16291237
1691768709016067,0.02085543,0.02681654,0.00387802,10.24817562
1691768709019945,0.12293535,0.09160157,0.00192265,10.05207157
1691768709022593,-0.00460475,0.02962762,0.00383103,10.56220627
1691768709026362,-0.06015055,-0.02076904,0.00404356,10.54018688
1691768709030291,-0.04786505,-0.03399023,0.00398050,10.49258232
1691768709035120,-0.02032072,-0.02214078,0.00389634,10.36478996
1691768709038215,0.02095256,-0.03889565,0.00415528,10.21761036
1691768709041278,0.04228627,-0.01006210,0.00371104,10.29191685
1691768709045077,0.04713166,0.03199716,0.00287732,10.27939129
1691768709049047,0.01811687,0.04550263,0.00246093,10.33405304
1691768709051671,0.01367087,0.02495697,0.00237074,10.34800148
1691768709055312,-0.01695897,-0.02429661,0.00270198,10.55227470
1691768709058940,0.00424131,0.03931778,0.00248708,10.43995380
1691768709063500,0.00965228,0.04794450,0.00297320,10.26638031
1691768709067245,0.01801173,-0.06042195,0.00407987,10.32745171
1691768709069765,0.06256107,-0.02629726,0.00379261,10.17523861
1691768709073457,0.05721084,0.02289155,0.00304569,10.20194530
1691768709077166,0.04703574,-0.07804931,0.00430542,7.83740425
1691768709081301,0.18344107,0.00738419,0.00287372,7.68603373
1691768709085096,-0.02037928,-0.13340579,0.00408439,8.16273975
1691768709089077,-0.04533443,-0.15151726,0.00388331,8.03283882
1691768709092634,-0.01368856,-0.18489414,0.00450730,7.96724081
1691768709095317,0.07784423,-0.18424204,0.00589924,7.75200367
1691768709099437,0.05593487,-0.16792613,0.00540421,7.75695038
1691768709103192,0.05126193,-0.16711015,0.00538625,7.81592083
1691768709107159,0.00705174,-0.10822862,0.00414711,7.96141243
1691768709109891,0.00319988,-0.09490728,0.00398932,8.02680302
1691768709113506,0.12117448,-0.00227357,0.00348923,7.63750315
1691768709118392,0.03296451,-0.12097701,0.00504143,8.23057175
1691768709121719,-0.00456251,-0.11776316,0.00481132,8.30000973
1691768709126643,0.22358544,0.05928608,0.00175340,7.64789486
1691768709127998,0.04879482,-0.08833014,0.00496808,8.50119400
1691768709132481,-0.01361271,-0.10998917,0.00480055,8.61018276
1691768709136570,-0.04275507,-0.08248125,0.00444667,8.69109535
1691768709141367,0.14145268,-0.01400297,0.00415737,8.26562500
1691768709142465,0.14676052,0.00609240,0.00370699,8.39265347
1691768709150369,-0.00934493,-0.08774258,0.00525725,8.89937687
1691768709150786,-0.05268254,-0.07994590,0.00505961,9.01226616
1691768709154554,-0.02996855,-0.07857763,0.00531073,9.07229900
1691768709158073,0.02849422,-0.00812849,0.00506523,8.90699959
1691768709160921,0.00582044,-0.04508597,0.00579540,9.12067032
1691768709164845,-0.01366745,-0.05538046,0.00640024,9.22613335
1691768709168288,-0.02339213,-0.03452042,0.00621130,9.32127953
1691768709172287,-0.01094544,0.01593815,0.00608713,9.34550571
1691768709176153,-0.01594815,-0.02000473,0.00657525,9.38048840
1691768709179027,0.08579662,0.06727447,0.00465095,9.12994194
1691768709182622,0.00252495,0.00590267,0.00617752,9.43900871
1691768709186253,-0.01673099,-0.01046016,0.00675999,9.54417992
1691768709190411,-0.03690593,0.01736998,0.00665628,9.65882492
1691768709194238,-0.04369850,0.02399665,0.00676013,9.69380379
1691768709198212,-0.03609363,0.03070225,0.00669121,9.72788620
1691768709200648,-0.02865317,0.03567136,0.00675874,9.78409290
1691768709204796,-0.01653652,0.04865364,0.00699092,9.80986881
1691768709208504,-0.01513171,0.05788775,0.00734532,9.83988762
1691768709212387,0.02605657,0.07815758,0.00669384,9.76716328
1691768709215364,0.02672753,0.08147733,0.00639053,9.79051685
1691768709219300,0.01416435,0.08296607,0.00620169,9.83665085
1691768709223497,-0.02168470,0.06820931,0.00657578,9.92469692
1691768709227026,-0.00838280,0.08653935,0.00594858,9.92065334
1691768709229939,-0.00861673,0.08717907,0.00573492,9.93745804
1691768709233519,-0.03922880,0.02869171,0.00675455,10.07353497
1691768709237319,-0.04053120,0.02077022,0.00681684,10.11411762
1691768709241393,-0.04580462,0.02552879,0.00671052,10.15822506
1691768709245242,-0.03761209,0.05101025,0.00685173,10.17126274
1691768709249108,-0.03741202,0.05010321,0.00724509,10.21643543
1691768709252738,-0.03338158,0.05126088,0.00767632,10.25978851
1691768709255274,-0.03778358,0.05592874,0.00847963,10.28429699
1691768709258929,-0.04562629,0.01705971,0.00911510,10.35085869
1691768709262595,-0.04084436,0.01900771,0.00919005,10.37123585
1691768709266543,-0.03776382,0.02114718,0.00924980,10.41249084
1691768709270452,-0.02808388,0.03106928,0.00914900,10.37619209
1691768709274432,-0.01313513,0.03268699,0.00916444,10.36970615
1691768709278053,-0.00749398,0.04585544,0.00903773,10.38686562
1691768709280848,-0.01205740,0.05880374,0.00891808,10.38106632
1691768709284788,-0.00978658,0.07643783,0.00860668,10.37162781
1691768709288402,0.01763253,0.11797390,0.00745924,10.28542042
1691768709292385,0.01230077,0.12217146,0.00723011,10.30032825
1691768709296142,-0.03744112,0.07590248,0.00914680,10.46775818
1691768709298929,-0.05210656,0.05049400,0.00944852,10.54172039
1691768709302506,-0.05338557,0.05516580,0.00925195,10.55223656
1691768709306428,-0.03331061,0.05313431,0.00924913,10.45470238
1691768709310759,-0.02933170,0.07277648,0.00893753,10.38714790
1691768709314323,-0.02693237,0.08439423,0.00858643,10.37149620
1691768709317602,-0.00220199,0.11411765,0.00731245,10.29454708
1691768709320886,-0.05024351,0.05629680,0.00823248,10.48367119
1691768709324612,-0.04202317,0.07723445,0.00850947,10.45625877
1691768709328487,-0.05654226,0.05041252,0.00858805,10.54938507
1691768709332456,-0.04890393,0.05770670,0.00816714,10.49048233
1691768709336061,-0.02797007,0.05797085,0.00791816,10.41385651
1691768709339033,-0.01673392,0.06686471,0.00750096,10.39195061
1691768709342580,0.01252769,0.10945425,0.00599902,10.29661274
1691768709347383,0.00266180,0.11200552,0.00535479,10.25476170
1691768709350381,-0.04432919,0.05422921,0.00607334,10.43985367
1691768709354657,-0.03652725,0.06895526,0.00649027,10.43731022
1691768709357205,-0.04043594,0.04139185,0.00654087,10.43718433
1691768709360729,-0.02095551,0.04058081,0.00636724,10.37444496
1691768709364445,-0.01826064,0.04627116,0.00606311,10.34397602
1691768709368752,-0.01690834,0.05554536,0.00551168,10.31299686
1691768709372831,0.00254768,0.08218770,0.00431984,10.23976994
1691768709376210,-0.03058449,0.03302167,0.00467929,10.40805340
1691768709379390,-0.03736434,0.02378508,0.00435711,10.43192768
1691768709382557,-0.02721079,0.04645603,0.00467426,10.35240746
1691768709386375,-0.02536932,0.02215904,0.00467120,10.38974571
1691768709390583,-0.01785378,0.01825920,0.00432387,10.35756016
1691768709393272,-0.00761999,0.02104304,0.00414075,10.33498955
1691768709397228,-0.00754711,0.03441087,0.00385338,10.27029705
1691768709401529,0.01224051,0.05834449,0.00294930,10.21558475
1691768709405376,0.01941169,0.06061919,0.00230001,10.22669411
1691768709408192,-0.01791830,0.00280182,0.00287522,10.37147522
1691768709411684,-0.02411392,-0.00062905,0.00258025,10.38227463
1691768709415764,-0.00700302,0.00936254,0.00308426,10.36446571
1691768709419516,-0.00602074,-0.01312596,0.00322111,10.37388229
1691768709422877,-0.00033814,-0.00247125,0.00313700,10.31334400
1691768709426293,0.00162215,0.00893507,0.00286773,10.27651501
1691768709430009,0.00216212,0.01102131,0.00258821,10.28304100
1691768709433720,-0.00182423,-0.01369717,0.00285608,10.34597301
1691768709437597,-0.00389922,-0.01559081,0.00269175,10.34818363
1691768709441626,-0.00551802,-0.01644451,0.00249224,10.35643768
1691768709445257,-0.00481789,-0.01839334,0.00250978,10.35393810
1691768709448102,0.01378308,-0.00073638,0.00330950,10.29211330
1691768709451699,0.01002818,-0.00725931,0.00339669,10.28576374
1691768709455696,0.03113271,0.01987486,0.00286889,10.21870136
1691768709459651,0.03125726,0.02567628,0.00258466,10.20250797
1691768709463759,0.00252171,-0.03335770,0.00321774,10.33364582
1691768709466157,-0.00215085,-0.04096620,0.00318780,10.36978531
1691768709470356,-0.00084830,-0.04015711,0.00319103,10.34717846
1691768709473720,0.00321096,-0.04441091,0.00333999,10.32323456
1691768709477651,0.00841884,-0.03858930,0.00332753,10.30634499
1691768709482444,0.01121312,-0.02575547,0.00323440,10.28010654
1691768709485223,0.04089511,0.01456296,0.00331374,10.20495987
1691768709488224,0.00686910,-0.04946167,0.00401357,10.33891106
1691768709491801,0.01048646,-0.05997562,0.00414644,10.36921406
1691768709495882,-0.00010656,-0.05041871,0.00402256,10.35008144
1691768709499625,0.00063696,-0.04487235,0.00394038,10.34576130
1691768709502467,0.00643911,-0.04656827,0.00397889,10.33447170
1691768709506628,0.01817660,-0.05390884,0.00424200,10.30993748
1691768709510584,0.01602951,-0.04372507,0.00420218,10.27591705
1691768709514389,0.02052769,-0.03217252,0.00407597,10.25293827
1691768709517155,0.04258597,-0.00244129,0.00356445,10.20705700
1691768709520647,0.02087272,-0.03182566,0.00484831,10.26894951
1691768709524688,0.01531450,-0.04260014,0.00542746,10.30478668
1691768709528639,0.00974926,-0.07338213,0.00581967,10.36069298
1691768709532722,0.01012354,-0.06691894,0.00600624,10.33521271
1691768709535197,0.01958666,-0.07609224,0.00645069,10.33524990
1691768709539003,0.03082388,-0.06855235,0.00650981,10.31635189
1691768709542523,0.03368081,-0.05359142,0.00641323,10.29334450
1691768709547067,0.04250325,-0.01756115,0.00605282,10.22339249
1691768709550573,0.02227735,-0.04495988,0.00625277,10.28159523
1691768709554853,0.01821880,-0.08173466,0.00657610,10.37210083
1691768709557013,0.00957472,-0.07894921,0.00662324,10.37196064
1691768709560671,0.00789171,-0.04247194,0.00673787,10.31415462
1691768709564662,0.00859379,-0.07435717,0.00714556,10.36771679
1691768709568639,0.02701933,-0.08799828,0.00785669,10.35325718
1691768709572985,0.02309715,-0.05860938,0.00772874,10.31247711
1691768709575299,0.02196300,-0.04203918,0.00734364,10.29274559
1691768709579039,0.04806696,-0.01050358,0.00670508,10.24485683
1691768709582718,0.01357253,-0.08727250,0.00772821,10.39990711
1691768709586616,0.00450412,-0.08478844,0.00736171,10.41858196
1691768709590695,0.00761048,-0.07119306,0.00701037,10.41062546
1691768709594299,0.01490041,-0.04016998,0.00724597,10.34849644
1691768709597242,0.01887580,-0.06575570,0.00776288,10.35806274
1691768709600686,0.02167954,-0.05302286,0.00740123,10.34156513
1691768709604702,0.03211246,-0.04667387,0.00727435,10.32246590
1691768709608691,0.02121332,-0.02624295,0.00674614,10.30073833
1691768709611738,0.01053302,-0.06249328,0.00683126,10.40301418
1691768709615803,0.01114902,-0.06368946,0.00658358,10.42287922
1691768709619648,0.00469356,-0.04780235,0.00647880,10.38239670
1691768709623465,0.00693423,-0.02130427,0.00664129,10.32763577
1691768709626217,0.02210978,-0.04286451,0.00684908,10.34373474
1691768709630015,0.02530891,-0.02703295,0.00655608,10.30053997
1691768709633813,0.01370505,-0.01028218,0.00608405,10.26983738
1691768709637742,0.00746880,-0.04001966,0.00604113,10.33258057
1691768709641922,0.01088881,-0.03925729,0.00567542,10.35875416
1691768709644286,0.00401846,-0.03914044,0.00565589,10.35244942
1691768709647977,-0.00294375,-0.02717736,0.00538175,10.34362507
1691768709651680,0.02685146,-0.01382407,0.00563979,10.30728817
1691768709655697,0.03124744,-0.02431325,0.00584117,10.30597115
1691768709659788,0.01506402,0.00765689,0.00510095,10.26629543
1691768709663754,0.01166194,-0.02842219,0.00526696,10.32039928
1691768709666101,0.01261083,-0.03180246,0.00512830,10.33830070
1691768709669765,0.00447743,-0.02016039,0.00497183,10.31759834
1691768709674116,-0.00036208,-0.01749142,0.00486522,10.28853321
1691768709677673,0.01283361,-0.02278271,0.00504187,10.29307079
1691768709681939,0.02754981,0.00536263,0.00511403,10.25395107
1691768709684303,0.04207787,0.03279746,0.00456364,10.19250298
1691768709688000,0.00866942,0.02692979,0.00432393,10.22206116
1691768709691850,0.01208678,-0.02174504,0.00493460,10.29928112
1691768709695781,0.00206718,-0.02065157,0.00487930,10.31310558
1691768709699834,-0.00515940,-0.00735369,0.00451150,10.29812527
1691768709702876,0.00609522,-0.01249081,0.00455593,10.30154991
1691768709706093,0.01664662,-0.02238656,0.00508177,10.28821850
1691768709709848,0.00650231,0.01057616,0.00470722,10.26368904
1691768709713564,0.01896472,0.02693187,0.00457870,10.24090672
1691768709719894,0.01889312,0.01618224,0.00468297,10.24426174
1691768709721225,0.00756422,-0.01204408,0.00515556,10.28680134
1691768709724708,-0.00167482,-0.00563948,0.00491793,10.28971100
1691768709728752,0.00652964,-0.00715424,0.00487226,10.30602646
1691768709732587,-0.00060164,0.00788370,0.00473500,10.28670979
1691768709735030,-0.00068085,0.01290157,0.00472031,10.27344799
1691768709739111,0.01607471,0.00493588,0.00497236,10.27343655
1691768709742812,0.01681740,0.01746579,0.00493096,10.25858688
1691768709746827,0.01247772,0.02674996,0.00478099,10.24488640
1691768709750781,0.01288986,0.04493503,0.00459500,10.23505783
1691768709753377,0.01312010,-0.00037288,0.00526289,10.30426979
1691768709757107,0.00477153,-0.00356350,0.00533026,10.31981277
1691768709760862,0.00256105,0.00244549,0.00516544,10.31491184
1691768709764959,0.01326820,-0.00451034,0.00526782,10.31593609
1691768709768723,0.02009311,0.00199785,0.00535248,10.29962921
1691768709772594,0.00904447,0.02241907,0.00514359,10.27452469
1691768709775704,0.01187656,0.03227157,0.00496353,10.27472496
1691768709779084,0.04721946,0.05527247,0.00434115,10.22610760
1691768709786934,0.01027164,0.03563998,0.00523079,10.28675175
1691768709787469,0.00096230,0.03283274,0.00557984,10.29403973
1691768709789977,-0.00351729,0.00879444,0.00594132,10.35440445
1691768709793970,-0.00370629,0.00051631,0.00609719,10.35413647
1691768709797986,-0.00562601,0.00866908,0.00600542,10.32689667
1691768709801538,0.00573925,0.01781380,0.00593490,10.31151009
1691768709804481,0.00369527,0.02907481,0.00585844,10.29793644
1691768709808007,-0.00413880,0.03624937,0.00571190,10.27876568
1691768709811902,-0.00260220,0.01184550,0.00605456,10.35160255
1691768709815931,-0.00157972,0.00838456,0.00611596,10.37131596
1691768709819920,-0.00046737,0.03003392,0.00625120,10.33852291
1691768709822534,-0.00242041,0.01274439,0.00653233,10.35463715
1691768709826150,0.00806863,0.00813005,0.00671584,10.35580730
1691768709829970,0.00898590,0.02120815,0.00672680,10.32986164
1691768709833913,-0.00773262,0.04828658,0.00641848,10.28468132
1691768709837984,-0.00367537,0.04835248,0.00634434,10.28342342
1691768709841661,-0.00232974,0.01997976,0.00678234,10.34026051
1691768709844459,-0.01273566,0.02047127,0.00681180,10.33319092
1691768709848102,-0.00740131,0.04307696,0.00710129,10.30185413
1691768709851945,0.00275716,0.04374897,0.00765515,10.29727745
1691768709856787,0.00763916,0.01770542,0.00825066,10.31241894
1691768709859827,-0.00366740,0.03533881,0.00813641,10.28630257
1691768709862652,0.02672252,0.06056550,0.00732029,10.24889183
1691768709866235,0.00425460,0.00851524,0.00827280,10.33379364
1691768709869915,-0.01245428,0.01632296,0.00818342,10.32933044
1691768709874028,-0.01321798,0.02272387,0.00807221,10.31545258
1691768709878324,-0.00057077,0.03398294,0.00817611,10.29768944
1691768709880719,0.00426309,0.03725085,0.00907340,10.27761173
1691768709884366,-0.00251825,0.03391024,0.00920353,10.26607609
1691768709888030,0.01301858,0.06214767,0.00824569,10.22127438
1691768709892041,-0.00502230,0.02992509,0.00868782,10.26416492
1691768709896107,-0.01134409,0.00255171,0.00907715,10.30173683
1691768709899072,-0.01646046,0.01702888,0.00881528,10.29332256
1691768709902857,-0.00975371,0.00892869,0.00874881,10.30514526
1691768709906899,-0.01214151,0.00652426,0.00867303,10.29348183
1691768709910637,-0.00834930,0.03419845,0.00894809,10.25758839
1691768709913552,0.00103748,0.03442098,0.00924308,10.25504398
1691768709917216,-0.00804901,0.03255202,0.00897555,10.25489998
1691768709921066,0.01349745,0.05148867,0.00782745,10.20115662
1691768709925070,-0.00779772,0.02401617,0.00771410,10.25296021
1691768709929091,-0.00796395,-0.00705564,0.00782455,10.30743217
1691768709931637,-0.02016251,-0.00784972,0.00754958,10.32630634
1691768709935103,-0.01840726,-0.00162320,0.00706574,10.31591415
1691768709939130,-0.01368720,0.00716924,0.00656773,10.30092812
1691768709943072,-0.01137755,0.01225556,0.00627412,10.27611923
1691768709947031,-0.01442086,0.01596150,0.00601139,10.26712322
1691768709950730,-0.00936687,0.03119695,0.00565982,10.25427914
1691768709953458,-0.00804593,0.03531568,0.00551149,10.24631405
1691768709957181,-0.01321833,0.02201229,0.00519037,10.24591923
1691768709960935,-0.02339056,0.00430960,0.00506233,10.28594398
1691768709965000,-0.01829275,-0.00905612,0.00473839,10.32331657
1691768709968955,-0.01719954,-0.00700391,0.00444216,10.29773045
1691768709971675,-0.01684852,-0.01214634,0.00439500,10.29979038
1691768709975284,-0.00626607,-0.00919564,0.00416646,10.30488110
1691768709979464,-0.00536101,0.00235221,0.00363186,10.28571129
1691768709983065,-0.01563382,0.01898711,0.00288911,10.26863575
1691768709987187,-0.01730192,0.02471017,0.00213793,10.26347160
1691768709990776,-0.00803446,0.01044558,0.00225757,10.28634930
1691768709993479,-0.01325329,0.01466030,0.00253650,10.29572868
1691768709997132,-0.02364712,0.00318032,0.00256414,10.29987526
1691768710001080,-0.01602078,-0.01035243,0.00258537,10.31101704
1691768710005077,-0.00313964,-0.01761278,0.00267612,10.30712318
1691768710008057,-0.00869880,0.00207388,0.00229271,10.27806568
1691768710012468,-0.00900399,0.00679737,0.00187106,10.27061749
1691768710016133,-0.00618829,0.00299844,0.00159626,10.26948929
1691768710019778,-0.01227492,-0.02476029,0.00188479,10.33011723
1691768710022512,-0.01964839,-0.01809551,0.00150622,10.33136940
1691768710026093,-0.01818619,-0.00798198,0.00117109,10.31777477
1691768710030198,-0.01461598,-0.01701021,0.00124750,10.32796097
1691768710034028,-0.01116327,0.00732317,0.00136985,10.29387951
1691768710038179,-0.00296891,-0.01205974,0.00154692,10.31183147
1691768710040806,0.00345352,-0.00706426,0.00136295,10.28755569
1691768710044454,-0.01098494,0.01284136,0.00087665,10.27261257
1691768710048209,-0.01002527,-0.01777573,0.00118954,10.32454300
1691768710052082,-0.01254509,-0.01674558,0.00102086,10.32998657
1691768710056021,-0.01494909,-0.02326394,0.00110448,10.35112095
1691768710059896,-0.01857555,-0.01888013,0.00096960,10.34065437
1691768710062527,-0.00764736,-0.01495081,0.00085969,10.32823944
1691768710066292,0.00248734,-0.01310093,0.00083003,10.31367970
1691768710070080,-0.00035428,0.01348153,0.00100997,10.27904510
1691768710074152,-0.00663008,0.02139671,0.00099544,10.27212048
1691768710076990,0.00268277,-0.02828251,0.00168291,10.34324741
1691768710081045,-0.00907851,-0.02744232,0.00164958,10.35681820
1691768710084426,-0.02107708,-0.01317032,0.00132645,10.33591652
1691768710088097,-0.00907624,-0.03238988,0.00157105,10.34223938
1691768710091620,0.00870488,-0.03046767,0.00164007,10.33373737
1691768710095216,-0.00168949,-0.00373154,0.00121179,10.29633427
1691768710099033,-0.00408338,0.00395665,0.00091974,10.28470325
1691768710102610,0.00626950,-0.00148081,0.00086948,10.28593731
1691768710106216,-0.00659585,0.00315653,0.00131391,10.29704380
1691768710109869,-0.01197164,0.00808397,0.00189607,10.30144787
1691768710114217,-0.00426867,-0.02638319,0.00238847,10.33388996
1691768710117138,-0.00067363,-0.02639739,0.00244634,10.31554890
1691768710121578,0.00244908,-0.02309133,0.00244481,10.29604912
1691768710125099,-0.00346814,-0.00425203,0.00213982,10.27521896
1691768710128909,0.01443902,-0.01389006,0.00226793,10.26635170
1691768710131616,-0.00440994,-0.01835862,0.00233874,10.30235672
1691768710135186,-0.01410255,-0.01914808,0.00226776,10.30886841
1691768710139320,-0.00340546,-0.02650270,0.00233306,10.31004429
1691768710143186,0.00568185,-0.02904304,0.00239273,10.29843616
1691768710147172,0.00191997,-0.00248354,0.00248599,10.27723885
1691768710149826,0.01039243,-0.01610409,0.00270517,10.26884651
1691768710153398,0.00731856,-0.00503065,0.00251792,10.26597214
1691768710157214,0.00534465,0.00006011,0.00243929,10.25502491
