timestamp,roll,pitch,thrust,yaw,aux1,aux2,aux3,aux4
1691756159796810,1500,1500,1000,1500,1000,0,0,0
1691756159806840,1500,1500,1000,1500,1000,0,0,0
1691756159818040,1499,1475,1254,1483,1000,0,0,0
1691756159821869,1499,1474,1279,1481,1000,0,0,0
1691756159825821,1499,1472,1282,1481,1000,0,0,0
1691756159828712,1500,1472,1283,1481,1000,0,0,0
1691756159832211,1500,1474,1282,1481,1000,0,0,0
1691756159836774,1499,1473,1283,1481,1000,0,0,0
1691756159839537,1499,1472,1284,1481,1000,0,0,0
1691756159848299,1499,1473,1285,1481,1000,0,0,0
1691756159848637,1499,1472,1285,1481,1000,0,0,0
1691756159851629,1500,1475,1284,1481,1000,0,0,0
1691756159854910,1499,1472,1285,1481,1000,0,0,0
1691756159858724,1499,1476,1285,1481,1000,0,0,0
1691756159863237,1499,1477,1284,1481,1000,0,0,0
1691756159864753,1499,1474,1285,1481,1000,0,0,0
1691756159869192,1499,1473,1287,1481,1000,0,0,0
1691756159872647,1499,1471,1288,1482,1000,0,0,0
1691756159877098,1500,1476,1286,1482,1000,0,0,0
1691756159879591,1500,1478,1287,1483,1000,0,0,0
1691756159882997,1500,1478,1287,1483,1000,0,0,0
1691756159887626,1500,1479,1287,1484,1000,0,0,0
1691756159890272,1500,1479,1287,1485,1000,0,0,0
1691756159894445,1500,1480,1286,1486,1000,0,0,0
1691756159897666,1499,1480,1287,1487,1000,0,0,0
1691756159901798,1500,1483,1283,1487,1000,0,0,0
1691756159906097,1499,1479,1287,1488,1000,0,0,0
1691756159908638,1500,1482,1284,1489,1000,0,0,0
1691756159912913,1500,1486,1280,1490,1000,0,0,0
1691756159916791,1501,1486,1278,1490,1000,0,0,0
1691756159920664,1500,1486,1277,1491,1000,0,0,0
1691756159923706,1499,1486,1276,1492,1000,0,0,0
1691756159927127,1500,1476,1274,1492,1000,0,0,0
1691756159931071,1502,1488,1265,1493,1000,0,0,0
1691756159935008,1500,1487,1264,1494,1000,0,0,0
1691756159938864,1499,1486,1262,1494,1000,0,0,0
1691756159942727,1500,1473,1268,1494,1000,0,0,0
1691756159946534,1501,1476,1267,1495,1000,0,0,0
1691756159949722,1500,1478,1263,1495,1000,0,0,0
1691756159952823,1501,1495,1248,1496,1000,0,0,0
1691756159955825,1500,1495,1252,1496,1000,0,0,0
1691756159960187,1501,1481,1262,1496,1000,0,0,0
1691756159963359,1500,1482,1260,1497,1000,0,0,0
1691756159968817,1500,1500,1246,1497,1000,0,0,0
1691756159970933,1503,1491,1249,1498,1000,0,0,0
1691756159974871,1512,1521,1235,1499,1000,0,0,0
1691756159977847,1503,1496,1250,1499,1000,0,0,0
1691756159981864,1501,1494,1250,1499,1000,0,0,0
1691756159987592,1502,1493,1250,1499,1000,0,0,0
1691756159988720,1500,1479,1256,1499,1000,0,0,0
1691756159992722,1501,1494,1241,1500,1000,0,0,0
1691756159996276,1502,1496,1242,1500,1000,0,0,0
1691756159999865,1502,1497,1246,1500,1000,0,0,0
1691756160003951,1502,1496,1244,1501,1000,0,0,0
1691756160007610,1499,1492,1242,1501,1000,0,0,0
1691756160010428,1503,1500,1241,1501,1000,0,0,0
1691756160014078,1504,1506,1241,1502,1000,0,0,0
1691756160019350,1512,1525,1238,1502,1000,0,0,0
1691756160021954,1499,1495,1256,1502,1000,0,0,0
1691756160025004,1495,1475,1260,1502,1000,0,0,0
1691756160028993,1496,1473,1257,1502,1000,0,0,0
1691756160033027,1498,1476,1253,1502,1000,0,0,0
1691756160036752,1499,1482,1250,1501,1000,0,0,0
1691756160047227,1499,1487,1250,1501,1000,0,0,0
1691756160047660,1502,1487,1245,1501,1000,0,0,0
1691756160047866,1504,1495,1243,1501,1000,0,0,0
1691756160051054,1505,1497,1243,1501,1000,0,0,0
1691756160057778,1505,1500,1238,1501,1000,0,0,0
1691756160058180,1507,1509,1237,1501,1000,0,0,0
1691756160063667,1501,1495,1253,1501,1000,0,0,0
1691756160064771,1501,1495,1250,1501,1000,0,0,0
1691756160069465,1502,1497,1249,1500,1000,0,0,0
1691756160072953,1503,1510,1236,1501,1000,0,0,0
1691756160079818,1498,1521,1236,1501,1000,0,0,0
1691756160080207,1506,1524,1236,1501,1000,0,0,0
1691756160084390,1504,1513,1241,1501,1000,0,0,0
1691756160087006,1503,1513,1245,1501,1000,0,0,0
1691756160092089,1504,1513,1246,1501,1000,0,0,0
1691756160095022,1503,1512,1248,1501,1000,0,0,0
1691756160098138,1502,1507,1250,1501,1000,0,0,0
1691756160102040,1501,1501,1247,1501,1000,0,0,0
1691756160104875,1498,1499,1250,1501,1000,0,0,0
1691756160108930,1499,1498,1251,1501,1000,0,0,0
1691756160113098,1500,1501,1254,1501,1000,0,0,0
1691756160117406,1498,1499,1247,1501,1000,0,0,0
1691756160119861,1503,1504,1244,1502,1000,0,0,0
1691756160123048,1505,1513,1242,1502,1000,0,0,0
1691756160127087,1499,1499,1255,1501,1000,0,0,0
1691756160131224,1501,1503,1250,1502,1000,0,0,0
1691756160135114,1502,1505,1249,1502,1000,0,0,0
1691756160137601,1501,1504,1250,1502,1000,0,0,0
1691756160144183,1500,1504,1249,1502,1000,0,0,0
1691756160151482,1499,1505,1250,1502,1000,0,0,0
1691756160151714,1499,1506,1250,1502,1000,0,0,0
1691756160153054,1498,1505,1251,1501,1000,0,0,0
1691756160156709,1497,1503,1253,1501,1000,0,0,0
1691756160159436,1499,1503,1246,1501,1000,0,0,0
1691756160163242,1500,1509,1246,1501,1000,0,0,0
1691756160166933,1503,1516,1243,1502,1000,0,0,0
1691756160173919,1499,1499,1259,1501,1000,0,0,0
1691756160174721,1498,1501,1258,1501,1000,0,0,0
1691756160178806,1500,1502,1251,1501,1000,0,0,0
1691756160182118,1500,1499,1253,1501,1000,0,0,0
1691756160185234,1500,1499,1252,1501,1000,0,0,0
1691756160189007,1499,1500,1249,1501,1000,0,0,0
1691756160193214,1496,1489,1254,1501,1000,0,0,0
1691756160195671,1499,1501,1248,1501,1000,0,0,0
1691756160199578,1496,1501,1250,1501,1000,0,0,0
1691756160203201,1498,1496,1246,1500,1000,0,0,0
1691756160208706,1499,1499,1251,1500,1000,0,0,0
1691756160211083,1498,1500,1251,1500,1000,0,0,0
1691756160214918,1499,1504,1248,1500,1000,0,0,0
1691756160218815,1500,1505,1248,1500,1000,0,0,0
1691756160221458,1500,1505,1247,1500,1000,0,0,0
1691756160224955,1500,1505,1247,1500,1000,0,0,0
1691756160229114,1499,1503,1251,1500,1000,0,0,0
1691756160233180,1499,1502,1251,1500,1000,0,0,0
1691756160237536,1494,1499,1256,1500,1000,0,0,0
1691756160240026,1497,1497,1254,1500,1000,0,0,0
1691756160243338,1500,1500,1246,1500,1000,0,0,0
1691756160248391,1499,1503,1248,1500,1000,0,0,0
1691756160250525,1499,1506,1247,1500,1000,0,0,0
1691756160255584,1509,1528,1241,1500,1000,0,0,0
1691756160258068,1497,1496,1257,1500,1000,0,0,0
1691756160262467,1494,1492,1257,1500,1000,0,0,0
1691756160267620,1496,1491,1255,1499,1000,0,0,0
1691756160268692,1497,1494,1253,1499,1000,0,0,0
1691756160272147,1496,1494,1250,1499,1000,0,0,0
1691756160276370,1497,1494,1250,1499,1000,0,0,0
1691756160280158,1496,1494,1254,1499,1000,0,0,0
1691756160283989,1497,1495,1248,1499,1000,0,0,0
1691756160293069,1502,1506,1240,1499,1000,0,0,0
1691756160293336,1497,1491,1257,1499,1000,0,0,0
1691756160293954,1496,1493,1255,1499,1000,0,0,0
1691756160297620,1497,1497,1251,1499,1000,0,0,0
1691756160301612,1497,1499,1251,1499,1000,0,0,0
1691756160305156,1498,1498,1251,1499,1000,0,0,0
1691756160309306,1497,1497,1251,1499,1000,0,0,0
1691756160313300,1494,1485,1258,1499,1000,0,0,0
1691756160315739,1496,1486,1253,1499,1000,0,0,0
1691756160319681,1497,1491,1248,1499,1000,0,0,0
1691756160323090,1499,1499,1245,1499,1000,0,0,0
1691756160327177,1513,1540,1232,1500,1000,0,0,0
1691756160331135,1497,1489,1260,1499,1000,0,0,0
1691756160334321,1496,1496,1257,1499,1000,0,0,0
1691756160338169,1497,1498,1254,1499,1000,0,0,0
1691756160342132,1496,1499,1252,1499,1000,0,0,0
1691756160344907,1496,1501,1250,1499,1000,0,0,0
1691756160348704,1494,1489,1257,1498,1000,0,0,0
1691756160352320,1497,1490,1248,1498,1000,0,0,0
1691756160356421,1502,1514,1236,1499,1000,0,0,0
1691756160360344,1497,1497,1256,1498,1000,0,0,0
1691756160363883,1499,1496,1255,1498,1000,0,0,0
1691756160367203,1500,1500,1251,1498,1000,0,0,0
1691756160370400,1499,1502,1251,1499,1000,0,0,0
1691756160374672,1499,1502,1251,1499,1000,0,0,0
1691756160379037,1499,1502,1253,1499,1000,0,0,0
1691756160382695,1496,1492,1258,1498,1000,0,0,0
1691756160385572,1499,1504,1250,1499,1000,0,0,0
1691756160390487,1497,1492,1258,1498,1000,0,0,0
1691756160397455,1496,1493,1253,1498,1000,0,0,0
1691756160397671,1501,1515,1241,1499,1000,0,0,0
1691756160401406,1498,1505,1257,1498,1000,0,0,0
1691756160404321,1499,1503,1254,1498,1000,0,0,0
1691756160406619,1501,1502,1252,1499,1000,0,0,0
1691756160410260,1501,1499,1252,1499,1000,0,0,0
1691756160414205,1501,1499,1252,1499,1000,0,0,0
1691756160418263,1498,1490,1256,1499,1000,0,0,0
1691756160421170,1500,1502,1250,1499,1000,0,0,0
1691756160427043,1499,1503,1253,1499,1000,0,0,0
1691756160429469,1498,1505,1252,1499,1000,0,0,0
1691756160432479,1502,1509,1245,1499,1000,0,0,0
1691756160436392,1505,1514,1246,1499,1000,0,0,0
1691756160440134,1498,1498,1263,1499,1000,0,0,0
1691756160443263,1499,1500,1260,1499,1000,0,0,0
1691756160447177,1500,1503,1258,1499,1000,0,0,0
1691756160451281,1501,1505,1258,1499,1000,0,0,0
1691756160453922,1500,1503,1258,1499,1000,0,0,0
1691756160458041,1499,1493,1263,1499,1000,0,0,0
1691756160461626,1502,1502,1256,1499,1000,0,0,0
1691756160465178,1502,1503,1253,1499,1000,0,0,0
1691756160469372,1501,1500,1251,1499,1000,0,0,0
1691756160473115,1501,1497,1258,1499,1000,0,0,0
1691756160475906,1498,1490,1264,1499,1000,0,0,0
1691756160479441,1501,1506,1253,1499,1000,0,0,0
1691756160483280,1500,1497,1260,1499,1000,0,0,0
1691756160487262,1501,1508,1254,1500,1000,0,0,0
1691756160490108,1501,1514,1249,1500,1000,0,0,0
1691756160494448,1498,1505,1255,1500,1000,0,0,0
1691756160498175,1502,1507,1260,1500,1000,0,0,0
1691756160502094,1502,1508,1260,1500,1000,0,0,0
1691756160507092,1502,1506,1259,1500,1000,0,0,0
1691756160510737,1501,1504,1261,1500,1000,0,0,0
1691756160512338,1503,1503,1258,1500,1000,0,0,0
1691756160516267,1503,1505,1256,1500,1000,0,0,0
1691756160520378,1503,1507,1251,1500,1000,0,0,0
1691756160522972,1512,1532,1244,1501,1000,0,0,0
1691756160526854,1500,1499,1264,1500,1000,0,0,0
1691756160530876,1498,1487,1268,1500,1000,0,0,0
1691756160534801,1500,1499,1259,1500,1000,0,0,0
1691756160538280,1499,1500,1261,1501,1000,0,0,0
1691756160542798,1498,1500,1260,1501,1000,0,0,0
1691756160547125,1501,1504,1255,1501,1000,0,0,0
1691756160548995,1504,1512,1250,1501,1000,0,0,0
1691756160552925,1501,1499,1262,1501,1000,0,0,0
1691756160556292,1502,1504,1259,1501,1000,0,0,0
1691756160560362,1502,1504,1259,1501,1000,0,0,0
1691756160562960,1506,1512,1248,1501,1000,0,0,0
1691756160566763,1501,1496,1262,1501,1000,0,0,0
1691756160570663,1501,1498,1264,1501,1000,0,0,0
1691756160576503,1502,1501,1261,1501,1000,0,0,0
1691756160578795,1502,1503,1260,1501,1000,0,0,0
1691756160582512,1502,1503,1257,1501,1000,0,0,0
1691756160585535,1502,1503,1262,1501,1000,0,0,0
1691756160591979,1501,1503,1263,1501,1000,0,0,0
1691756160592907,1499,1500,1263,1501,1000,0,0,0
1691756160596424,1502,1501,1261,1501,1000,0,0,0
1691756160600802,1504,1502,1262,1501,1000,0,0,0
1691756160602926,1501,1499,1265,1501,1000,0,0,0
1691756160606722,1502,1504,1254,1501,1000,0,0,0
1691756160610699,1511,1529,1247,1502,1000,0,0,0
1691756160613850,1500,1498,1265,1501,1000,0,0,0
1691756160620110,1500,1498,1263,1501,1000,0,0,0
1691756160621322,1501,1499,1260,1501,1000,0,0,0
1691756160625513,1501,1499,1259,1501,1000,0,0,0
1691756160629556,1505,1516,1253,1502,1000,0,0,0
1691756160632046,1503,1515,1256,1502,1000,0,0,0
1691756160635902,1503,1514,1258,1502,1000,0,0,0
1691756160639477,1498,1492,1267,1502,1000,0,0,0
1691756160643529,1497,1490,1267,1501,1000,0,0,0
1691756160647343,1496,1490,1267,1501,1000,0,0,0
1691756160651322,1499,1494,1261,1501,1000,0,0,0
1691756160653985,1505,1510,1258,1502,1000,0,0,0
1691756160657871,1497,1489,1268,1501,1000,0,0,0
1691756160661247,1497,1491,1267,1501,1000,0,0,0
1691756160665425,1497,1491,1266,1501,1000,0,0,0
1691756160669543,1496,1494,1262,1501,1000,0,0,0
1691756160672022,1499,1494,1261,1501,1000,0,0,0
1691756160676015,1497,1492,1263,1501,1000,0,0,0
1691756160679521,1500,1501,1252,1501,1000,0,0,0
1691756160683452,1498,1495,1262,1501,1000,0,0,0
1691756160687413,1498,1496,1263,1501,1000,0,0,0
1691756160690330,1499,1497,1260,1501,1000,0,0,0
1691756160696749,1499,1498,1257,1501,1000,0,0,0
1691756160698366,1503,1520,1253,1502,1000,0,0,0
1691756160701552,1496,1497,1266,1501,1000,0,0,0
1691756160707125,1497,1492,1268,1501,1000,0,0,0
1691756160708677,1498,1491,1265,1501,1000,0,0,0
1691756160712870,1499,1492,1259,1501,1000,0,0,0
1691756160716988,1502,1514,1254,1501,1000,0,0,0
1691756160720451,1497,1494,1264,1501,1000,0,0,0
1691756160722905,1497,1493,1264,1501,1000,0,0,0
1691756160726816,1496,1493,1261,1501,1000,0,0,0
1691756160730631,1499,1496,1253,1501,1000,0,0,0
1691756160734715,1504,1517,1249,1501,1000,0,0,0
1691756160738373,1497,1491,1264,1501,1000,0,0,0
1691756160741642,1496,1489,1263,1500,1000,0,0,0
1691756160745671,1497,1489,1261,1500,1000,0,0,0
1691756160748563,1498,1492,1261,1500,1000,0,0,0
1691756160752534,1504,1515,1250,1501,1000,0,0,0
1691756160756473,1497,1492,1263,1500,1000,0,0,0
1691756160760690,1497,1490,1265,1500,1000,0,0,0
1691756160763048,1497,1493,1262,1500,1000,0,0,0
1691756160766796,1503,1515,1250,1501,1000,0,0,0
1691756160770681,1496,1495,1261,1500,1000,0,0,0
1691756160774659,1496,1493,1261,1500,1000,0,0,0
1691756160778807,1496,1493,1261,1500,1000,0,0,0
1691756160781258,1499,1497,1252,1500,1000,0,0,0
1691756160785194,1496,1492,1260,1500,1000,0,0,0
1691756160788680,1499,1495,1259,1500,1000,0,0,0
1691756160792816,1500,1496,1258,1499,1000,0,0,0
1691756160796476,1499,1499,1255,1499,1000,0,0,0
1691756160800351,1502,1524,1247,1500,1000,0,0,0
1691756160804499,1498,1496,1261,1499,1000,0,0,0
1691756160808087,1498,1495,1260,1499,1000,0,0,0
1691756160810675,1497,1499,1257,1499,1000,0,0,0
1691756160814787,1496,1499,1259,1499,1000,0,0,0
1691756160818797,1501,1501,1253,1499,1000,0,0,0
1691756160822386,1506,1521,1246,1500,1000,0,0,0
1691756160824872,1498,1496,1261,1499,1000,0,0,0
1691756160828752,1498,1494,1260,1499,1000,0,0,0
1691756160832495,1498,1494,1260,1499,1000,0,0,0
1691756160838871,1500,1500,1254,1499,1000,0,0,0
1691756160839464,1499,1506,1247,1499,1000,0,0,0
1691756160844403,1505,1523,1248,1499,1000,0,0,0
1691756160847613,1505,1520,1253,1499,1000,0,0,0
1691756160850689,1497,1497,1265,1499,1000,0,0,0
1691756160854674,1497,1495,1261,1499,1000,0,0,0
1691756160859043,1498,1496,1261,1499,1000,0,0,0
1691756160862248,1501,1498,1257,1499,1000,0,0,0
1691756160866074,1499,1504,1252,1499,1000,0,0,0
1691756160869414,1504,1521,1251,1499,1000,0,0,0
1691756160872023,1500,1497,1265,1499,1000,0,0,0
1691756160875787,1499,1499,1262,1499,1000,0,0,0
1691756160879807,1496,1498,1262,1499,1000,0,0,0
1691756160883578,1502,1499,1251,1499,1000,0,0,0
1691756160887702,1506,1521,1250,1499,1000,0,0,0
1691756160890229,1504,1519,1254,1499,1000,0,0,0
1691756160894144,1497,1498,1263,1499,1000,0,0,0
1691756160898748,1498,1492,1265,1499,1000,0,0,0
1691756160903087,1499,1495,1264,1499,1000,0,0,0
1691756160905649,1500,1497,1261,1499,1000,0,0,0
1691756160908636,1499,1498,1264,1499,1000,0,0,0
1691756160912702,1502,1503,1259,1499,1000,0,0,0
1691756160916800,1505,1526,1250,1500,1000,0,0,0
1691756160919413,1499,1500,1266,1499,1000,0,0,0
1691756160924360,1500,1502,1265,1499,1000,0,0,0
1691756160926785,1501,1503,1261,1499,1000,0,0,0
1691756160932723,1501,1504,1259,1499,1000,0,0,0
1691756160935063,1502,1508,1256,1499,1000,0,0,0
1691756160938710,1504,1524,1255,1500,1000,0,0,0
1691756160943635,1503,1523,1259,1500,1000,0,0,0
1691756160944839,1498,1497,1268,1499,1000,0,0,0
1691756160948717,1498,1495,1268,1499,1000,0,0,0
1691756160952792,1497,1496,1265,1499,1000,0,0,0
1691756160956711,1498,1499,1260,1499,1000,0,0,0
1691756160959499,1498,1499,1264,1499,1000,0,0,0
1691756160963135,1500,1498,1266,1499,1000,0,0,0
1691756160968420,1500,1497,1265,1499,1000,0,0,0
1691756160971038,1502,1501,1259,1499,1000,0,0,0
1691756160974714,1501,1494,1266,1499,1000,0,0,0
1691756160977728,1501,1502,1265,1499,1000,0,0,0
1691756160981336,1501,1504,1262,1499,1000,0,0,0
1691756160985126,1501,1508,1258,1499,1000,0,0,0
1691756160990538,1506,1529,1250,1500,1000,0,0,0
1691756160994446,1500,1501,1267,1499,1000,0,0,0
1691756161010884,1499,1499,1266,1499,1000,0,0,0
1691756161011111,1498,1499,1263,1499,1000,0,0,0
1691756161011732,1501,1498,1262,1499,1000,0,0,0
1691756161011939,1501,1499,1258,1499,1000,0,0,0
1691756161012167,1500,1502,1255,1499,1000,0,0,0
1691756161014199,1501,1508,1257,1499,1000,0,0,0
1691756161018384,1500,1500,1267,1499,1000,0,0,0
1691756161022196,1500,1499,1266,1499,1000,0,0,0
1691756161025872,1500,1500,1258,1499,1000,0,0,0
1691756161028761,1500,1496,1265,1499,1000,0,0,0
1691756161036516,1501,1501,1263,1499,1000,0,0,0
1691756161037145,1499,1501,1263,1499,1000,0,0,0
1691756161039267,1499,1503,1253,1499,1000,0,0,0
1691756161043207,1506,1528,1249,1500,1000,0,0,0
1691756161046807,1499,1499,1265,1499,1000,0,0,0
1691756161050819,1499,1492,1265,1499,1000,0,0,0
1691756161056925,1499,1493,1260,1499,1000,0,0,0
1691756161057820,1504,1517,1251,1500,1000,0,0,0
1691756161061745,1498,1498,1265,1500,1000,0,0,0
1691756161065719,1498,1488,1261,1499,1000,0,0,0
1691756161068781,1499,1494,1259,1499,1000,0,0,0
1691756161072395,1500,1496,1261,1499,1000,0,0,0
1691756161076238,1500,1497,1258,1499,1000,0,0,0
1691756161079854,1500,1503,1252,1500,1000,0,0,0
1691756161083853,1500,1494,1262,1499,1000,0,0,0
1691756161087625,1500,1498,1263,1499,1000,0,0,0
1691756161090076,1499,1496,1259,1499,1000,0,0,0
1691756161094036,1505,1521,1247,1500,1000,0,0,0
1691756161097727,1500,1493,1263,1499,1000,0,0,0
1691756161101840,1499,1492,1262,1499,1000,0,0,0
1691756161105737,1497,1493,1260,1499,1000,0,0,0
1691756161108451,1498,1496,1255,1499,1000,0,0,0
1691756161113376,1498,1493,1261,1499,1000,0,0,0
1691756161116441,1501,1490,1259,1499,1000,0,0,0
1691756161121631,1500,1494,1262,1499,1000,0,0,0
1691756161123715,1498,1494,1262,1499,1000,0,0,0
1691756161127243,1502,1500,1252,1499,1000,0,0,0
1691756161130776,1499,1499,1263,1499,1000,0,0,0
1691756161134970,1500,1495,1259,1499,1000,0,0,0
1691756161137681,1501,1496,1259,1499,1000,0,0,0
1691756161143377,1501,1496,1259,1499,1000,0,0,0
1691756161145515,1501,1501,1252,1499,1000,0,0,0
1691756161148325,1497,1498,1259,1499,1000,0,0,0
1691756161154417,1500,1493,1260,1499,1000,0,0,0
1691756161155600,1502,1492,1258,1499,1000,0,0,0
1691756161159400,1500,1496,1256,1499,1000,0,0,0
1691756161163130,1501,1496,1255,1499,1000,0,0,0
1691756161166871,1507,1517,1247,1500,1000,0,0,0
1691756161170924,1499,1491,1263,1499,1000,0,0,0
1691756161174927,1497,1494,1260,1499,1000,0,0,0
1691756161177496,1499,1492,1260,1499,1000,0,0,0
1691756161189647,1502,1491,1255,1499,1000,0,0,0
1691756161189931,1505,1517,1250,1500,1000,0,0,0
1691756161190200,1498,1492,1264,1499,1000,0,0,0
1691756161192812,1499,1489,1262,1499,1000,0,0,0
1691756161200466,1500,1492,1261,1499,1000,0,0,0
1691756161200767,1499,1496,1258,1499,1000,0,0,0
1691756161204006,1504,1521,1245,1500,1000,0,0,0
1691756161206681,1498,1493,1261,1499,1000,0,0,0
1691756161212265,1498,1493,1260,1499,1000,0,0,0
1691756161217523,1497,1493,1260,1499,1000,0,0,0
1691756161217748,1499,1496,1250,1499,1000,0,0,0
1691756161221492,1500,1501,1251,1499,1000,0,0,0
1691756161225308,1505,1514,1250,1499,1000,0,0,0
1691756161228977,1496,1497,1262,1499,1000,0,0,0
1691756161232885,1497,1489,1261,1499,1000,0,0,0
1691756161235974,1499,1493,1261,1499,1000,0,0,0
1691756161240000,1500,1496,1260,1499,1000,0,0,0
1691756161244259,1499,1496,1257,1499,1000,0,0,0
1691756161246700,1505,1519,1248,1500,1000,0,0,0
1691756161250362,1499,1520,1260,1500,1000,0,0,0
1691756161254082,1497,1493,1261,1499,1000,0,0,0
1691756161257878,1498,1492,1260,1499,1000,0,0,0
1691756161261645,1498,1496,1260,1499,1000,0,0,0
1691756161264769,1499,1498,1257,1499,1000,0,0,0
1691756161268930,1498,1498,1255,1499,1000,0,0,0
1691756161272977,1499,1502,1255,1499,1000,0,0,0
1691756161276245,1506,1519,1252,1500,1000,0,0,0
1691756161280394,1499,1495,1264,1499,1000,0,0,0
1691756161282988,1498,1495,1261,1499,1000,0,0,0
1691756161286991,1499,1499,1262,1499,1000,0,0,0
1691756161291043,1499,1499,1256,1499,1000,0,0,0
1691756161293994,1499,1501,1255,1499,1000,0,0,0
1691756161305507,1499,1505,1259,1499,1000,0,0,0
1691756161305715,1498,1505,1259,1499,1000,0,0,0
1691756161308333,1503,1524,1254,1500,1000,0,0,0
1691756161314779,1497,1496,1267,1499,1000,0,0,0
1691756161315655,1497,1498,1266,1499,1000,0,0,0
1691756161328676,1499,1499,1265,1499,1000,0,0,0
1691756161329053,1499,1500,1263,1499,1000,0,0,0
1691756161329318,1500,1501,1255,1499,1000,0,0,0
1691756161331527,1500,1504,1257,1499,1000,0,0,0
1691756161334938,1503,1521,1259,1500,1000,0,0,0
1691756161338401,1497,1497,1271,1499,1000,0,0,0
1691756161341236,1496,1497,1268,1499,1000,0,0,0
1691756161347850,1497,1500,1270,1499,1000,0,0,0
1691756161349236,1498,1502,1264,1499,1000,0,0,0
1691756161353089,1505,1517,1259,1500,1000,0,0,0
1691756161355709,1503,1517,1258,1500,1000,0,0,0
1691756161359982,1496,1491,1272,1499,1000,0,0,0
1691756161363077,1496,1493,1268,1499,1000,0,0,0
1691756161367495,1497,1496,1265,1499,1000,0,0,0
1691756161371123,1496,1497,1265,1499,1000,0,0,0
1691756161375860,1503,1516,1258,1500,1000,0,0,0
1691756161377602,1505,1517,1261,1500,1000,0,0,0
1691756161381338,1495,1495,1266,1499,1000,0,0,0
1691756161385148,1494,1492,1265,1499,1000,0,0,0
1691756161389136,1497,1490,1265,1499,1000,0,0,0
1691756161393322,1500,1498,1261,1499,1000,0,0,0
1691756161395725,1496,1491,1273,1499,1000,0,0,0
1691756161399395,1495,1496,1267,1499,1000,0,0,0
1691756161403373,1497,1500,1265,1499,1000,0,0,0
1691756161407158,1497,1500,1262,1499,1000,0,0,0
1691756161411363,1503,1523,1254,1500,1000,0,0,0
1691756161413998,1498,1497,1267,1499,1000,0,0,0
1691756161417623,1498,1494,1266,1499,1000,0,0,0
1691756161421953,1497,1498,1262,1499,1000,0,0,0
1691756161424841,1502,1513,1260,1500,1000,0,0,0
1691756161428747,1504,1512,1259,1500,1000,0,0,0
1691756161432307,1502,1510,1259,1500,1000,0,0,0
1691756161435776,1493,1486,1268,1499,1000,0,0,0
1691756161439401,1493,1487,1265,1499,1000,0,0,0
1691756161444223,1497,1490,1264,1499,1000,0,0,0
1691756161447168,1495,1494,1264,1499,1000,0,0,0
1691756161452076,1496,1498,1262,1499,1000,0,0,0
1691756161453958,1497,1498,1269,1499,1000,0,0,0
1691756161458101,1499,1494,1260,1499,1000,0,0,0
1691756161462218,1497,1496,1263,1499,1000,0,0,0
1691756161464766,1500,1502,1258,1499,1000,0,0,0
1691756161468730,1500,1491,1264,1499,1000,0,0,0
1691756161472461,1498,1494,1263,1499,1000,0,0,0
1691756161475927,1497,1495,1262,1499,1000,0,0,0
1691756161480136,1497,1496,1257,1499,1000,0,0,0
1691756161487115,1505,1517,1253,1500,1000,0,0,0
1691756161488222,1497,1491,1266,1499,1000,0,0,0
1691756161491296,1496,1492,1260,1499,1000,0,0,0
1691756161495044,1497,1496,1261,1499,1000,0,0,0
1691756161500656,1498,1496,1263,1499,1000,0,0,0
1691756161501474,1505,1513,1257,1499,1000,0,0,0
1691756161504777,1498,1488,1268,1499,1000,0,0,0
1691756161508423,1496,1492,1263,1499,1000,0,0,0
1691756161512261,1497,1493,1262,1499,1000,0,0,0
1691756161515750,1498,1495,1259,1499,1000,0,0,0
1691756161519286,1499,1497,1256,1499,1000,0,0,0
1691756161523149,1503,1514,1256,1499,1000,0,0,0
1691756161527163,1504,1515,1255,1499,1000,0,0,0
1691756161531560,1497,1486,1265,1499,1000,0,0,0
1691756161534343,1495,1487,1262,1499,1000,0,0,0
1691756161537601,1497,1488,1259,1499,1000,0,0,0
1691756161541171,1497,1494,1259,1499,1000,0,0,0
1691756161545656,1498,1497,1258,1499,1000,0,0,0
1691756161549300,1502,1514,1256,1499,1000,0,0,0
1691756161553080,1503,1516,1257,1500,1000,0,0,0
1691756161555670,1497,1485,1266,1499,1000,0,0,0
1691756161560110,1496,1489,1263,1499,1000,0,0,0
1691756161563292,1499,1491,1262,1499,1000,0,0,0
1691756161567844,1499,1495,1259,1499,1000,0,0,0
1691756161573017,1505,1514,1253,1500,1000,0,0,0
1691756161573897,1498,1497,1268,1499,1000,0,0,0
1691756161577638,1498,1488,1265,1499,1000,0,0,0
1691756161581245,1497,1489,1262,1499,1000,0,0,0
1691756161585359,1498,1492,1258,1499,1000,0,0,0
1691756161589217,1506,1512,1255,1500,1000,0,0,0
1691756161592222,1498,1487,1264,1499,1000,0,0,0
1691756161596704,1496,1491,1258,1499,1000,0,0,0
1691756161604155,1497,1498,1261,1499,1000,0,0,0
1691756161604361,1500,1498,1261,1499,1000,0,0,0
1691756161607895,1506,1517,1255,1500,1000,0,0,0
1691756161610966,1504,1517,1257,1500,1000,0,0,0
1691756161614325,1498,1486,1269,1499,1000,0,0,0
1691756161618850,1498,1486,1264,1499,1000,0,0,0
1691756161622186,1499,1491,1262,1499,1000,0,0,0
1691756161625012,1499,1494,1260,1499,1000,0,0,0
1691756161628792,1499,1496,1260,1499,1000,0,0,0
1691756161633140,1505,1515,1253,1500,1000,0,0,0
1691756161636752,1505,1516,1250,1500,1000,0,0,0
1691756161640709,1497,1493,1263,1499,1000,0,0,0
1691756161643032,1498,1489,1261,1499,1000,0,0,0
1691756161646693,1499,1492,1258,1499,1000,0,0,0
1691756161650499,1504,1513,1256,1500,1000,0,0,0
1691756161654556,1505,1514,1256,1500,1000,0,0,0
1691756161658422,1501,1508,1265,1500,1000,0,0,0
1691756161662275,1497,1482,1265,1499,1000,0,0,0
1691756161666821,1497,1485,1259,1499,1000,0,0,0
1691756161668721,1499,1492,1263,1499,1000,0,0,0
1691756161672430,1499,1495,1261,1499,1000,0,0,0
1691756161676854,1499,1498,1257,1499,1000,0,0,0
1691756161680357,1506,1517,1255,1500,1000,0,0,0
1691756161682892,1500,1492,1267,1499,1000,0,0,0
1691756161687160,1499,1495,1259,1499,1000,0,0,0
1691756161690251,1499,1497,1257,1499,1000,0,0,0
1691756161694460,1508,1517,1250,1500,1000,0,0,0
1691756161698371,1500,1489,1264,1499,1000,0,0,0
1691756161702788,1499,1491,1260,1499,1000,0,0,0
1691756161705262,1499,1496,1262,1499,1000,0,0,0
1691756161708980,1501,1496,1261,1499,1000,0,0,0
1691756161717184,1500,1500,1259,1500,1000,0,0,0
1691756161717708,1499,1501,1258,1500,1000,0,0,0
1691756161720422,1501,1501,1257,1500,1000,0,0,0
1691756161723014,1508,1520,1255,1500,1000,0,0,0
1691756161726818,1499,1497,1268,1500,1000,0,0,0
1691756161730432,1498,1496,1263,1499,1000,0,0,0
1691756161734785,1499,1496,1261,1499,1000,0,0,0
1691756161738788,1499,1500,1259,1500,1000,0,0,0
1691756161741050,1501,1498,1256,1499,1000,0,0,0
1691756161744833,1507,1515,1255,1500,1000,0,0,0
1691756161748668,1506,1516,1259,1500,1000,0,0,0
1691756161752720,1497,1491,1269,1500,1000,0,0,0
1691756161757739,1497,1491,1262,1500,1000,0,0,0
1691756161762345,1499,1495,1262,1500,1000,0,0,0
1691756161762922,1505,1514,1260,1500,1000,0,0,0
1691756161766658,1505,1516,1257,1500,1000,0,0,0
1691756161770736,1504,1515,1258,1500,1000,0,0,0
1691756161774782,1497,1486,1266,1500,1000,0,0,0
1691756161779135,1497,1489,1264,1500,1000,0,0,0
1691756161781233,1497,1494,1264,1500,1000,0,0,0
1691756161785844,1500,1495,1266,1500,1000,0,0,0
1691756161789167,1500,1497,1263,1500,1000,0,0,0
1691756161792760,1499,1500,1260,1500,1000,0,0,0
1691756161797986,1498,1500,1263,1500,1000,0,0,0
1691756161800324,1499,1499,1261,1500,1000,0,0,0
1691756161804200,1500,1500,1262,1500,1000,0,0,0
1691756161806688,1501,1504,1257,1500,1000,0,0,0
1691756161810494,1510,1521,1250,1500,1000,0,0,0
1691756161815239,1499,1496,1265,1500,1000,0,0,0
1691756161818785,1497,1496,1268,1500,1000,0,0,0
1691756161822695,1498,1497,1266,1500,1000,0,0,0
1691756161824710,1499,1498,1263,1500,1000,0,0,0
1691756161829174,1499,1500,1264,1500,1000,0,0,0
1691756161832548,1498,1499,1265,1500,1000,0,0,0
1691756161836749,1501,1497,1261,1500,1000,0,0,0
1691756161841050,1507,1517,1256,1500,1000,0,0,0
1691756161842941,1498,1493,1265,1500,1000,0,0,0
1691756161847837,1498,1495,1265,1500,1000,0,0,0
1691756161850703,1499,1497,1261,1500,1000,0,0,0
1691756161854740,1500,1501,1257,1500,1000,0,0,0
1691756161859442,1497,1490,1265,1499,1000,0,0,0
1691756161861161,1499,1497,1259,1500,1000,0,0,0
1691756161864819,1500,1502,1262,1500,1000,0,0,0
1691756161868763,1499,1502,1266,1500,1000,0,0,0
1691756161872785,1504,1520,1257,1500,1000,0,0,0
1691756161876918,1507,1517,1256,1500,1000,0,0,0
1691756161879427,1496,1491,1269,1499,1000,0,0,0
1691756161883501,1495,1491,1266,1499,1000,0,0,0
1691756161888084,1497,1495,1264,1499,1000,0,0,0
1691756161891898,1497,1497,1264,1499,1000,0,0,0
1691756161894350,1502,1513,1259,1500,1000,0,0,0
1691756161898268,1502,1513,1258,1500,1000,0,0,0
1691756161901587,1503,1512,1255,1500,1000,0,0,0
1691756161906048,1496,1486,1264,1499,1000,0,0,0
1691756161908865,1495,1488,1266,1499,1000,0,0,0
1691756161912104,1497,1488,1259,1499,1000,0,0,0
1691756161918856,1499,1494,1260,1499,1000,0,0,0
1691756161919508,1503,1513,1260,1500,1000,0,0,0
1691756161928714,1502,1516,1259,1500,1000,0,0,0
1691756161929110,1493,1486,1266,1499,1000,0,0,0
1691756161932833,1495,1490,1264,1499,1000,0,0,0
1691756161934299,1496,1497,1265,1499,1000,0,0,0
1691756161940986,1497,1499,1262,1499,1000,0,0,0
1691756161941888,1506,1516,1255,1500,1000,0,0,0
1691756161949639,1496,1492,1271,1499,1000,0,0,0
1691756161950088,1496,1491,1265,1499,1000,0,0,0
1691756161951975,1496,1497,1267,1499,1000,0,0,0
1691756161957115,1499,1496,1266,1499,1000,0,0,0
1691756161959586,1499,1495,1262,1499,1000,0,0,0
1691756161963636,1498,1498,1255,1499,1000,0,0,0
1691756161967793,1504,1515,1256,1500,1000,0,0,0
1691756161970332,1501,1514,1266,1500,1000,0,0,0
1691756161973979,1496,1491,1265,1499,1000,0,0,0
1691756161977969,1496,1492,1266,1499,1000,0,0,0
1691756161981631,1501,1509,1264,1500,1000,0,0,0
1691756161985830,1503,1510,1262,1500,1000,0,0,0
1691756161988410,1502,1511,1259,1500,1000,0,0,0
1691756161992418,1494,1480,1267,1499,1000,0,0,0
1691756161998803,1495,1486,1269,1499,1000,0,0,0
1691756162000739,1496,1492,1266,1499,1000,0,0,0
1691756162003177,1496,1494,1263,1499,1000,0,0,0
1691756162006670,1498,1497,1261,1499,1000,0,0,0
1691756162010741,1504,1515,1255,1500,1000,0,0,0
1691756162015106,1496,1488,1263,1499,1000,0,0,0
1691756162018759,1496,1493,1263,1499,1000,0,0,0
1691756162021253,1498,1494,1262,1499,1000,0,0,0
1691756162024923,1506,1512,1257,1500,1000,0,0,0
1691756162028780,1504,1516,1259,1500,1000,0,0,0
1691756162032913,1495,1494,1270,1499,1000,0,0,0
1691756162036822,1495,1487,1267,1499,1000,0,0,0
1691756162041446,1495,1493,1264,1499,1000,0,0,0
1691756162044018,1495,1495,1261,1499,1000,0,0,0
1691756162047764,1498,1496,1263,1499,1000,0,0,0
1691756162050546,1499,1497,1262,1499,1000,0,0,0
1691756162054164,1505,1517,1256,1499,1000,0,0,0
1691756162057855,1497,1493,1270,1499,1000,0,0,0
1691756162062480,1498,1491,1267,1499,1000,0,0,0
1691756162068639,1498,1494,1265,1499,1000,0,0,0
1691756162069646,1501,1513,1259,1499,1000,0,0,0
1691756162072713,1506,1515,1253,1499,1000,0,0,0
1691756162075854,1496,1487,1263,1499,1000,0,0,0
1691756162083997,1495,1491,1262,1499,1000,0,0,0
1691756162084232,1496,1494,1265,1499,1000,0,0,0
1691756162089023,1503,1510,1261,1499,1000,0,0,0
1691756162090549,1504,1509,1258,1499,1000,0,0,0
1691756162094058,1503,1510,1255,1499,1000,0,0,0
1691756162097766,1496,1487,1266,1499,1000,0,0,0
1691756162103311,1496,1487,1265,1499,1000,0,0,0
1691756162105597,1495,1493,1265,1499,1000,0,0,0
1691756162108418,1502,1512,1258,1499,1000,0,0,0
1691756162113909,1506,1508,1254,1499,1000,0,0,0
1691756162116585,1496,1483,1262,1499,1000,0,0,0
1691756162119869,1495,1489,1260,1499,1000,0,0,0
1691756162126750,1497,1490,1260,1499,1000,0,0,0
1691756162127800,1500,1494,1258,1499,1000,0,0,0
1691756162132733,1505,1516,1258,1499,1000,0,0,0
1691756162134691,1499,1519,1263,1499,1000,0,0,0
1691756162137639,1497,1491,1262,1499,1000,0,0,0
1691756162141661,1503,1507,1260,1499,1000,0,0,0
1691756162145167,1498,1493,1260,1499,1000,0,0,0
1691756162150977,1504,1508,1256,1499,1000,0,0,0
1691756162152931,1508,1512,1255,1500,1000,0,0,0
1691756162155638,1497,1487,1265,1499,1000,0,0,0
1691756162159525,1498,1484,1211,1499,1000,0,0,0
1691756162162953,1500,1489,1202,1499,1000,0,0,0
1691756162166705,1502,1492,1197,1499,1000,0,0,0
1691756162170724,1501,1497,1195,1499,1000,0,0,0
1691756162174740,1507,1522,1196,1500,1000,0,0,0
1691756162177522,1512,1523,1193,1500,1000,0,0,0
1691756162181078,1500,1498,1200,1499,1000,0,0,0
1691756162185099,1499,1485,1198,1499,1000,0,0,0
1691756162189803,1502,1484,1197,1499,1000,0,0,0
1691756162193138,1503,1501,1202,1499,1000,0,0,0
1691756162196947,1505,1506,1201,1499,1000,0,0,0
1691756162199124,1503,1504,1203,1499,1000,0,0,0
1691756162203036,1516,1530,1195,1500,1000,0,0,0
1691756162207662,1510,1520,1209,1500,1000,0,0,0
1691756162210893,1507,1517,1212,1500,1000,0,0,0
1691756162217464,1502,1497,1212,1499,1000,0,0,0
1691756162218834,1505,1508,1215,1500,1000,0,0,0
1691756162224537,1502,1519,1216,1500,1000,0,0,0
1691756162224829,1505,1511,1217,1500,1000,0,0,0
1691756162228929,1499,1489,1220,1499,1000,0,0,0
1691756162234078,1505,1506,1220,1500,1000,0,0,0
1691756162237267,1502,1495,1222,1499,1000,0,0,0
1691756162239800,1500,1496,1225,1499,1000,0,0,0
1691756162243891,1503,1509,1227,1500,1000,0,0,0
1691756162246879,1500,1500,1231,1500,1000,0,0,0
1691756162250501,1500,1499,1232,1499,1000,0,0,0
1691756162253873,1502,1509,1233,1500,1000,0,0,0
1691756162260741,1500,1500,1237,1499,1000,0,0,0
1691756162262302,1500,1499,1238,1499,1000,0,0,0
1691756162264911,1499,1498,1240,1499,1000,0,0,0
1691756162270584,1499,1501,1242,1499,1000,0,0,0
1691756162273693,1504,1514,1237,1500,1000,0,0,0
1691756162276760,1502,1512,1241,1500,1000,0,0,0
1691756162279346,1501,1509,1243,1500,1000,0,0,0
1691756162282965,1500,1507,1245,1500,1000,0,0,0
1691756162288371,1499,1506,1246,1500,1000,0,0,0
1691756162293115,1499,1505,1247,1500,1000,0,0,0
1691756162296236,1499,1504,1248,1500,1000,0,0,0
1691756162297526,1498,1503,1249,1500,1000,0,0,0
1691756162301536,1498,1503,1250,1500,1000,0,0,0
1691756162305011,1498,1503,1250,1500,1000,0,0,0
1691756162308855,1498,1503,1251,1500,1000,0,0,0
1691756162313085,1498,1503,1251,1500,1000,0,0,0
1691756162316750,1496,1495,1254,1500,1000,0,0,0
1691756162319416,1496,1496,1254,1500,1000,0,0,0
1691756162322867,1496,1497,1254,1500,1000,0,0,0
1691756162327007,1496,1497,1254,1500,1000,0,0,0
1691756162332874,1496,1498,1255,1500,1000,0,0,0
1691756162333949,1497,1499,1256,1500,1000,0,0,0
1691756162337878,1500,1507,1257,1500,1000,0,0,0
1691756162341809,1496,1498,1258,1500,1000,0,0,0
1691756162345781,1496,1499,1259,1500,1000,0,0,0
1691756162348954,1496,1499,1259,1500,1000,0,0,0
1691756162352727,1496,1501,1260,1500,1000,0,0,0
1691756162356229,1499,1510,1263,1500,1000,0,0,0
1691756162361850,1497,1503,1260,1500,1000,0,0,0
1691756162363768,1499,1510,1261,1500,1000,0,0,0
1691756162369247,1498,1513,1264,1500,1000,0,0,0
1691756162370251,1496,1499,1262,1500,1000,0,0,0
1691756162373852,1498,1503,1261,1500,1000,0,0,0
1691756162377982,1498,1505,1261,1500,1000,0,0,0
1691756162382096,1498,1504,1262,1500,1000,0,0,0
1691756162385800,1498,1502,1261,1500,1000,0,0,0
1691756162388379,1498,1502,1259,1500,1000,0,0,0
1691756162392233,1495,1493,1260,1500,1000,0,0,0
1691756162396353,1496,1493,1260,1500,1000,0,0,0
1691756162401471,1496,1494,1261,1500,1000,0,0,0
1691756162404748,1498,1502,1261,1500,1000,0,0,0
1691756162406886,1499,1504,1260,1500,1000,0,0,0
1691756162411624,1496,1494,1261,1500,1000,0,0,0
1691756162414738,1496,1495,1260,1500,1000,0,0,0
1691756162417804,1496,1495,1260,1500,1000,0,0,0
1691756162421191,1499,1502,1260,1500,1000,0,0,0
1691756162425016,1497,1492,1262,1500,1000,0,0,0
1691756162429244,1496,1494,1260,1500,1000,0,0,0
1691756162433423,1496,1496,1259,1500,1000,0,0,0
1691756162435789,1497,1496,1259,1500,1000,0,0,0
1691756162439435,1499,1504,1259,1500,1000,0,0,0
1691756162443028,1496,1494,1259,1500,1000,0,0,0
1691756162447012,1497,1495,1259,1500,1000,0,0,0
1691756162452734,1499,1503,1260,1500,1000,0,0,0
1691756162453790,1499,1504,1259,1500,1000,0,0,0
1691756162462319,1499,1503,1258,1500,1000,0,0,0
1691756162462659,1498,1492,1258,1499,1000,0,0,0
1691756162470316,1497,1493,1258,1500,1000,0,0,0
1691756162470650,1499,1500,1259,1500,1000,0,0,0
1691756162475994,1499,1501,1258,1500,1000,0,0,0
1691756162479267,1500,1501,1257,1500,1000,0,0,0
1691756162479473,1497,1493,1258,1499,1000,0,0,0
1691756162482888,1497,1494,1257,1499,1000,0,0,0
1691756162487163,1498,1495,1257,1499,1000,0,0,0
1691756162491606,1499,1499,1258,1500,1000,0,0,0
1691756162493895,1500,1502,1257,1500,1000,0,0,0
1691756162498773,1499,1503,1258,1500,1000,0,0,0
1691756162505018,1498,1495,1257,1500,1000,0,0,0
1691756162505240,1498,1494,1256,1500,1000,0,0,0
1691756162509142,1498,1494,1256,1499,1000,0,0,0
1691756162512151,1500,1499,1256,1500,1000,0,0,0
1691756162516077,1500,1502,1257,1500,1000,0,0,0
1691756162520322,1499,1495,1256,1500,1000,0,0,0
1691756162523991,1498,1494,1255,1499,1000,0,0,0
1691756162526804,1499,1494,1256,1499,1000,0,0,0
1691756162530377,1499,1494,1255,1499,1000,0,0,0
1691756162534514,1501,1501,1256,1500,1000,0,0,0
1691756162538142,1499,1497,1256,1499,1000,0,0,0
1691756162543444,1499,1495,1256,1499,1000,0,0,0
1691756162544695,1502,1500,1257,1500,1000,0,0,0
1691756162549107,1500,1496,1255,1499,1000,0,0,0
1691756162552752,1502,1499,1255,1500,1000,0,0,0
1691756162556424,1503,1500,1255,1500,1000,0,0,0
1691756162560178,1501,1494,1256,1499,1000,0,0,0
1691756162562999,1501,1498,1256,1500,1000,0,0,0
1691756162567213,1501,1499,1256,1500,1000,0,0,0
1691756162571710,1502,1500,1256,1500,1000,0,0,0
1691756162573753,1502,1500,1255,1500,1000,0,0,0
1691756162578329,1500,1492,1256,1499,1000,0,0,0
1691756162582065,1500,1494,1256,1500,1000,0,0,0
1691756162584799,1502,1499,1256,1500,1000,0,0,0
1691756162588653,1502,1501,1256,1500,1000,0,0,0
1691756162594798,1502,1500,1256,1500,1000,0,0,0
1691756162596083,1503,1500,1255,1500,1000,0,0,0
1691756162600455,1501,1493,1256,1499,1000,0,0,0
1691756162603063,1500,1494,1255,1499,1000,0,0,0
1691756162606728,1500,1494,1255,1499,1000,0,0,0
1691756162610164,1502,1499,1256,1500,1000,0,0,0
1691756162613862,1503,1501,1255,1500,1000,0,0,0
1691756162617550,1503,1501,1255,1500,1000,0,0,0
1691756162621217,1501,1494,1255,1500,1000,0,0,0
1691756162625166,1500,1495,1255,1500,1000,0,0,0
1691756162629186,1500,1496,1255,1500,1000,0,0,0
1691756162631891,1502,1500,1256,1500,1000,0,0,0
1691756162636006,1504,1503,1255,1500,1000,0,0,0
1691756162641913,1501,1495,1256,1500,1000,0,0,0
1691756162644004,1500,1495,1255,1500,1000,0,0,0
1691756162646950,1500,1496,1255,1500,1000,0,0,0
1691756162653948,1501,1497,1255,1500,1000,0,0,0
1691756162654145,1503,1501,1255,1500,1000,0,0,0
1691756162657665,1504,1504,1255,1500,1000,0,0,0
1691756162661146,1502,1496,1256,1500,1000,0,0,0
1691756162665211,1503,1500,1256,1500,1000,0,0,0
1691756162669262,1501,1497,1255,1500,1000,0,0,0
1691756162672858,1500,1496,1255,1500,1000,0,0,0
1691756162676415,1503,1501,1255,1500,1000,0,0,0
1691756162679388,1504,1503,1255,1500,1000,0,0,0
1691756162683296,1501,1497,1256,1500,1000,0,0,0
1691756162687231,1502,1502,1256,1500,1000,0,0,0
1691756162690258,1502,1503,1257,1500,1000,0,0,0
1691756162694381,1502,1503,1257,1500,1000,0,0,0
1691756162698328,1502,1503,1256,1500,1000,0,0,0
1691756162701366,1500,1495,1257,1500,1000,0,0,0
1691756162708007,1500,1496,1256,1500,1000,0,0,0
1691756162709300,1501,1501,1256,1500,1000,0,0,0
1691756162712824,1502,1502,1256,1500,1000,0,0,0
1691756162715787,1502,1503,1256,1500,1000,0,0,0
1691756162719320,1502,1502,1255,1500,1000,0,0,0
1691756162722881,1500,1495,1256,1500,1000,0,0,0
1691756162726935,1500,1496,1256,1500,1000,0,0,0
1691756162730536,1500,1496,1256,1500,1000,0,0,0
1691756162734502,1502,1501,1257,1500,1000,0,0,0
1691756162738424,1502,1504,1256,1500,1000,0,0,0
1691756162741183,1500,1497,1257,1500,1000,0,0,0
1691756162744802,1500,1497,1256,1500,1000,0,0,0
1691756162748312,1499,1498,1256,1500,1000,0,0,0
1691756162752766,1499,1498,1256,1500,1000,0,0,0
1691756162759722,1503,1504,1256,1500,1000,0,0,0
1691756162760762,1500,1497,1257,1500,1000,0,0,0
1691756162763058,1499,1498,1256,1500,1000,0,0,0
1691756162766607,1499,1499,1256,1500,1000,0,0,0
1691756162770424,1499,1499,1256,1500,1000,0,0,0
1691756162774413,1503,1506,1255,1500,1000,0,0,0
1691756162778412,1499,1499,1256,1500,1000,0,0,0
1691756162781109,1499,1498,1256,1500,1000,0,0,0
1691756162785909,1502,1504,1257,1500,1000,0,0,0
1691756162789467,1500,1500,1256,1500,1000,0,0,0
1691756162793505,1499,1500,1256,1500,1000,0,0,0
1691756162795881,1503,1505,1256,1500,1000,0,0,0
1691756162799293,1502,1508,1257,1500,1000,0,0,0
1691756162803613,1499,1501,1256,1500,1000,0,0,0
1691756162807867,1498,1499,1256,1500,1000,0,0,0
1691756162814750,1499,1499,1256,1500,1000,0,0,0
1691756162814932,1501,1505,1256,1500,1000,0,0,0
1691756162820186,1502,1507,1255,1500,1000,0,0,0
1691756162821703,1499,1499,1256,1500,1000,0,0,0
1691756162825499,1498,1499,1256,1500,1000,0,0,0
1691756162830277,1498,1499,1255,1500,1000,0,0,0
1691756162831918,1500,1505,1257,1500,1000,0,0,0
1691756162836268,1502,1506,1256,1500,1000,0,0,0
1691756162839427,1499,1501,1256,1500,1000,0,0,0
1691756162843447,1498,1499,1256,1500,1000,0,0,0
1691756162847364,1498,1499,1256,1500,1000,0,0,0
1691756162851879,1498,1498,1256,1500,1000,0,0,0
1691756162854495,1501,1503,1256,1500,1000,0,0,0
1691756162857530,1500,1508,1258,1500,1000,0,0,0
1691756162861702,1498,1500,1257,1500,1000,0,0,0
1691756162865388,1498,1499,1256,1500,1000,0,0,0
1691756162869463,1497,1499,1256,1500,1000,0,0,0
1691756162872113,1500,1504,1256,1500,1000,0,0,0
1691756162877213,1502,1506,1255,1500,1000,0,0,0
1691756162881419,1498,1499,1256,1500,1000,0,0,0
1691756162883437,1499,1504,1257,1500,1000,0,0,0
1691756162887444,1497,1500,1256,1500,1000,0,0,0
1691756162891321,1497,1499,1256,1500,1000,0,0,0
1691756162893559,1500,1505,1256,1500,1000,0,0,0
1691756162898349,1498,1498,1256,1500,1000,0,0,0
1691756162901452,1497,1499,1256,1500,1000,0,0,0
1691756162905556,1498,1499,1257,1500,1000,0,0,0
1691756162908764,1497,1499,1257,1500,1000,0,0,0
1691756162912880,1500,1504,1257,1500,1000,0,0,0
1691756162916768,1501,1506,1256,1500,1000,0,0,0
1691756162921331,1498,1499,1256,1500,1000,0,0,0
1691756162922942,1497,1498,1256,1500,1000,0,0,0
1691756162927003,1497,1498,1256,1500,1000,0,0,0
1691756162930737,1499,1504,1256,1500,1000,0,0,0
1691756162934787,1500,1506,1256,1500,1000,0,0,0
1691756162938772,1497,1499,1256,1500,1000,0,0,0
1691756162941173,1496,1498,1256,1500,1000,0,0,0
1691756162944994,1497,1498,1256,1500,1000,0,0,0
1691756162949783,1496,1498,1256,1500,1000,0,0,0
1691756162955437,1499,1504,1257,1500,1000,0,0,0
1691756162956937,1499,1508,1258,1500,1000,0,0,0
1691756162962547,1497,1499,1257,1500,1000,0,0,0
1691756162963732,1497,1498,1257,1500,1000,0,0,0
1691756162967477,1497,1497,1256,1500,1000,0,0,0
1691756162970522,1497,1498,1256,1500,1000,0,0,0
1691756162975523,1500,1505,1256,1500,1000,0,0,0
1691756162977779,1497,1498,1256,1500,1000,0,0,0
1691756162981162,1497,1497,1256,1500,1000,0,0,0
1691756162984740,1497,1497,1257,1500,1000,0,0,0
1691756162988706,1499,1501,1257,1500,1000,0,0,0
1691756162993497,1500,1504,1256,1500,1000,0,0,0
1691756162996764,1497,1496,1257,1500,1000,0,0,0
1691756162999180,1497,1496,1257,1500,1000,0,0,0
1691756163003675,1497,1496,1257,1500,1000,0,0,0
1691756163007558,1497,1496,1257,1500,1000,0,0,0
1691756163013362,1499,1502,1258,1500,1000,0,0,0
1691756163014715,1497,1497,1258,1500,1000,0,0,0
1691756163018012,1497,1496,1257,1500,1000,0,0,0
1691756163021692,1497,1496,1257,1500,1000,0,0,0
1691756163025985,1497,1496,1256,1500,1000,0,0,0
1691756163029572,1500,1502,1256,1500,1000,0,0,0
1691756163032796,1497,1496,1257,1500,1000,0,0,0
1691756163036754,1499,1501,1258,1500,1000,0,0,0
1691756163039359,1500,1502,1258,1500,1000,0,0,0
1691756163043109,1498,1498,1257,1500,1000,0,0,0
1691756163047867,1497,1497,1256,1500,1000,0,0,0
1691756163050894,1500,1501,1256,1500,1000,0,0,0
1691756163055878,1498,1493,1258,1499,1000,0,0,0
1691756163058468,1497,1494,1258,1499,1000,0,0,0
1691756163062888,1499,1499,1258,1500,1000,0,0,0
1691756163064811,1498,1496,1258,1499,1000,0,0,0
1691756163068962,1498,1496,1257,1499,1000,0,0,0
1691756163073613,1500,1500,1257,1500,1000,0,0,0
1691756163076875,1498,1495,1258,1499,1000,0,0,0
1691756163079230,1498,1495,1257,1499,1000,0,0,0
1691756163083002,1499,1500,1258,1500,1000,0,0,0
1691756163087011,1500,1501,1258,1500,1000,0,0,0
1691756163090283,1499,1504,1259,1500,1000,0,0,0
1691756163094749,1498,1496,1258,1499,1000,0,0,0
1691756163097543,1498,1496,1257,1499,1000,0,0,0
1691756163101577,1498,1496,1257,1499,1000,0,0,0
1691756163105739,1500,1499,1257,1499,1000,0,0,0
1691756163108457,1500,1501,1257,1500,1000,0,0,0
1691756163113088,1498,1494,1258,1499,1000,0,0,0
1691756163116555,1499,1494,1257,1499,1000,0,0,0
1691756163120412,1499,1494,1257,1499,1000,0,0,0
1691756163123352,1499,1495,1257,1499,1000,0,0,0
1691756163126813,1501,1500,1257,1499,1000,0,0,0
1691756163130699,1499,1494,1257,1499,1000,0,0,0
1691756163134794,1500,1499,1257,1499,1000,0,0,0
1691756163138410,1499,1497,1256,1499,1000,0,0,0
1691756163141056,1500,1499,1256,1499,1000,0,0,0
1691756163146023,1502,1501,1256,1499,1000,0,0,0
1691756163148746,1499,1496,1257,1499,1000,0,0,0
1691756163152761,1500,1499,1257,1499,1000,0,0,0
1691756163156717,1500,1500,1257,1499,1000,0,0,0
1691756163160376,1499,1497,1256,1499,1000,0,0,0
1691756163163107,1501,1500,1256,1499,1000,0,0,0
1691756163166773,1501,1501,1256,1499,1000,0,0,0
1691756163171129,1500,1495,1256,1499,1000,0,0,0
1691756163174956,1501,1499,1257,1499,1000,0,0,0
1691756163178846,1501,1501,1257,1499,1000,0,0,0
1691756163181125,1501,1500,1256,1499,1000,0,0,0
1691756163185329,1502,1500,1255,1500,1000,0,0,0
1691756163188872,1500,1493,1256,1499,1000,0,0,0
1691756163192777,1499,1495,1256,1499,1000,0,0,0
1691756163196965,1501,1499,1256,1499,1000,0,0,0
1691756163199195,1501,1500,1256,1499,1000,0,0,0
1691756163203092,1501,1501,1255,1500,1000,0,0,0
1691756163206733,1500,1492,1256,1499,1000,0,0,0
1691756163210806,1500,1495,1256,1499,1000,0,0,0
1691756163217472,1500,1496,1256,1499,1000,0,0,0
1691756163217786,1501,1501,1256,1499,1000,0,0,0
1691756163221732,1502,1502,1256,1499,1000,0,0,0
1691756163225983,1503,1503,1255,1500,1000,0,0,0
1691756163228353,1501,1498,1256,1499,1000,0,0,0
1691756163232059,1500,1498,1256,1499,1000,0,0,0
1691756163235914,1500,1497,1255,1499,1000,0,0,0
1691756163239699,1502,1501,1255,1499,1000,0,0,0
1691756163244542,1503,1503,1255,1500,1000,0,0,0
1691756163247543,1500,1497,1256,1499,1000,0,0,0
1691756163250398,1500,1497,1255,1499,1000,0,0,0
1691756163254828,1500,1498,1255,1499,1000,0,0,0
1691756163258437,1500,1497,1255,1499,1000,0,0,0
1691756163261868,1502,1502,1255,1499,1000,0,0,0
1691756163265778,1504,1504,1254,1500,1000,0,0,0
1691756163268699,1501,1498,1255,1499,1000,0,0,0
1691756163272421,1500,1497,1255,1499,1000,0,0,0
1691756163275905,1500,1497,1255,1499,1000,0,0,0
1691756163279815,1500,1498,1255,1499,1000,0,0,0
1691756163284034,1504,1504,1254,1500,1000,0,0,0
1691756163287549,1501,1498,1256,1499,1000,0,0,0
1691756163290130,1500,1499,1255,1499,1000,0,0,0
1691756163295124,1502,1504,1255,1499,1000,0,0,0
1691756163300792,1500,1500,1255,1499,1000,0,0,0
1691756163302191,1503,1504,1254,1499,1000,0,0,0
1691756163305683,1505,1507,1253,1500,1000,0,0,0
1691756163311038,1501,1500,1255,1499,1000,0,0,0
1691756163312780,1500,1499,1255,1499,1000,0,0,0
1691756163318417,1499,1499,1255,1499,1000,0,0,0
1691756163319453,1500,1499,1255,1499,1000,0,0,0
1691756163322720,1503,1504,1254,1499,1000,0,0,0
1691756163329468,1504,1506,1253,1500,1000,0,0,0
1691756163332761,1501,1498,1255,1499,1000,0,0,0
1691756163334848,1500,1499,1255,1499,1000,0,0,0
1691756163337530,1500,1499,1255,1499,1000,0,0,0
1691756163342270,1502,1503,1255,1499,1000,0,0,0
1691756163345134,1503,1504,1254,1500,1000,0,0,0
1691756163348825,1502,1505,1255,1500,1000,0,0,0
1691756163355091,1500,1499,1255,1499,1000,0,0,0
1691756163356596,1501,1502,1255,1500,1000,0,0,0
1691756163359446,1501,1504,1255,1500,1000,0,0,0
1691756163363067,1501,1504,1255,1500,1000,0,0,0
1691756163366891,1502,1504,1254,1500,1000,0,0,0
1691756163370948,1501,1505,1255,1500,1000,0,0,0
1691756163375345,1499,1499,1255,1500,1000,0,0,0
1691756163378852,1499,1498,1255,1500,1000,0,0,0
1691756163381162,1501,1503,1256,1500,1000,0,0,0
1691756163385044,1501,1504,1255,1500,1000,0,0,0
1691756163389062,1502,1503,1255,1500,1000,0,0,0
1691756163393119,1499,1497,1255,1500,1000,0,0,0
1691756163395748,1499,1498,1255,1500,1000,0,0,0
1691756163400307,1499,1498,1255,1500,1000,0,0,0
1691756163403983,1500,1502,1255,1500,1000,0,0,0
1691756163407510,1501,1504,1255,1500,1000,0,0,0
1691756163410568,1499,1500,1255,1500,1000,0,0,0
1691756163413897,1499,1497,1255,1500,1000,0,0,0
1691756163419269,1498,1498,1255,1500,1000,0,0,0
1691756163423972,1498,1498,1255,1500,1000,0,0,0
1691756163425022,1499,1498,1255,1500,1000,0,0,0
1691756163429724,1503,1503,1255,1500,1000,0,0,0
1691756163433007,1499,1498,1256,1500,1000,0,0,0
1691756163435730,1501,1502,1256,1500,1000,0,0,0
1691756163439305,1501,1503,1256,1500,1000,0,0,0
1691756163443006,1499,1499,1256,1500,1000,0,0,0
1691756163452746,1501,1504,1255,1500,1000,0,0,0
1691756163452918,1501,1505,1256,1500,1000,0,0,0
1691756163454934,1499,1498,1256,1500,1000,0,0,0
1691756163457431,1499,1501,1256,1500,1000,0,0,0
1691756163467729,1500,1502,1256,1500,1000,0,0,0
1691756163467947,1498,1498,1256,1500,1000,0,0,0
1691756163468992,1500,1502,1255,1500,1000,0,0,0
1691756163473071,1498,1499,1255,1500,1000,0,0,0
1691756163475833,1498,1497,1256,1500,1000,0,0,0
1691756163479637,1500,1500,1256,1500,1000,0,0,0
1691756163483026,1500,1501,1256,1500,1000,0,0,0
1691756163487147,1500,1501,1256,1500,1000,0,0,0
1691756163491061,1501,1501,1255,1500,1000,0,0,0
1691756163494892,1498,1495,1256,1500,1000,0,0,0
1691756163497581,1498,1496,1256,1500,1000,0,0,0
1691756163501237,1499,1500,1256,1500,1000,0,0,0
1691756163505035,1500,1499,1256,1500,1000,0,0,0
1691756163509144,1500,1500,1256,1500,1000,0,0,0
1691756163513243,1500,1501,1255,1500,1000,0,0,0
1691756163515646,1498,1495,1256,1500,1000,0,0,0
1691756163519351,1498,1495,1256,1500,1000,0,0,0
1691756163523290,1497,1496,1256,1500,1000,0,0,0
1691756163527170,1499,1499,1256,1500,1000,0,0,0
1691756163531116,1500,1501,1256,1500,1000,0,0,0
1691756163535250,1498,1495,1256,1500,1000,0,0,0
1691756163537489,1497,1496,1256,1500,1000,0,0,0
1691756163541174,1497,1496,1256,1500,1000,0,0,0
1691756163545157,1498,1496,1256,1500,1000,0,0,0
1691756163548905,1500,1500,1256,1500,1000,0,0,0
1691756163553133,1498,1497,1256,1500,1000,0,0,0
1691756163555686,1498,1496,1256,1500,1000,0,0,0
1691756163559421,1498,1496,1256,1500,1000,0,0,0
1691756163564040,1497,1496,1256,1500,1000,0,0,0
1691756163567269,1500,1500,1256,1500,1000,0,0,0
1691756163574073,1502,1502,1255,1500,1000,0,0,0
1691756163578743,1498,1497,1256,1500,1000,0,0,0
1691756163581472,1500,1500,1256,1500,1000,0,0,0
1691756163585153,1498,1497,1256,1500,1000,0,0,0
1691756163588900,1500,1499,1255,1500,1000,0,0,0
1691756163593571,1501,1501,1255,1500,1000,0,0,0
1691756163596731,1499,1494,1256,1499,1000,0,0,0
1691756163599435,1498,1495,1256,1500,1000,0,0,0
1691756163603054,1498,1496,1256,1500,1000,0,0,0
1691756163607025,1498,1496,1256,1499,1000,0,0,0
1691756163612116,1500,1499,1255,1500,1000,0,0,0
1691756163614004,1502,1502,1255,1500,1000,0,0,0
1691756163617726,1499,1497,1256,1499,1000,0,0,0
1691756163621213,1498,1496,1256,1499,1000,0,0,0
1691756163627206,1499,1500,1256,1500,1000,0,0,0
1691756163629206,1500,1501,1256,1500,1000,0,0,0
1691756163635240,1500,1501,1255,1500,1000,0,0,0
1691756163635798,1499,1495,1256,1499,1000,0,0,0
1691756163639292,1498,1495,1256,1499,1000,0,0,0
1691756163643166,1498,1496,1256,1499,1000,0,0,0
1691756163647110,1499,1499,1256,1499,1000,0,0,0
1691756163651582,1500,1500,1256,1499,1000,0,0,0
1691756163653863,1501,1500,1255,1499,1000,0,0,0
1691756163657595,1499,1495,1256,1499,1000,0,0,0
1691756163661245,1498,1495,1256,1499,1000,0,0,0
1691756163665083,1498,1496,1256,1499,1000,0,0,0
1691756163669148,1499,1499,1256,1499,1000,0,0,0
1691756163672904,1500,1500,1256,1499,1000,0,0,0
1691756163675742,1498,1497,1256,1499,1000,0,0,0
1691756163681907,1498,1496,1256,1499,1000,0,0,0
1691756163684262,1498,1496,1256,1499,1000,0,0,0
1691756163687595,1498,1497,1256,1499,1000,0,0,0
1691756163691216,1500,1501,1256,1499,1000,0,0,0
1691756163694144,1501,1503,1256,1499,1000,0,0,0
1691756163698123,1499,1496,1257,1499,1000,0,0,0
1691756163701184,1498,1497,1256,1499,1000,0,0,0
1691756163705212,1499,1497,1256,1499,1000,0,0,0
1691756163709273,1499,1498,1256,1499,1000,0,0,0
1691756163716618,1501,1501,1256,1499,1000,0,0,0
1691756163716907,1502,1504,1255,1499,1000,0,0,0
1691756163720300,1500,1498,1256,1499,1000,0,0,0
1691756163722739,1499,1498,1256,1499,1000,0,0,0
1691756163728836,1499,1498,1256,1499,1000,0,0,0
1691756163730457,1499,1498,1256,1499,1000,0,0,0
1691756163734803,1501,1502,1255,1499,1000,0,0,0
1691756163738143,1502,1503,1255,1499,1000,0,0,0
1691756163741899,1500,1497,1256,1499,1000,0,0,0
1691756163744941,1499,1498,1256,1499,1000,0,0,0
1691756163748385,1499,1498,1256,1499,1000,0,0,0
1691756163752256,1499,1499,1256,1499,1000,0,0,0
1691756163756734,1502,1503,1256,1499,1000,0,0,0
1691756163760283,1503,1505,1255,1499,1000,0,0,0
1691756163762900,1500,1498,1256,1499,1000,0,0,0
1691756163767454,1499,1499,1256,1499,1000,0,0,0
1691756163770334,1499,1499,1256,1499,1000,0,0,0
1691756163774236,1499,1499,1256,1499,1000,0,0,0
1691756163778247,1499,1499,1255,1499,1000,0,0,0
1691756163782120,1504,1507,1255,1499,1000,0,0,0
1691756163785118,1500,1500,1256,1499,1000,0,0,0
1691756163788352,1501,1504,1256,1499,1000,0,0,0
1691756163792568,1502,1505,1256,1499,1000,0,0,0
1691756163796259,1500,1501,1256,1499,1000,0,0,0
1691756163800284,1503,1505,1255,1499,1000,0,0,0
1691756163802920,1503,1506,1254,1499,1000,0,0,0
1691756163807897,1500,1498,1256,1499,1000,0,0,0
1691756163810257,1500,1499,1256,1499,1000,0,0,0
1691756163813903,1500,1499,1256,1499,1000,0,0,0
1691756163817562,1499,1499,1256,1499,1000,0,0,0
1691756163821134,1500,1499,1256,1499,1000,0,0,0
1691756163824725,1503,1505,1256,1499,1000,0,0,0
1691756163828796,1500,1501,1256,1499,1000,0,0,0
1691756163832347,1500,1499,1256,1499,1000,0,0,0
1691756163837341,1502,1504,1257,1499,1000,0,0,0
1691756163840392,1500,1500,1256,1499,1000,0,0,0
1691756163843104,1500,1500,1256,1499,1000,0,0,0
1691756163847566,1503,1505,1256,1499,1000,0,0,0
1691756163851959,1504,1507,1256,1499,1000,0,0,0
1691756163855227,1500,1500,1257,1499,1000,0,0,0
1691756163858308,1501,1504,1257,1499,1000,0,0,0
1691756163863575,1500,1501,1257,1499,1000,0,0,0
1691756163864720,1499,1500,1256,1499,1000,0,0,0
1691756163868853,1502,1506,1256,1500,1000,0,0,0
1691756163872770,1500,1499,1257,1499,1000,0,0,0
1691756163878927,1499,1499,1257,1499,1000,0,0,0
1691756163879570,1502,1506,1258,1500,1000,0,0,0
1691756163883252,1501,1506,1258,1500,1000,0,0,0
1691756163887726,1502,1506,1258,1500,1000,0,0,0
1691756163891384,1503,1506,1257,1500,1000,0,0,0
1691756163894223,1500,1499,1257,1500,1000,0,0,0
1691756163897618,1500,1503,1258,1500,1000,0,0,0
1691756163901749,1501,1504,1258,1500,1000,0,0,0
1691756163905494,1499,1499,1257,1500,1000,0,0,0
1691756163909347,1501,1502,1257,1500,1000,0,0,0
1691756163912793,1499,1496,1258,1500,1000,0,0,0
1691756163915736,1499,1497,1257,1500,1000,0,0,0
1691756163919315,1500,1502,1258,1500,1000,0,0,0
1691756163923405,1500,1503,1257,1500,1000,0,0,0
1691756163927735,1501,1502,1257,1500,1000,0,0,0
1691756163930135,1499,1496,1257,1500,1000,0,0,0
1691756163934795,1498,1497,1256,1500,1000,0,0,0
1691756163938362,1498,1498,1256,1500,1000,0,0,0
1691756163941174,1500,1502,1257,1500,1000,0,0,0
1691756163945608,1502,1505,1256,1500,1000,0,0,0
1691756163948337,1499,1499,1256,1500,1000,0,0,0
1691756163953213,1498,1498,1256,1500,1000,0,0,0
1691756163956312,1498,1498,1256,1500,1000,0,0,0
1691756163959384,1500,1501,1256,1500,1000,0,0,0
1691756163963399,1502,1505,1256,1500,1000,0,0,0
1691756163967484,1499,1498,1256,1500,1000,0,0,0
1691756163970102,1498,1497,1256,1500,1000,0,0,0
1691756163973876,1498,1497,1256,1500,1000,0,0,0
1691756163980803,1498,1497,1256,1500,1000,0,0,0
1691756163981452,1501,1502,1256,1500,1000,0,0,0
1691756163985022,1502,1504,1255,1500,1000,0,0,0
1691756163988357,1498,1499,1256,1500,1000,0,0,0
1691756163993705,1498,1497,1256,1500,1000,0,0,0
1691756163996278,1498,1497,1256,1500,1000,0,0,0
1691756163999390,1498,1497,1256,1500,1000,0,0,0
1691756164003368,1501,1502,1255,1500,1000,0,0,0
1691756164007502,1499,1496,1256,1500,1000,0,0,0
1691756164010335,1498,1496,1256,1500,1000,0,0,0
1691756164015054,1498,1496,1256,1500,1000,0,0,0
1691756164017938,1497,1497,1256,1500,1000,0,0,0
1691756164021454,1501,1501,1255,1500,1000,0,0,0
1691756164025470,1498,1496,1256,1500,1000,0,0,0
1691756164029318,1499,1500,1256,1500,1000,0,0,0
1691756164033599,1498,1498,1256,1500,1000,0,0,0
1691756164035721,1498,1497,1256,1500,1000,0,0,0
1691756164039810,1501,1502,1254,1500,1000,0,0,0
1691756164043536,1498,1496,1256,1500,1000,0,0,0
1691756164047406,1497,1496,1256,1500,1000,0,0,0
1691756164052638,1499,1500,1256,1500,1000,0,0,0
1691756164054063,1498,1497,1255,1500,1000,0,0,0
1691756164057861,1497,1497,1255,1500,1000,0,0,0
1691756164062109,1501,1502,1254,1500,1000,0,0,0
1691756164065415,1498,1497,1255,1500,1000,0,0,0
1691756164070604,1497,1496,1255,1500,1000,0,0,0
1691756164072045,1499,1500,1255,1500,1000,0,0,0
1691756164076443,1499,1500,1255,1500,1000,0,0,0
1691756164080258,1500,1501,1254,1500,1000,0,0,0
1691756164083477,1498,1494,1255,1500,1000,0,0,0
1691756164087551,1497,1495,1255,1500,1000,0,0,0
1691756164090489,1497,1496,1256,1500,1000,0,0,0
1691756164095115,1499,1500,1256,1500,1000,0,0,0
1691756164097600,1498,1500,1255,1500,1000,0,0,0
1691756164101853,1500,1499,1255,1500,1000,0,0,0
1691756164106120,1498,1494,1256,1500,1000,0,0,0
1691756164109443,1498,1495,1255,1500,1000,0,0,0
1691756164113126,1497,1496,1256,1500,1000,0,0,0
1691756164116065,1499,1498,1256,1500,1000,0,0,0
1691756164122377,1499,1499,1255,1500,1000,0,0,0
1691756164123389,1499,1500,1254,1500,1000,0,0,0
1691756164127683,1498,1495,1255,1500,1000,0,0,0
1691756164130167,1498,1495,1256,1500,1000,0,0,0
1691756164134372,1498,1499,1256,1500,1000,0,0,0
1691756164137655,1498,1500,1256,1500,1000,0,0,0
1691756164141903,1499,1500,1255,1500,1000,0,0,0
1691756164148799,1498,1494,1256,1500,1000,0,0,0
1691756164149024,1497,1496,1256,1500,1000,0,0,0
1691756164153073,1497,1496,1256,1500,1000,0,0,0
1691756164156568,1499,1499,1256,1500,1000,0,0,0
1691756164159775,1499,1500,1255,1500,1000,0,0,0
1691756164163233,1500,1502,1254,1500,1000,0,0,0
1691756164166571,1498,1496,1255,1500,1000,0,0,0
1691756164170577,1498,1496,1256,1500,1000,0,0,0
1691756164174754,1497,1496,1256,1500,1000,0,0,0
1691756164178483,1498,1499,1256,1500,1000,0,0,0
1691756164181080,1500,1501,1255,1500,1000,0,0,0
1691756164184957,1498,1494,1256,1499,1000,0,0,0
1691756164188824,1497,1496,1256,1499,1000,0,0,0
1691756164192790,1498,1497,1256,1499,1000,0,0,0
1691756164197764,1498,1497,1256,1499,1000,0,0,0
1691756164199227,1499,1500,1256,1500,1000,0,0,0
1691756164202983,1500,1503,1255,1500,1000,0,0,0
1691756164206754,1498,1497,1256,1499,1000,0,0,0
1691756164210797,1498,1497,1256,1499,1000,0,0,0
1691756164214611,1498,1497,1256,1499,1000,0,0,0
1691756164218484,1499,1500,1256,1499,1000,0,0,0
1691756164221103,1500,1501,1256,1500,1000,0,0,0
1691756164224780,1499,1495,1257,1499,1000,0,0,0
1691756164229169,1498,1496,1256,1499,1000,0,0,0
1691756164232499,1498,1496,1256,1499,1000,0,0,0
1691756164240313,1499,1497,1256,1499,1000,0,0,0
1691756164241477,1500,1501,1256,1499,1000,0,0,0
1691756164248847,1499,1497,1256,1499,1000,0,0,0
1691756164250795,1499,1497,1256,1499,1000,0,0,0
1691756164254771,1498,1498,1256,1499,1000,0,0,0
1691756164257481,1500,1501,1256,1499,1000,0,0,0
1691756164261644,1500,1504,1257,1500,1000,0,0,0
1691756164265564,1499,1499,1256,1499,1000,0,0,0
1691756164268411,1498,1498,1256,1499,1000,0,0,0
1691756164272399,1499,1498,1256,1499,1000,0,0,0
1691756164275693,1499,1498,1256,1499,1000,0,0,0
1691756164279803,1501,1504,1256,1499,1000,0,0,0
1691756164286371,1499,1498,1257,1499,1000,0,0,0
1691756164287321,1499,1498,1256,1499,1000,0,0,0
1691756164290058,1499,1498,1256,1499,1000,0,0,0
1691756164294759,1499,1498,1256,1499,1000,0,0,0
1691756164298387,1502,1503,1256,1499,1000,0,0,0
1691756164301920,1500,1497,1257,1499,1000,0,0,0
1691756164305790,1499,1498,1256,1499,1000,0,0,0
1691756164308296,1499,1498,1256,1499,1000,0,0,0
1691756164312216,1499,1498,1256,1499,1000,0,0,0
1691756164316067,1503,1503,1255,1499,1000,0,0,0
1691756164319694,1500,1498,1256,1499,1000,0,0,0
1691756164323991,1501,1502,1256,1499,1000,0,0,0
1691756164327865,1501,1503,1256,1499,1000,0,0,0
1691756164330452,1500,1500,1256,1499,1000,0,0,0
1691756164333974,1502,1503,1255,1499,1000,0,0,0
1691756164337775,1501,1505,1256,1499,1000,0,0,0
1691756164344233,1500,1499,1256,1499,1000,0,0,0
1691756164345794,1500,1498,1256,1499,1000,0,0,0
1691756164349125,1499,1499,1256,1499,1000,0,0,0
1691756164352320,1499,1499,1256,1499,1000,0,0,0
1691756164355788,1502,1503,1255,1499,1000,0,0,0
