timestamp,roll,pitch,yaw,norm_thrust
1691756159796660,0.00000000,0.00000000,0.00000000,0.00000000
1691756159806666,0.00000000,0.00000000,0.00000000,0.00000000
1691756159817872,-0.00153472,-0.33926696,0.23370442,11.29164886
1691756159821733,-0.00325846,-0.31861973,0.23308685,11.28145504
1691756159825669,-0.00971285,-0.35293487,0.23350385,11.32180023
1691756159828398,0.00160726,-0.34511614,0.23441413,11.33256912
1691756159832109,0.00292617,-0.31163013,0.23345229,11.29760361
1691756159836646,-0.00146194,-0.33240244,0.23364995,11.32551003
1691756159839421,-0.00473029,-0.34146142,0.23372601,11.37915707
1691756159848151,-0.00308024,-0.33484998,0.23375496,11.40882301
1691756159848335,-0.00415012,-0.35289678,0.23418896,11.43319702
1691756159851452,0.00128971,-0.30468988,0.23283181,11.37993240
1691756159854763,-0.00280318,-0.34506038,0.23310286,11.42474461
1691756159858323,-0.00069468,-0.28562680,0.23058984,11.41677952
1691756159863107,-0.00017869,-0.27655521,0.22842513,11.38824177
1691756159864677,-0.00227746,-0.32317874,0.22790538,11.44170666
1691756159868985,-0.00276251,-0.33779290,0.22681652,11.51397419
1691756159872543,-0.00589308,-0.35846364,0.22555476,11.52909660
1691756159876971,0.00275343,-0.28378943,0.21915287,11.44997787
1691756159879487,0.00784349,-0.26771826,0.21074696,11.48525429
1691756159882877,0.00594301,-0.26469305,0.20262758,11.48009968
1691756159887488,0.00365928,-0.26266086,0.19358242,11.51422024
1691756159890144,0.00283460,-0.25834954,0.18272525,11.49104023
1691756159894297,0.00310705,-0.24838695,0.17194237,11.47658825
1691756159897556,-0.00694755,-0.25051379,0.16225483,11.51647568
1691756159901662,0.00446305,-0.20835279,0.15105507,11.32766247
1691756159905974,-0.00329525,-0.26586366,0.14536479,11.50194645
1691756159908311,0.00461504,-0.21168633,0.13524917,11.35858345
1691756159912773,0.00646547,-0.16464397,0.12413355,11.20724678
1691756159916655,0.01980877,-0.16758296,0.11426098,11.12243080
1691756159920473,0.00277799,-0.16540006,0.10435435,11.09135914
1691756159923573,-0.01333897,-0.17664844,0.09568513,11.05006886
1691756159926981,0.00264755,-0.31537458,0.09167403,10.99279213
1691756159930921,0.03327962,-0.13262589,0.08105310,10.57016659
1691756159934815,0.00820299,-0.16419724,0.07341333,10.58867359
1691756159938730,-0.01417797,-0.17374019,0.06594297,10.46787357
1691756159942378,0.00340034,-0.35436195,0.06332530,10.78942394
1691756159946371,0.01436403,-0.29723543,0.05860862,10.69625473
1691756159949598,0.01132450,-0.26120377,0.05454352,10.53639507
1691756159952698,0.01874965,-0.03990825,0.04636866,9.88676739
1691756159955699,0.01051349,-0.06109536,0.04007835,10.13070583
1691756159960044,0.01699823,-0.25087100,0.03843825,10.55307674
1691756159963234,0.01153255,-0.21422079,0.03498177,10.41560268
1691756159968693,0.00725592,0.02761815,0.02677293,9.80406857
1691756159970810,0.04586338,-0.12418479,0.02349733,10.00779533
1691756159974744,0.16934769,0.31399056,0.00805614,9.34107113
1691756159977717,0.03517943,-0.07874765,0.01084525,10.08375740
1691756159981735,0.02165483,-0.07240567,0.00573889,10.02751732
1691756159987458,0.03488781,-0.08548283,0.00104040,10.00642109
1691756159988484,0.00131765,-0.27651876,0.00065759,10.27060795
1691756159992584,0.01415782,-0.04599448,-0.00523218,9.57872963
1691756159996136,0.03855431,-0.04429863,-0.00941574,9.71403122
1691756159999698,0.03400474,-0.03155757,-0.01283638,9.88027573
1691756160003801,0.03216325,-0.04183237,-0.01559694,9.78669834
1691756160007485,-0.01591007,-0.10132726,-0.01863623,9.70404816
1691756160010274,0.04700004,0.01897437,-0.02251924,9.65801144
1691756160013938,0.05707288,0.09604067,-0.02654181,9.66443253
1691756160019181,0.16298786,0.34045476,-0.03819820,9.54210663
1691756160021829,-0.02364229,-0.10408711,-0.03135232,10.32899189
1691756160024872,-0.06646850,-0.33879009,-0.02923292,10.43052864
1691756160028857,-0.04852263,-0.33422092,-0.02708527,10.29275036
1691756160032891,-0.02111692,-0.28456175,-0.02512442,10.11604881
1691756160036630,-0.00365517,-0.21765351,-0.02345405,10.01990795
1691756160047081,-0.00335343,-0.14925775,-0.02298614,10.01423454
1691756160047571,0.03954054,-0.15647446,-0.02126138,9.78038025
1691756160047735,0.06230966,-0.04153805,-0.02135171,9.73008156
1691756160050902,0.06746042,-0.03165369,-0.02049901,9.75045586
1691756160057603,0.06450915,0.00811704,-0.01982870,9.52937126
1691756160058080,0.10397685,0.13717780,-0.02106580,9.50649548
1691756160063535,0.00503122,-0.08215819,-0.01587462,10.20562363
1691756160064684,0.01674192,-0.05299735,-0.01426881,10.00319958
1691756160069303,0.02792672,-0.03581394,-0.01235161,9.99217319
1691756160072839,0.04239916,0.15497322,-0.01477900,9.39092541
1691756160079629,-0.02496447,0.28812906,-0.01569098,9.46128845
1691756160080123,0.08604090,0.31639564,-0.02042134,9.44945431
1691756160084257,0.05226780,0.15388654,-0.01924407,9.70527363
1691756160086847,0.04287704,0.16371998,-0.02049588,9.84180832
1691756160091939,0.06094701,0.16497248,-0.02215550,9.88243580
1691756160094888,0.04356314,0.15122391,-0.02314629,9.93437958
1691756160098017,0.02907339,0.09042697,-0.02317909,10.01630783
1691756160101877,0.01834586,0.00332309,-0.02307744,9.90685081
1691756160104774,-0.02255661,-0.01491977,-0.02347715,10.04299355
1691756160108808,-0.00945397,-0.02356839,-0.02369122,10.05975151
1691756160112965,0.01236859,0.02741757,-0.02449850,10.18756390
1691756160117187,-0.01782935,-0.00706303,-0.02423403,9.86496353
1691756160119687,0.05241628,0.06876210,-0.02543903,9.78915215
1691756160122927,0.06705083,0.18106543,-0.02814297,9.68239307
1691756160126943,-0.01122239,-0.02878851,-0.02429335,10.29127216
1691756160131095,0.01770721,0.04873273,-0.02531758,10.01313972
1691756160134932,0.03251210,0.07629117,-0.02585877,9.99297142
1691756160137483,0.01983686,0.04909319,-0.02532805,10.02786255
1691756160144044,-0.00107590,0.06178289,-0.02522135,9.95982170
1691756160151341,-0.00534436,0.07100886,-0.02523424,10.02269173
1691756160151477,-0.00323702,0.08451413,-0.02522807,10.03173161
1691756160152943,-0.01503341,0.07437255,-0.02462973,10.05308056
1691756160156618,-0.03520233,0.03368255,-0.02356980,10.14193821
1691756160159306,-0.00558888,0.03992458,-0.02363128,9.83744431
1691756160163115,0.01202210,0.13255841,-0.02476487,9.87200642
1691756160166823,0.05181913,0.22127487,-0.02671551,9.74292088
1691756160173783,-0.01395956,-0.02438867,-0.02111505,10.44231606
1691756160174641,-0.01944947,0.02059343,-0.02076248,10.31446362
1691756160178498,0.00844148,0.03174869,-0.01994487,10.03654766
1691756160181997,0.00063636,-0.00655184,-0.01868292,10.13810253
1691756160185100,0.00028310,-0.00596759,-0.01782041,10.10099983
1691756160188893,-0.00830694,0.00119575,-0.01692890,9.97352219
1691756160193062,-0.04168153,-0.14216447,-0.01340154,10.19339085
1691756160195529,-0.00735097,0.03113420,-0.01467009,9.89404964
1691756160199474,-0.04586823,0.02261023,-0.01301826,10.02505016
1691756160203042,-0.02285619,-0.04893762,-0.01046677,9.83178711
1691756160208419,-0.00770210,0.00195883,-0.01000547,10.09546280
1691756160210959,-0.01449344,0.01233274,-0.00834681,10.05528736
1691756160214783,-0.00808530,0.06555107,-0.00798688,9.94071674
1691756160218483,0.00153352,0.07702038,-0.00721151,9.92877007
1691756160221328,0.00808756,0.07474122,-0.00598210,9.90887737
1691756160224839,0.00294850,0.07472563,-0.00508342,9.91184044
1691756160228910,-0.00152605,0.03821840,-0.00378729,10.07426643
1691756160233078,-0.00433430,0.03222970,-0.00290197,10.07042027
1691756160237395,-0.07286893,-0.01672067,-0.00114537,10.28713131
1691756160239863,-0.02083120,-0.03281432,-0.00048890,10.15246582
1691756160243156,0.01023735,0.01493155,-0.00096942,9.83139420
1691756160248252,-0.01217662,0.04529194,-0.00122122,9.93161869
1691756160250335,-0.00785542,0.08464235,-0.00197680,9.91444016
1691756160255449,0.13962600,0.39215684,-0.01297297,9.65073109
1691756160257936,-0.05407541,-0.08738937,-0.00019173,10.36453533
1691756160262322,-0.07603089,-0.09870920,0.00006746,10.29683304
1691756160267466,-0.03592978,-0.10240515,0.00087539,10.19938564
1691756160268363,-0.03415495,-0.06734265,0.00101163,10.13548565
1691756160272018,-0.04034555,-0.06613442,0.00140367,10.01282406
1691756160276229,-0.03156844,-0.06782416,0.00175958,10.04019451
1691756160280041,-0.05088260,-0.06547851,0.00234894,10.17610836
1691756160283852,-0.02630854,-0.06048339,0.00258743,9.90877247
1691756160292931,0.04135356,0.09364878,-0.00018317,9.60095119
1691756160293078,-0.04056069,-0.12724464,0.00371860,10.38959885
1691756160293815,-0.04109186,-0.07209043,0.00310382,10.23138237
1691756160297508,-0.03177959,-0.02692946,0.00259945,10.04586792
1691756160301476,-0.03027066,-0.00987426,0.00242169,10.05936432
1691756160305003,-0.02436303,-0.02206670,0.00282935,10.07627773
1691756160309129,-0.03033821,-0.03000796,0.00318557,10.07208157
1691756160313149,-0.07892321,-0.19780782,0.00755226,10.37965488
1691756160315627,-0.03794518,-0.16235140,0.01000437,10.13634300
1691756160319523,-0.02412896,-0.10084289,0.01094392,9.91409969
1691756160322982,-0.00825375,0.00460603,0.01052307,9.80154514
1691756160327021,0.19159728,0.56158769,-0.00763489,9.24583244
1691756160331023,-0.06019093,-0.20639877,0.01366294,10.56349087
1691756160334162,-0.05056215,-0.03769471,0.01216142,10.26702309
1691756160338032,-0.02793074,-0.01062159,0.01192028,10.18145943
1691756160341990,-0.04192658,-0.01066427,0.01192540,10.09479237
1691756160344782,-0.04797826,0.01719433,0.01152357,9.99897861
1691756160348472,-0.07778464,-0.15254487,0.01394431,10.32425499
1691756160352197,-0.03022061,-0.11759241,0.01497479,9.90881729
1691756160356300,0.03832220,0.21751723,0.00965687,9.42653370
1691756160360219,-0.03748407,-0.05845052,0.01411614,10.33793259
1691756160363786,0.00220429,-0.04652685,0.01399806,10.20849323
1691756160367085,0.00513005,0.01022492,0.01286291,10.02270699
1691756160370281,-0.00081188,0.02899863,0.01218877,10.05968189
1691756160374435,-0.00536768,0.03063534,0.01163050,10.07586575
1691756160378916,-0.01322528,0.03643059,0.01121667,10.15985203
1691756160382458,-0.04462086,-0.10389943,0.01375380,10.35706043
1691756160385451,-0.00691872,0.07427783,0.01154700,9.96941662
1691756160390346,-0.03269811,-0.11088183,0.01454380,10.38109493
1691756160397322,-0.04036863,-0.07667383,0.01491542,10.10482025
1691756160397510,0.03046754,0.22432385,0.01041011,9.62418079
1691756160401208,-0.02790782,0.05150001,0.01285959,10.37373161
1691756160404197,-0.00962146,0.04226036,0.01271680,10.14818764
1691756160406475,0.02086593,0.02881061,0.01218112,10.09095764
1691756160410131,0.02225752,-0.00635070,0.01185536,10.10971832
1691756160414079,0.02092025,-0.00200141,0.01107475,10.10472584
1691756160418110,-0.02916406,-0.13093337,0.01220821,10.27932644
1691756160421068,0.01572111,0.04463096,0.00962773,9.98722363
1691756160426923,-0.01063384,0.05178742,0.00909372,10.14163494
1691756160429306,-0.01875515,0.07263932,0.00826766,10.08131123
1691756160432368,0.03008767,0.13096787,0.00634771,9.79900074
1691756160436273,0.06887863,0.18475027,0.00381603,9.85734653
1691756160440033,-0.02206208,-0.04349603,0.00709750,10.60132122
1691756160443137,-0.00687967,0.01038969,0.00616278,10.39891624
1691756160447060,0.00905082,0.05190047,0.00501053,10.32312679
1691756160451157,0.01354528,0.06828140,0.00426107,10.34152222
1691756160453793,0.00242405,0.04312043,0.00396397,10.33301449
1691756160457925,-0.00722072,-0.09948787,0.00555451,10.57632351
1691756160461443,0.03923299,0.03892348,0.00345670,10.21326351
1691756160465078,0.03595995,0.05047731,0.00263398,10.12103271
1691756160469228,0.01382087,0.00104159,0.00246642,10.05483818
1691756160472984,0.02185532,-0.03871046,0.00278029,10.35079479
1691756160475781,-0.01946739,-0.13394040,0.00353894,10.59852505
1691756160479334,0.02336504,0.10690653,-0.00018872,10.07589340
1691756160483164,-0.00141257,-0.04074917,0.00151169,10.45730686
1691756160487137,0.01403549,0.12670264,-0.00119699,10.15663719
1691756160490003,0.02321712,0.19093673,-0.00327400,9.94050026
1691756160494279,-0.01769760,0.05821630,-0.00197857,10.26236725
1691756160498040,0.03355897,0.09292781,-0.00334984,10.42036057
1691756160501981,0.03592787,0.10798496,-0.00423046,10.41963577
1691756160506962,0.03771414,0.08588903,-0.00445923,10.35518837
1691756160510627,0.01087732,0.04810278,-0.00435597,10.46915913
1691756160512232,0.04476260,0.04534951,-0.00510720,10.33858871
1691756160516177,0.05048270,0.07767334,-0.00647699,10.22853374
1691756160520251,0.04996667,0.09972152,-0.00805406,10.05105019
1691756160522860,0.16242191,0.43795881,-0.02180633,9.75554371
1691756160526718,-0.00636742,-0.05011604,-0.01082343,10.66467190
1691756160530770,-0.02866061,-0.17677771,-0.00962890,10.75833035
1691756160534688,0.01652729,0.01499702,-0.01237985,10.34093475
1691756160538178,-0.00789449,0.01251837,-0.01285103,10.47274208
1691756160542669,-0.02120403,0.00886350,-0.01312815,10.40403366
1691756160547029,0.02368986,0.06615673,-0.01467324,10.19242382
1691756160548882,0.06213565,0.16291410,-0.01753970,9.98154354
1691756160552797,0.01199489,-0.02616061,-0.01436275,10.54025841
1691756160556183,0.03105963,0.06403161,-0.01633155,10.37876892
1691756160560256,0.03286679,0.05990754,-0.01683869,10.39074039
1691756160562846,0.08955829,0.17340958,-0.02027418,9.90065575
1691756160566606,0.01132856,-0.06062575,-0.01593620,10.56630325
1691756160570411,0.01800290,-0.02090281,-0.01678610,10.57529736
1691756160576353,0.03878760,0.02495833,-0.01785854,10.46216679
1691756160578484,0.03467949,0.04132792,-0.01845140,10.43005657
1691756160582367,0.02580722,0.03862405,-0.01885236,10.30564976
1691756160585429,0.02869448,0.04459882,-0.01946477,10.53538799
1691756160591851,0.02169865,0.04258850,-0.01972962,10.55821896
1691756160592810,-0.00644697,0.00914265,-0.01938304,10.55022621
1691756160596318,0.03716173,0.01672031,-0.01985668,10.45602036
1691756160600663,0.06043143,0.03045515,-0.02064287,10.48627758
1691756160602808,0.01254942,-0.01183334,-0.02000276,10.63346291
1691756160606633,0.03412389,0.06829491,-0.02186654,10.14859009
1691756160610587,0.15637358,0.40766266,-0.03460395,9.88033772
1691756160613765,-0.00519055,-0.06096726,-0.02241116,10.69713974
1691756160619966,0.01193651,-0.01814655,-0.02316688,10.52214718
1691756160621240,0.01412490,-0.00463319,-0.02357456,10.40878773
1691756160625332,0.02406095,-0.00975896,-0.02378382,10.38733006
1691756160629437,0.07831082,0.23038206,-0.02994615,10.10965538
1691756160631941,0.03548686,0.20028724,-0.02997469,10.26738739
1691756160635748,0.04383142,0.18119113,-0.03129326,10.33167171
1691756160639329,-0.02070390,-0.13168757,-0.02514341,10.75432491
1691756160643292,-0.03238256,-0.12757705,-0.02472614,10.70779514
1691756160647249,-0.05104432,-0.11800306,-0.02471672,10.70347023
1691756160651187,0.00311342,-0.06181072,-0.02506110,10.43318081
1691756160653876,0.07333031,0.15840068,-0.03076782,10.30861759
1691756160657767,-0.04257865,-0.16859859,-0.02369894,10.78869534
1691756160661118,-0.03218070,-0.10559605,-0.02424562,10.69324970
1691756160665289,-0.02878445,-0.11352885,-0.02356375,10.66604614
1691756160669343,-0.04077085,-0.06460351,-0.02402189,10.49826431
1691756160671929,-0.00898496,-0.07340375,-0.02325153,10.43377399
1691756160675879,-0.03677158,-0.09601887,-0.02254093,10.53665829
1691756160679360,0.00754658,0.03687059,-0.02476757,10.03067112
1691756160683297,-0.02647645,-0.06933205,-0.02240612,10.53900242
1691756160687268,-0.01972970,-0.04554943,-0.02243841,10.55292511
1691756160690231,-0.01048652,-0.02416835,-0.02236909,10.39393044
1691756160696621,-0.00719761,-0.02177287,-0.02193849,10.28456116
1691756160698283,0.05507888,0.28936228,-0.02925847,10.13758659
1691756160701401,-0.04945846,-0.06347986,-0.02049639,10.72920418
1691756160706983,-0.02936951,-0.10543643,-0.01926247,10.75762367
1691756160708341,-0.01630594,-0.10442576,-0.01864967,10.61154366
1691756160712747,-0.01030804,-0.08698396,-0.01785919,10.36087894
1691756160716846,0.04257978,0.21551177,-0.02437771,10.13487339
1691756160720338,-0.04375032,-0.09885925,-0.01715715,10.63496113
1691756160722807,-0.03118664,-0.08609108,-0.01647885,10.57929039
1691756160726662,-0.04229848,-0.08567914,-0.01530423,10.45032597
1691756160730509,-0.00903085,-0.03549508,-0.01498547,10.09250927
1691756160734428,0.06660037,0.24249363,-0.02147718,9.96228600
1691756160738279,-0.03902020,-0.13825220,-0.01174523,10.63566113
1691756160741440,-0.04280509,-0.13687637,-0.01087522,10.55413628
1691756160745550,-0.02535032,-0.12961315,-0.00989700,10.46311283
1691756160748324,-0.01392708,-0.08551341,-0.01000401,10.45171738
1691756160752392,0.05940374,0.23219720,-0.01697123,9.98872375
1691756160756367,-0.03500278,-0.13183844,-0.00809001,10.59703064
1691756160760453,-0.03634284,-0.12559690,-0.00749929,10.63985538
1691756160762946,-0.03069630,-0.08278219,-0.00735073,10.46382332
1691756160766677,0.04858640,0.22959432,-0.01378567,9.97587395
1691756160770500,-0.05754438,-0.08626474,-0.00617717,10.50662327
1691756160774501,-0.03882200,-0.08325928,-0.00522156,10.45528889
1691756160778696,-0.03787116,-0.07511116,-0.00395536,10.45292759
1691756160781171,-0.00728293,-0.02952413,-0.00334840,10.08196068
1691756160785036,-0.04821955,-0.09979770,-0.00080355,10.44389057
1691756160788431,0.00302987,-0.04866877,-0.00027588,10.36651421
1691756160792565,0.00985248,-0.04491215,0.00086664,10.32379913
1691756160796354,-0.00354767,-0.00305158,0.00099683,10.20580578
1691756160800233,0.03562877,0.33746025,-0.00601748,9.88445950
1691756160804369,-0.03129788,-0.08661000,0.00367578,10.51217556
1691756160807979,-0.01278799,-0.05162317,0.00446686,10.43250561
1691756160810440,-0.02777462,-0.00359865,0.00441882,10.30343819
1691756160814694,-0.05182629,-0.00217611,0.00533740,10.40103817
1691756160818579,0.02664215,0.02674364,0.00533821,10.11679554
1691756160822289,0.09088621,0.30349752,-0.00136585,9.84111595
1691756160824786,-0.02832532,-0.08463568,0.00794355,10.52308750
1691756160828524,-0.01951311,-0.06514917,0.00798397,10.41784286
1691756160832376,-0.01749684,-0.06676300,0.00824606,10.40672779
1691756160838761,0.00677706,0.00839680,0.00740854,10.15590763
1691756160839386,-0.00945462,0.09667306,0.00620050,9.87709141
1691756160844273,0.07182664,0.31379417,0.00043368,9.96456242
1691756160847515,0.06617545,0.25881416,0.00155031,10.15701294
1691756160850482,-0.03611954,-0.06628021,0.00827534,10.66398144
1691756160854476,-0.02544746,-0.05880484,0.00832095,10.43337822
1691756160858841,-0.01853039,-0.04923721,0.00831282,10.44839191
1691756160862113,0.01852137,-0.00985570,0.00793285,10.28846264
1691756160865887,-0.00931254,0.06585700,0.00683959,10.08588886
1691756160869264,0.06919234,0.29895109,0.00107598,10.04122734
1691756160871927,0.00060145,-0.05921903,0.00861628,10.66457653
1691756160875642,-0.00337531,-0.00635700,0.00796904,10.47700024
1691756160879689,-0.04341870,-0.01603231,0.00838234,10.50545025
1691756160883463,0.03469729,-0.00569179,0.00828826,10.02899170
1691756160887574,0.09030321,0.29480448,0.00092184,10.01830482
1691756160890113,0.05984165,0.24624150,0.00202822,10.18156624
1691756160894013,-0.04536793,-0.04960969,0.00756467,10.57216263
1691756160898426,-0.01030687,-0.09871718,0.00839697,10.65015411
1691756160902955,-0.00015871,-0.05134609,0.00776001,10.58735085
1691756160905541,0.00103018,-0.02477701,0.00734209,10.44425488
1691756160908322,-0.00190113,-0.01821036,0.00721995,10.58598518
1691756160912537,0.03314781,0.04766669,0.00606882,10.33955288
1691756160916663,0.07898043,0.36585063,-0.00185882,9.98848343
1691756160919290,-0.01245700,-0.03106152,0.00658167,10.73050117
1691756160924192,0.00605341,0.03001092,0.00557164,10.60304832
1691756160926623,0.01803496,0.03954551,0.00546844,10.42944527
1691756160932424,0.01516985,0.05501154,0.00516478,10.35819340
1691756160934900,0.02860828,0.11581440,0.00383095,10.23825169
1691756160938385,0.06580124,0.32896388,-0.00200821,10.22490025
1691756160943493,0.03818207,0.29868418,-0.00173165,10.38926029
1691756160944746,-0.02951951,-0.06672400,0.00490293,10.77721119
1691756160948589,-0.01585891,-0.05980187,0.00474794,10.74526978
1691756160952666,-0.02772882,-0.03973254,0.00438738,10.62065125
1691756160956599,-0.01577619,-0.00513118,0.00394234,10.37950039
1691756160959362,-0.02264854,-0.00939931,0.00422176,10.59697247
1691756160962994,0.01083292,-0.02426660,0.00459708,10.66929913
1691756160968260,0.01191724,-0.02668282,0.00473034,10.62563610
1691756160970930,0.03675140,0.01705725,0.00394449,10.33477974
1691756160974566,0.01246117,-0.07540073,0.00560603,10.69885731
1691756160977604,0.01900056,0.04801475,0.00327192,10.61370277
1691756160981142,0.01661567,0.06377751,0.00309139,10.50442886
1691756160985008,0.01315878,0.10636749,0.00225322,10.31611347
1691756160990412,0.08264893,0.40431416,-0.00642236,9.99775887
1691756160994250,-0.00478170,-0.02122500,0.00326073,10.75636005
1691756161010740,-0.01323323,-0.00594321,0.00303670,10.65347290
1691756161010941,-0.01296832,-0.00839590,0.00301638,10.54250622
1691756161011639,0.02697638,-0.02310714,0.00324586,10.51101589
1691756161011862,0.02414305,-0.00302511,0.00281968,10.34182644
1691756161012017,0.00502943,0.03145650,0.00208612,10.20560169
1691756161014096,0.02645916,0.11598149,0.00000241,10.30920124
1691756161018229,0.00037145,0.00141394,0.00210789,10.75936890
1691756161022043,0.01008256,-0.00544949,0.00232343,10.65588284
1691756161025743,0.00873516,0.00374398,0.00225126,10.30637360
1691756161028540,0.00056343,-0.04403209,0.00316975,10.63977623
1691756161036359,0.01471483,0.02809780,0.00204635,10.53883457
1691756161037012,-0.00410316,0.01699128,0.00259515,10.55794811
1691756161039182,-0.00064725,0.05075258,0.00204857,10.10164261
1691756161043052,0.09771106,0.39886370,-0.00841806,9.94256592
1691756161046704,-0.01616620,-0.04127348,0.00221558,10.71312523
1691756161050695,-0.00748681,-0.10110658,0.00330489,10.63340378
1691756161056801,-0.01105698,-0.07835621,0.00273910,10.40711021
1691756161057611,0.06569591,0.25562742,-0.00600177,10.03625107
1691756161061617,-0.02772912,-0.05105811,0.00049109,10.67057991
1691756161065607,-0.02080873,-0.16105407,0.00262766,10.45991611
1691756161068622,-0.00927883,-0.06595287,0.00124590,10.36528301
1691756161072278,0.01391177,-0.04522214,0.00115628,10.47103405
1691756161076082,0.00012788,-0.03088302,0.00104174,10.34242344
1691756161079741,0.01337555,0.05083919,-0.00036647,10.07678604
1691756161083715,-0.00087532,-0.08044219,0.00219720,10.56593513
1691756161087467,0.00549670,-0.01869066,0.00125384,10.53337860
1691756161089977,-0.00068193,-0.03968905,0.00182959,10.38062096
1691756161093886,0.08240434,0.30657667,-0.00706663,9.86467552
1691756161097619,-0.00575124,-0.11461441,0.00262086,10.61475086
1691756161101712,-0.00874827,-0.09239142,0.00235288,10.51181984
1691756161105622,-0.02802410,-0.08414358,0.00250413,10.42509270
1691756161108289,-0.01207141,-0.04584593,0.00192996,10.18786144
1691756161113261,-0.01812944,-0.08042138,0.00253533,10.46649551
1691756161116317,0.02444692,-0.12775116,0.00389519,10.36714268
1691756161121491,0.00650488,-0.06683305,0.00266556,10.50888920
1691756161123613,-0.02461415,-0.06728352,0.00256155,10.48696327
1691756161127031,0.03651152,0.01619192,0.00118390,10.06930256
1691756161130664,-0.00814978,-0.01467379,0.00189534,10.59147835
1691756161134799,0.00087017,-0.06562924,0.00297422,10.35202980
1691756161137554,0.01531276,-0.04691859,0.00279931,10.39076614
1691756161143192,0.01827542,-0.04218998,0.00286919,10.39294529
1691756161145393,0.02477778,0.03133122,0.00160130,10.06439209
1691756161148204,-0.04414918,-0.02051550,0.00275301,10.42283154
1691756161154276,0.00769367,-0.09513599,0.00434470,10.41688728
1691756161155505,0.03438639,-0.10079954,0.00479668,10.34260368
1691756161159249,0.01007563,-0.03372504,0.00338937,10.26478863
1691756161163005,0.01408287,-0.04104872,0.00377506,10.22132874
1691756161166763,0.10740718,0.25504610,-0.00427751,9.85419941
1691756161170801,-0.01850264,-0.13811824,0.00541199,10.59011841
1691756161174813,-0.03410964,-0.06231050,0.00427186,10.41099262
1691756161177390,-0.00569320,-0.09112259,0.00523884,10.42646694
1691756161189514,0.03602970,-0.10460657,0.00618451,10.19232464
1691756161189685,0.06708410,0.25390381,-0.00251558,10.01670361
1691756161189852,-0.03120276,-0.13220291,0.00670237,10.65521431
1691756161192494,-0.00043401,-0.13289064,0.00740026,10.51124477
1691756161200274,0.00862319,-0.09501183,0.00716512,10.45272732
1691756161200531,-0.00523109,-0.04299806,0.00633030,10.31124401
1691756161203865,0.06789733,0.30437261,-0.00284511,9.74914551
1691756161206568,-0.02319046,-0.11578926,0.00685795,10.51701641
1691756161212115,-0.02301211,-0.07700144,0.00644044,10.42627621
1691756161217323,-0.02644704,-0.07960015,0.00696258,10.40571213
1691756161217549,-0.00931790,-0.04305087,0.00680566,9.96794796
1691756161221307,0.01150818,0.02014762,0.00566335,10.05745125
1691756161225178,0.07728921,0.19715865,0.00007100,9.99849510
1691756161228871,-0.06162111,-0.05611891,0.00605298,10.56376839
1691756161232777,-0.02815430,-0.14009544,0.00781632,10.45759010
1691756161235855,-0.00026835,-0.07277529,0.00686516,10.45792770
1691756161239907,0.00355415,-0.04078349,0.00642600,10.40261078
1691756161244117,-0.00611170,-0.04030878,0.00658971,10.28695202
1691756161246592,0.07331780,0.28080887,-0.00195625,9.89637184
1691756161250247,-0.01228350,0.25785884,0.00006752,10.45456409
1691756161253945,-0.03309919,-0.12327854,0.00734260,10.44950390
1691756161257760,-0.02291538,-0.09759989,0.00713952,10.43278027
1691756161261532,-0.01323169,-0.04457451,0.00631815,10.40277481
1691756161264653,-0.00117767,-0.01471048,0.00609541,10.28004169
1691756161268820,-0.02164707,-0.01381492,0.00633895,10.19060040
1691756161272858,-0.00946329,0.03677604,0.00538702,10.20501137
1691756161276112,0.08634306,0.26337072,-0.00139586,10.08894634
1691756161280276,-0.01644629,-0.09623528,0.00754916,10.65544319
1691756161282872,-0.02151808,-0.05934731,0.00678504,10.45068264
1691756161286850,-0.01109866,-0.00310606,0.00572971,10.48190212
1691756161290865,-0.00339744,-0.01082437,0.00597897,10.24551010
1691756161293847,-0.00508324,0.01634993,0.00534296,10.20119190
1691756161305382,-0.01000297,0.07165143,0.00432496,10.39722443
1691756161305534,-0.00042773,0.05984285,0.00452799,10.59126186
1691756161305627,-0.01396408,0.06632177,0.00452689,10.39517593
1691756161308224,0.04558354,0.33069742,-0.00247176,10.15675926
1691756161314658,-0.03692665,-0.08135692,0.00648510,10.74672699
1691756161315545,-0.03036807,-0.01213497,0.00537266,10.64375496
1691756161328356,-0.00165146,-0.00126939,0.00528956,10.59600925
1691756161328947,-0.00179474,0.00591788,0.00513653,10.53049946
1691756161329211,0.01161169,0.02605304,0.00474481,10.19355965
1691756161331433,0.00760651,0.05689960,0.00424171,10.31122875
1691756161334802,0.05122362,0.29825637,-0.00252529,10.38724613
1691756161338291,-0.04337298,-0.07207431,0.00591170,10.92672253
1691756161341059,-0.04591703,-0.02863984,0.00554170,10.72723198
1691756161347736,-0.02517871,0.00814516,0.00516863,10.81058788
1691756161349052,-0.01160143,0.02867416,0.00487716,10.55782700
1691756161352969,0.07161792,0.24301107,-0.00141294,10.35925007
1691756161355608,0.04435932,0.22353359,-0.00149724,10.34241009
1691756161359818,-0.05837498,-0.14912954,0.00602279,10.95631218
1691756161362949,-0.04788805,-0.08076921,0.00522957,10.71639156
1691756161367361,-0.03433650,-0.04334941,0.00502020,10.61389446
1691756161370991,-0.04533465,-0.02847166,0.00499426,10.61126804
1691756161375718,0.05757845,0.23688340,-0.00206993,10.32811165
1691756161377496,0.06916173,0.22645186,-0.00306743,10.48906326
1691756161381180,-0.07186791,-0.09439723,0.00428830,10.68004990
1691756161385030,-0.06575208,-0.10057507,0.00471374,10.63261604
1691756161389032,-0.02163215,-0.11743420,0.00545566,10.61501503
1691756161393119,0.00697176,-0.01321255,0.00349972,10.43238449
1691756161395594,-0.05470434,-0.11476424,0.00533904,11.00639915
1691756161399173,-0.05208069,-0.03529342,0.00429647,10.65439510
1691756161403244,-0.02424174,0.01374388,0.00374769,10.61623192
1691756161407044,-0.03215538,0.00397069,0.00427556,10.48723602
1691756161411249,0.05236843,0.32711780,-0.00478665,10.16587448
1691756161413886,-0.02934953,-0.06246242,0.00451896,10.73459244
1691756161417473,-0.01833365,-0.07205764,0.00498197,10.65034771
1691756161421838,-0.02884420,-0.01381811,0.00409364,10.49341011
1691756161424734,0.03792661,0.18690787,-0.00101755,10.42790508
1691756161428452,0.05560175,0.15652625,-0.00118667,10.38267422
1691756161432191,0.02892988,0.13525695,-0.00093069,10.38995647
1691756161435653,-0.08758918,-0.20398240,0.00516286,10.77798939
1691756161439297,-0.08248441,-0.14993376,0.00465876,10.59091473
1691756161444092,-0.03256869,-0.12039012,0.00502741,10.57139969
1691756161447066,-0.05357014,-0.06226538,0.00437321,10.56606197
1691756161451949,-0.04620770,-0.01743670,0.00381084,10.48759270
1691756161453847,-0.03615015,-0.02203165,0.00406705,10.79797935
1691756161457941,-0.00084881,-0.07511222,0.00566403,10.40334606
1691756161462074,-0.03499793,-0.03503149,0.00514303,10.53378487
1691756161464673,0.00942733,0.03436172,0.00387292,10.33764648
1691756161468430,-0.00014930,-0.11841238,0.00706732,10.61044693
1691756161472340,-0.01684943,-0.06679477,0.00603825,10.53297234
1691756161475792,-0.02871350,-0.05895111,0.00595111,10.51432514
1691756161480026,-0.02567485,-0.03835636,0.00572165,10.29733086
1691756161486994,0.08020575,0.25556949,-0.00199275,10.12593365
1691756161488140,-0.03919285,-0.14564879,0.00738396,10.73327351
1691756161491180,-0.03986416,-0.09825628,0.00683052,10.40626335
1691756161494915,-0.02910730,-0.04017258,0.00610094,10.46826649
1691756161500466,-0.02437388,-0.04503062,0.00634647,10.56016350
1691756161501337,0.07529683,0.19590911,0.00041536,10.29022312
1691756161504684,-0.02697470,-0.17934376,0.00911028,10.76678467
1691756161508293,-0.05137177,-0.08949983,0.00738709,10.50499249
1691756161512140,-0.02377634,-0.08006979,0.00754993,10.51699734
1691756161515647,-0.01668268,-0.05007209,0.00746490,10.36555862
1691756161519180,-0.00746627,-0.02415281,0.00719439,10.26338196
1691756161523042,0.04624110,0.20929454,0.00141120,10.24150658
1691756161527039,0.06117599,0.19437900,0.00114242,10.21568394
1691756161531430,-0.04180065,-0.21507488,0.00933686,10.66895485
1691756161534229,-0.05698475,-0.15479420,0.00807375,10.48019314
1691756161537480,-0.02597499,-0.14367811,0.00804066,10.38253689
1691756161541062,-0.03351744,-0.06213387,0.00653905,10.37464333
1691756161545535,-0.01579401,-0.02442998,0.00598178,10.32501507
1691756161549171,0.04103665,0.20988725,0.00029886,10.27019691
1691756161552964,0.05131272,0.21334757,-0.00051469,10.29682732
1691756161555570,-0.04204628,-0.22739574,0.00816680,10.68871784
1691756161559887,-0.03979352,-0.12492190,0.00669081,10.54006481
1691756161563195,-0.00455964,-0.10144883,0.00659566,10.47722435
1691756161567730,-0.00172300,-0.04469138,0.00555395,10.38043880
1691756161572919,0.07808738,0.20875597,-0.00074564,10.12877846
1691756161573800,-0.03220160,-0.05508440,0.00529639,10.81547070
1691756161577520,-0.02100245,-0.15245846,0.00694975,10.59413052
1691756161581143,-0.02900417,-0.12514754,0.00644046,10.49182987
1691756161585232,-0.01854350,-0.09185833,0.00597734,10.31720161
1691756161589127,0.09056427,0.19051600,-0.00128810,10.22851753
1691756161592074,-0.03618811,-0.18718798,0.00655523,10.62069798
1691756161596477,-0.04568610,-0.10280278,0.00518428,10.30685139
1691756161604029,-0.03211177,-0.01129721,0.00372031,10.47353458
1691756161604173,0.00471026,-0.02033572,0.00376413,10.44726944
1691756161607793,0.08751301,0.24197297,-0.00310387,10.17719650
1691756161610848,0.05730520,0.22592987,-0.00279580,10.31816959
1691756161614233,-0.03088682,-0.20940009,0.00556043,10.83722782
1691756161618575,-0.01323789,-0.16431698,0.00501177,10.56477070
1691756161622065,-0.00953716,-0.09423961,0.00382498,10.48034668
1691756161624902,0.00065580,-0.07072558,0.00334090,10.42971516
1691756161628577,-0.00100105,-0.04315946,0.00277277,10.42800999
1691756161633030,0.07806174,0.22011182,-0.00352608,10.12590027
1691756161636617,0.07404530,0.21453466,-0.00391720,10.01727962
1691756161640530,-0.04562831,-0.11682898,0.00279986,10.58932209
1691756161642914,-0.01906309,-0.13192549,0.00335696,10.44969273
1691756161646613,-0.00840936,-0.08587131,0.00274095,10.32983875
1691756161650322,0.06067077,0.19919786,-0.00370451,10.25944424
1691756161654415,0.07720851,0.18053113,-0.00415506,10.25376892
1691756161658277,0.00794970,0.09990700,-0.00222036,10.68036461
1691756161662129,-0.03438543,-0.25757328,0.00357749,10.63613987
1691756161666714,-0.03836616,-0.18459050,0.00239800,10.34793758
1691756161668414,-0.00651090,-0.08836389,0.00117819,10.56842995
1691756161672333,-0.00355526,-0.05458882,0.00067998,10.47152424
1691756161676750,-0.00301407,-0.01591399,0.00010944,10.29114246
1691756161680209,0.08873341,0.23976222,-0.00657275,10.19384289
1691756161682806,0.00313848,-0.12166795,0.00172499,10.73595524
1691756161687040,-0.00180977,-0.05529536,0.00059734,10.36594296
1691756161690142,-0.00878775,-0.03102163,0.00015908,10.30530262
1691756161694326,0.11345822,0.24164015,-0.00761659,9.99886894
1691756161698264,-0.00865800,-0.17515405,0.00225933,10.63519764
1691756161702678,-0.00574310,-0.10492441,0.00126596,10.40639210
1691756161705174,-0.00401078,-0.03350040,0.00000748,10.51964283
1691756161708822,0.02413179,-0.04260548,0.00029775,10.47399902
1691756161717023,0.00129666,0.01240980,-0.00065803,10.35827255
1691756161717556,-0.00668015,0.01574813,-0.00063083,10.35173607
1691756161720331,0.02408143,0.02194098,-0.00078040,10.30379486
1691756161722860,0.11047940,0.28969449,-0.00844903,10.19247913
1691756161726706,-0.01558266,-0.06629294,0.00063938,10.80918503
1691756161730322,-0.01460278,-0.04419759,0.00040697,10.50794411
1691756161734458,0.00019813,-0.03779830,0.00043809,10.44645882
1691756161738675,-0.00292619,0.01458118,-0.00041924,10.35332394
1691756161740930,0.01712879,-0.02430272,0.00034061,10.25219631
1691756161744728,0.09899906,0.21271233,-0.00641258,10.19375229
1691756161748428,0.07918230,0.21197255,-0.00700198,10.39366245
1691756161752508,-0.03705279,-0.13834678,0.00049925,10.81113148
1691756161757583,-0.03488696,-0.10187764,-0.00004050,10.47318649
1691756161762234,-0.00241720,-0.04781557,-0.00074291,10.48525620
1691756161762851,0.07568185,0.21277885,-0.00727398,10.41086864
1691756161766510,0.06330668,0.20782408,-0.00743535,10.30243015
1691756161770425,0.05374498,0.18661323,-0.00768349,10.35153103
1691756161774666,-0.04648050,-0.21530934,0.00007482,10.70962429
1691756161779003,-0.03217182,-0.13201986,-0.00079607,10.56769943
1691756161781115,-0.03166116,-0.06086344,-0.00190911,10.57518768
1691756161785727,0.01412542,-0.06169034,-0.00152899,10.65213966
1691756161789050,0.00367969,-0.02385825,-0.00211820,10.54823303
1691756161792459,-0.01194907,0.01106310,-0.00276073,10.39746094
1691756161797864,-0.01797264,0.00637643,-0.00270873,10.56487179
1691756161800074,0.00087286,-0.00464340,-0.00239203,10.44645119
1691756161804062,0.00136496,0.00300106,-0.00238914,10.50564098
1691756161806551,0.01856237,0.05784413,-0.00348259,10.28546238
1691756161810351,0.14520483,0.29655448,-0.01225566,9.99245262
1691756161815134,-0.01608467,-0.08047678,-0.00121653,10.67904949
1691756161818416,-0.03965333,-0.04269367,-0.00182691,10.75383472
1691756161822499,-0.01868899,-0.02396055,-0.00189736,10.63295555
1691756161824598,-0.00461393,-0.01281474,-0.00192854,10.55022335
1691756161828878,0.00068088,0.00252104,-0.00212711,10.59450722
1691756161832418,-0.01482456,-0.00947947,-0.00172529,10.61559677
1691756161836645,0.01752472,-0.03570510,-0.00100782,10.44627190
1691756161840911,0.09931210,0.24656497,-0.00942448,10.22473526
1691756161842831,-0.03175702,-0.11078201,-0.00030596,10.66851521
1691756161847730,-0.01923374,-0.05158735,-0.00111768,10.61785889
1691756161850459,-0.00841927,-0.02223772,-0.00146752,10.42548847
1691756161854582,0.00223330,0.02897708,-0.00229512,10.27765560
1691756161859241,-0.04141167,-0.14196756,0.00136127,10.66732883
1691756161861051,0.00332781,-0.02334893,-0.00022394,10.37264442
1691756161864714,0.00975587,0.03285321,-0.00106399,10.50390053
1691756161868414,-0.00977734,0.03378871,-0.00059808,10.66067123
1691756161872664,0.06251390,0.27642524,-0.00708621,10.26734829
1691756161876804,0.09906981,0.22297542,-0.00702817,10.26584435
1691756161879233,-0.05259968,-0.14441182,0.00187398,10.85174847
1691756161883388,-0.05169232,-0.11120416,0.00154903,10.62598038
1691756161887961,-0.03545219,-0.04383441,0.00068745,10.56472683
1691756161891760,-0.02450895,-0.03519579,0.00074931,10.57502937
1691756161894230,0.04385500,0.19882597,-0.00473586,10.36368370
1691756161898164,0.02938829,0.17440404,-0.00408091,10.33903980
1691756161901464,0.05082073,0.15488480,-0.00424056,10.22656155
1691756161905918,-0.05971251,-0.20398927,0.00309860,10.62758923
1691756161908663,-0.05409662,-0.13586475,0.00228648,10.67306805
1691756161911972,-0.02977775,-0.14913793,0.00304469,10.35095978
1691756161918745,-0.00514405,-0.06642936,0.00173942,10.40980053
1691756161919413,0.04564241,0.19846073,-0.00491317,10.40060806
1691756161928414,0.03123813,0.21347667,-0.00532720,10.39480019
1691756161929000,-0.08831507,-0.21655422,0.00313768,10.68257236
1691756161932716,-0.05802040,-0.10681312,0.00203184,10.56807899
1691756161934175,-0.04442630,-0.02235913,0.00104542,10.64228439
1691756161940816,-0.03049760,-0.00008445,0.00087730,10.47175312
1691756161941730,0.09473474,0.23038037,-0.00618676,10.17059803
1691756161949515,-0.05744673,-0.13015208,0.00332181,10.92721081
1691756161949989,-0.04089015,-0.10552724,0.00355048,10.58503151
1691756161951870,-0.04489144,-0.01779491,0.00227376,10.69161224
1691756161957002,-0.00696478,-0.04605762,0.00311722,10.65775967
1691756161959461,-0.00274568,-0.05263567,0.00350324,10.48902988
1691756161963521,-0.01860667,-0.02016673,0.00295091,10.20064831
1691756161967634,0.06216818,0.21913566,-0.00357965,10.27772999
1691756161970202,0.00848490,0.18510120,-0.00205565,10.68514538
1691756161973870,-0.05424330,-0.13695596,0.00471051,10.63721085
1691756161977855,-0.04895313,-0.09996168,0.00433833,10.66102982
1691756161981513,0.03292757,0.14226675,-0.00090669,10.55709076
1691756161985682,0.03958762,0.13904715,-0.00099983,10.49271488
1691756161988307,0.02784019,0.14026174,-0.00111405,10.34738636
1691756161992260,-0.08406045,-0.28892836,0.00680634,10.72884178
1691756161998489,-0.04843872,-0.15895872,0.00553301,10.78040600
1691756162000588,-0.04546838,-0.08249334,0.00445692,10.65121841
1691756162003084,-0.04623595,-0.06062355,0.00437911,10.52030277
1691756162006504,-0.01461842,-0.02769681,0.00407590,10.44992733
1691756162010570,0.07075612,0.21599077,-0.00244822,10.17257404
1691756162014964,-0.06134957,-0.18830153,0.00717055,10.57320976
1691756162018411,-0.04358096,-0.08004374,0.00575257,10.52584934
1691756162021130,-0.01509639,-0.06029696,0.00581137,10.49277306
1691756162024798,0.08737579,0.18807352,-0.00085531,10.27272320
1691756162028510,0.05733437,0.20905089,-0.00105484,10.39206982
1691756162032784,-0.06661540,-0.09654879,0.00608834,10.86377811
1691756162036700,-0.05766624,-0.16619408,0.00768593,10.70896912
1691756162041329,-0.06090271,-0.07727192,0.00662157,10.54249287
1691756162043905,-0.04967101,-0.05886284,0.00659439,10.42751980
1691756162047644,-0.01013642,-0.04653105,0.00678393,10.54894066
1691756162050382,-0.00269753,-0.02260870,0.00654753,10.50347900
1691756162054020,0.07554029,0.24561000,-0.00065352,10.21871090
1691756162057741,-0.04852229,-0.11555142,0.00852106,10.90534401
1691756162062338,-0.01691599,-0.10530695,0.00885924,10.66675186
1691756162068293,-0.01853010,-0.06944092,0.00833474,10.60148811
1691756162069515,0.02458506,0.20313650,0.00193168,10.37423801
1691756162072473,0.08670924,0.19685830,0.00065018,10.09918976
1691756162075733,-0.05272326,-0.19669972,0.00985201,10.60673237
1691756162083750,-0.06318404,-0.10778482,0.00850153,10.48911190
1691756162084152,-0.04762099,-0.06117501,0.00800074,10.65379238
1691756162088903,0.04857835,0.15928474,0.00284108,10.44722652
1691756162090414,0.05835307,0.11759835,0.00340899,10.30566120
1691756162093936,0.03601763,0.13933899,0.00250370,10.19418240
1691756162097652,-0.05833910,-0.19187227,0.00896830,10.71934795
1691756162103162,-0.03725149,-0.16196629,0.00894063,10.60031891
1691756162105507,-0.05615798,-0.07520001,0.00750724,10.60853863
1691756162108290,0.03704857,0.17932159,0.00183119,10.30609131
1691756162113804,0.08228388,0.10240620,0.00281821,10.17460155
1691756162116421,-0.06205099,-0.24560060,0.00976231,10.55194950
1691756162119684,-0.05907321,-0.11940861,0.00808268,10.41488075
1691756162126500,-0.02311846,-0.11757730,0.00847633,10.40362835
1691756162127642,0.01461155,-0.06699961,0.00770537,10.34726524
1691756162132616,0.06873793,0.23254138,-0.00025235,10.34397316
1691756162134546,-0.01946187,0.24326164,0.00053596,10.57140446
1691756162137533,-0.03993036,-0.15130912,0.00749431,10.50014591
1691756162141555,0.05573611,0.12308364,0.00163495,10.39530182
1691756162145033,-0.02150784,-0.10065250,0.00646564,10.41428471
1691756162150832,0.06948582,0.12680759,0.00101734,10.24804401
1691756162152821,0.11401758,0.15588312,-0.00121795,10.20878124
1691756162155538,-0.04387328,-0.18531831,0.00632839,10.67719746
1691756162159364,-0.01732315,-0.19572303,0.00709444,8.20928097
1691756162162845,0.01246954,-0.12961046,0.00605022,8.04347992
1691756162166590,0.03477436,-0.08587871,0.00512595,7.88811970
1691756162170629,0.02274184,-0.01899319,0.00373235,7.82229710
1691756162174646,0.10702091,0.31938335,-0.00578374,7.86439228
1691756162177330,0.16605926,0.29668608,-0.00721485,7.70639992
1691756162180975,-0.00664465,-0.04815412,0.00293522,8.07408810
1691756162184977,-0.01440500,-0.19638623,0.00554490,7.91399431
1691756162189707,0.03531345,-0.19203554,0.00645675,7.91757011
1691756162193006,0.05244193,0.04629059,0.00141501,8.13150787
1691756162196845,0.07147317,0.08737510,0.00048424,8.03444767
1691756162198984,0.04722119,0.05994487,0.00146782,8.16722584
1691756162202913,0.21895905,0.42060894,-0.01275379,7.77622557
1691756162207509,0.11738114,0.24585368,-0.00505395,8.42687798
1691756162210783,0.08982010,0.21302642,-0.00396869,8.53331280
1691756162217334,0.01992405,-0.06101684,0.00267431,8.50524044
1691756162218641,0.07214084,0.12089064,-0.00183507,8.64266777
1691756162224419,0.03390716,0.26172164,-0.00489625,8.66201210
1691756162224584,0.07501496,0.13081503,-0.00292890,8.71028423
1691756162228832,-0.01525610,-0.15927130,0.00301838,8.82575417
1691756162233956,0.07080045,0.10422382,-0.00278523,8.82089710
1691756162237168,0.02975562,-0.06485861,0.00127183,8.91999149
1691756162239681,0.00948206,-0.04170839,0.00115741,9.01482010
1691756162243773,0.04367581,0.13729963,-0.00332625,9.11556625
1691756162246777,0.00400277,-0.00829015,0.00019301,9.28801727
1691756162250344,0.00537686,-0.00989444,0.00072304,9.30919456
1691756162253761,0.03624829,0.13109943,-0.00310916,9.34797668
1691756162260638,0.00466654,-0.00588864,0.00046138,9.51655960
1691756162262187,-0.00043165,-0.01389653,0.00125267,9.55981159
1691756162264807,-0.01223525,-0.02385997,0.00205908,9.64125252
1691756162270457,-0.01222012,0.02787497,0.00153195,9.71792221
1691756162273595,0.07080022,0.19604287,-0.00403901,9.47592449
1691756162276653,0.03477089,0.15865280,-0.00317054,9.65816879
1691756162279237,0.01107457,0.11666410,-0.00245284,9.77015305
1691756162282850,-0.00016403,0.09079912,-0.00244487,9.82758904
1691756162288254,-0.00254452,0.07359454,-0.00265272,9.88624191
1691756162292990,-0.00901867,0.06245597,-0.00296903,9.92296886
1691756162296123,-0.01261773,0.05305566,-0.00348776,9.95090961
1691756162297434,-0.01734606,0.04727179,-0.00404130,9.99024487
1691756162301409,-0.01732049,0.04641230,-0.00464078,10.01424789
1691756162304892,-0.01986474,0.03816478,-0.00511168,10.03480625
1691756162308775,-0.01363884,0.04203016,-0.00603054,10.04861164
1691756162312947,-0.01444056,0.04331440,-0.00682039,10.06331348
1691756162316570,-0.05049167,-0.07348729,-0.00416551,10.17625332
1691756162319249,-0.04673751,-0.04808928,-0.00452743,10.16008091
1691756162322772,-0.04294043,-0.03621477,-0.00453030,10.17004490
1691756162326891,-0.04213050,-0.02731997,-0.00442427,10.19364738
1691756162332767,-0.03868506,-0.01890964,-0.00446294,10.23900127
1691756162333834,-0.03736932,-0.00100101,-0.00462547,10.27778053
1691756162337766,0.00477968,0.11090165,-0.00784673,10.28883171
1691756162341695,-0.04259703,-0.02571759,-0.00426839,10.34631824
1691756162345671,-0.03891851,-0.00647285,-0.00431196,10.37885094
1691756162348853,-0.04316951,-0.00779762,-0.00379234,10.37912178
1691756162352596,-0.04330121,0.01571232,-0.00391231,10.42989826
1691756162356134,-0.00213772,0.14691861,-0.00751978,10.54550457
1691756162361727,-0.03827884,0.02711546,-0.00420475,10.42104530
1691756162363679,-0.00600902,0.13969624,-0.00740343,10.47903728
1691756162369115,-0.02659485,0.17674619,-0.00858076,10.58075523
1691756162370111,-0.04385138,-0.02723010,-0.00368493,10.48782635
1691756162373767,-0.02262799,0.05570629,-0.00555936,10.47102261
1691756162377862,-0.01974439,0.06492440,-0.00585461,10.47208786
1691756162381983,-0.01730128,0.05137068,-0.00594849,10.48687363
1691756162385679,-0.01649942,0.03119483,-0.00572644,10.44147015
1691756162388277,-0.01864720,0.03511925,-0.00617031,10.36653137
1691756162392070,-0.05489026,-0.09911693,-0.00315692,10.44023800
1691756162396226,-0.04922687,-0.08327662,-0.00310900,10.41972446
1691756162401336,-0.04446318,-0.06220827,-0.00282855,10.45180988
1691756162404509,-0.02126469,0.04304615,-0.00531265,10.45063305
1691756162406778,-0.01004734,0.05932407,-0.00657992,10.39903641
1691756162411422,-0.04149692,-0.08891784,-0.00263031,10.45658779
1691756162414638,-0.04707066,-0.06089619,-0.00250835,10.41812992
1691756162417650,-0.04659723,-0.05791375,-0.00232106,10.42828274
1691756162421077,-0.00105785,0.03571871,-0.00459418,10.43564606
1691756162424927,-0.03895787,-0.10625408,-0.00097786,10.51232910
1691756162429118,-0.04552991,-0.05965324,-0.00162131,10.39476013
1691756162433300,-0.04411510,-0.03824036,-0.00189427,10.37936783
1691756162435660,-0.03547684,-0.03963151,-0.00144330,10.37084389
1691756162439309,-0.00276692,0.07020488,-0.00400275,10.38844490
1691756162442880,-0.04696655,-0.07807577,-0.00014065,10.38327599
1691756162446904,-0.03628492,-0.05073941,-0.00020118,10.36125851
1691756162452496,-0.00306752,0.05470956,-0.00262567,10.43080902
1691756162453671,-0.01093021,0.05500289,-0.00283619,10.38790035
1691756162462076,-0.00440876,0.03693397,-0.00290921,10.31630993
1691756162462484,-0.02575406,-0.10205847,0.00035135,10.35999107
1691756162470142,-0.02719368,-0.07684582,-0.00001577,10.32160950
1691756162470358,-0.00869019,0.01892907,-0.00220925,10.38775826
1691756162475843,-0.00735599,0.01602843,-0.00238644,10.34482384
1691756162479101,0.00293338,0.01524135,-0.00276040,10.30382729
1691756162479243,-0.03010634,-0.09906306,0.00035421,10.33978939
1691756162482797,-0.02881829,-0.06239239,0.00014088,10.28806019
1691756162487011,-0.02439356,-0.05814866,0.00036261,10.29159069
1691756162491497,0.00231847,0.00640899,-0.00094860,10.33924389
1691756162493769,0.00475756,0.03001573,-0.00164302,10.29978180
1691756162498415,-0.01185720,0.04925665,-0.00259333,10.34294224
1691756162504881,-0.01922747,-0.07022810,-0.00023318,10.29607296
1691756162505029,-0.01368237,-0.07032070,-0.00005671,10.27521133
1691756162509024,-0.01859091,-0.06604825,0.00007150,10.24208069
1691756162512011,0.00433771,-0.00422203,-0.00137285,10.25044918
1691756162515926,0.00257046,0.03466521,-0.00268012,10.30428028
1691756162520197,-0.01146954,-0.07093986,-0.00014325,10.27731609
1691756162523871,-0.01494503,-0.06414311,0.00008094,10.23535728
1691756162526588,-0.00911408,-0.06622310,0.00041981,10.24190521
1691756162530263,-0.00632044,-0.06263105,0.00061211,10.23481178
1691756162534339,0.02714599,0.02429928,-0.00136478,10.26401234
1691756162538044,-0.00830028,-0.04342969,0.00031311,10.26530552
1691756162543256,-0.00370100,-0.06224585,0.00105144,10.25774670
1691756162544588,0.02934839,0.01917044,-0.00081907,10.29164410
1691756162548966,-0.00107155,-0.04790906,0.00065245,10.23029804
1691756162552595,0.03126695,-0.00899446,-0.00030481,10.22589970
1691756162556335,0.04637602,0.01379125,-0.00157663,10.23059750
1691756162560055,0.01108195,-0.07831998,0.00055968,10.26964092
1691756162562893,0.01808357,-0.01715754,-0.00083073,10.25223064
1691756162567050,0.02349592,0.00010402,-0.00158654,10.26197433
1691756162571588,0.02669081,0.00102542,-0.00206126,10.24892616
1691756162573670,0.03157837,0.00057375,-0.00235191,10.21066093
1691756162578192,0.00344677,-0.10296374,0.00032570,10.26334190
1691756162581956,0.00683725,-0.06539574,-0.00007197,10.24090481
1691756162584690,0.03273207,0.00569824,-0.00160285,10.25922871
1691756162588385,0.03439608,0.02216212,-0.00209159,10.27424812
1691756162594672,0.02864060,0.00755985,-0.00200182,10.24458981
1691756162595957,0.04548435,0.01119633,-0.00230228,10.20386410
1691756162600301,0.02108645,-0.09887406,0.00042285,10.25715065
1691756162602953,0.00986395,-0.06567609,0.00000107,10.22398090
1691756162606480,0.01220449,-0.06467052,0.00019844,10.22508430
1691756162610022,0.03203930,-0.00341286,-0.00133273,10.24482536
1691756162613742,0.04314706,0.01780713,-0.00217904,10.22570419
1691756162617364,0.04174882,0.01934281,-0.00257868,10.19773865
1691756162621086,0.01607030,-0.07831267,-0.00025707,10.23051929
1691756162624977,0.00715661,-0.04900723,-0.00078618,10.21209431
1691756162628966,0.00758683,-0.04203095,-0.00071877,10.22270679
1691756162631802,0.03457339,0.01704154,-0.00202338,10.24850368
1691756162635869,0.05785579,0.04439332,-0.00314979,10.23234653
1691756162641781,0.01812354,-0.06249758,-0.00031250,10.28226948
1691756162643854,0.01095659,-0.05219161,-0.00007692,10.23254490
1691756162646834,0.00965883,-0.04173949,-0.00010376,10.21872902
1691756162653813,0.01511166,-0.03682280,-0.00000533,10.21558475
1691756162653969,0.05139345,0.03045505,-0.00160174,10.20885372
1691756162657526,0.06125852,0.05706565,-0.00267792,10.20287609
1691756162661000,0.02549399,-0.05664432,0.00020388,10.24909973
1691756162665101,0.04375172,0.01727606,-0.00169575,10.25446320
1691756162669066,0.01594502,-0.03650121,-0.00035548,10.22943687
1691756162672750,0.01053513,-0.03836180,-0.00016606,10.21792126
1691756162676245,0.04914724,0.02680942,-0.00233484,10.21856785
1691756162679285,0.06217355,0.05302121,-0.00391666,10.20410633
1691756162683135,0.01289843,-0.03688106,-0.00138071,10.26105404
1691756162687083,0.02748683,0.03217990,-0.00314977,10.27389717
1691756162690111,0.03541583,0.04690035,-0.00390270,10.29743004
1691756162694247,0.03188985,0.03961534,-0.00395141,10.27969551
1691756162698189,0.03632335,0.03979396,-0.00433861,10.24319839
1691756162701242,0.00696537,-0.06660346,-0.00181356,10.29673862
1691756162707864,0.00829655,-0.04867122,-0.00180657,10.25698376
1691756162709155,0.02453364,0.02119769,-0.00339187,10.27317047
1691756162712713,0.02677241,0.03874756,-0.00410331,10.27641678
1691756162715670,0.03161126,0.04271306,-0.00452596,10.26780319
1691756162719163,0.03814963,0.03554077,-0.00471771,10.22703075
1691756162722777,0.00917047,-0.07279136,-0.00182801,10.26665592
1691756162726675,0.00312678,-0.04070796,-0.00239452,10.24549294
1691756162730411,0.00884833,-0.03740807,-0.00216161,10.26151657
1691756162734339,0.03178138,0.02640715,-0.00383377,10.29450321
1691756162738294,0.03842076,0.05709778,-0.00523115,10.26700783
1691756162741076,0.00631042,-0.04314396,-0.00270507,10.31338978
1691756162744688,0.00163745,-0.02821789,-0.00293049,10.27002430
1691756162748205,-0.00332084,-0.01844320,-0.00296173,10.26514339
1691756162752629,-0.00584789,-0.01713884,-0.00278247,10.24571514
1691756162759579,0.04938838,0.06871323,-0.00534342,10.26546574
1691756162760533,0.00692308,-0.04291304,-0.00188459,10.30278873
1691756162762955,-0.00686827,-0.01449869,-0.00217170,10.25499439
1691756162766464,-0.00458796,-0.00784181,-0.00214891,10.25285339
1691756162770278,-0.00451844,-0.00404067,-0.00204371,10.24753952
1691756162774250,0.05395384,0.09558659,-0.00488390,10.22527313
1691756162778267,-0.00598857,-0.01233227,-0.00156074,10.24666977
1691756162780991,-0.00375912,-0.01738212,-0.00112964,10.25315952
1691756162785756,0.03996797,0.07022087,-0.00347405,10.31299114
1691756162789311,0.00126361,0.00486867,-0.00159547,10.27542782
1691756162793309,-0.00746580,0.00162539,-0.00147774,10.26448059
1691756162795755,0.04778855,0.08195604,-0.00428723,10.27236652
1691756162799170,0.03203833,0.10709450,-0.00522953,10.30630589
1691756162803486,-0.01021022,0.00259997,-0.00236528,10.26675701
1691756162807755,-0.01408167,-0.00255751,-0.00219099,10.26031208
1691756162814634,-0.00700094,-0.00471848,-0.00202761,10.26757050
1691756162814762,0.02539162,0.07846320,-0.00436470,10.27640343
1691756162820062,0.02971878,0.09553554,-0.00543979,10.22055054
1691756162821589,-0.00884002,-0.01620103,-0.00233164,10.26145840
1691756162825362,-0.01763578,-0.00566999,-0.00236775,10.23920345
1691756162830143,-0.01915379,-0.00371681,-0.00214196,10.23892117
1691756162831841,0.01013542,0.07143144,-0.00429153,10.28763676
1691756162836144,0.03282610,0.08316086,-0.00509517,10.27788067
1691756162839327,-0.01617248,0.01038566,-0.00297843,10.27262592
1691756162843296,-0.02411619,-0.00629198,-0.00241298,10.25967598
1691756162847261,-0.01496897,-0.01157035,-0.00214698,10.27523327
1691756162851767,-0.01231741,-0.01431723,-0.00190595,10.27763653
1691756162854370,0.01808393,0.05695077,-0.00420747,10.27646446
1691756162857418,0.00822512,0.11017316,-0.00602333,10.34645081
1691756162861590,-0.01830736,-0.00669702,-0.00305899,10.28991604
1691756162865272,-0.02361058,-0.00851054,-0.00300101,10.26515579
1691756162869324,-0.02910160,-0.00629986,-0.00294619,10.24562263
1691756162871975,0.00641288,0.06425483,-0.00508708,10.24576092
1691756162877077,0.03030463,0.08513706,-0.00644855,10.20596504
1691756162881292,-0.02021776,-0.01076682,-0.00363828,10.25466061
1691756162883298,-0.00598204,0.06287074,-0.00564740,10.28695011
1691756162887313,-0.02794294,0.00145485,-0.00409313,10.25848484
1691756162891129,-0.02815333,-0.00556480,-0.00386554,10.24216175
1691756162893444,0.01677169,0.08338438,-0.00652953,10.24155998
1691756162898214,-0.02891335,-0.02327583,-0.00335387,10.27368164
1691756162901336,-0.03130861,-0.01092031,-0.00345455,10.26280308
1691756162905427,-0.02374067,-0.01157950,-0.00326555,10.28561974
1691756162908407,-0.02845085,-0.00951150,-0.00316175,10.28075600
1691756162912771,0.00824939,0.06306613,-0.00534372,10.28903484
1691756162916641,0.02353122,0.07918305,-0.00666363,10.24028301
1691756162921157,-0.02431055,-0.02200192,-0.00384904,10.26868343
1691756162922849,-0.03552001,-0.01684783,-0.00387568,10.24637604
1691756162926873,-0.03434328,-0.01635555,-0.00375779,10.24521637
1691756162930513,-0.00093539,0.06522641,-0.00625716,10.28152275
1691756162934458,0.00917905,0.08886512,-0.00754495,10.25805950
1691756162938433,-0.03456585,-0.01780101,-0.00440992,10.27775097
1691756162941073,-0.03969546,-0.01382163,-0.00439356,10.24695206
1691756162944874,-0.03745988,-0.01425467,-0.00422916,10.26105404
1691756162949643,-0.03837819,-0.01631294,-0.00379061,10.25251675
1691756162955294,-0.00376872,0.07098428,-0.00630425,10.29306126
1691756162956828,-0.01129152,0.10792106,-0.00798191,10.36043549
1691756162962393,-0.02992883,-0.02177299,-0.00448667,10.31521606
1691756162963627,-0.03651655,-0.02294239,-0.00407416,10.28720284
1691756162967240,-0.03675789,-0.02772714,-0.00376063,10.27213860
1691756162970372,-0.03590375,-0.02472804,-0.00367685,10.25390148
1691756162975351,0.01060424,0.07960523,-0.00682171,10.26684952
1691756162977629,-0.03304384,-0.02800868,-0.00366400,10.26432133
1691756162981028,-0.03558525,-0.03144976,-0.00344287,10.27411461
1691756162984636,-0.02980168,-0.03123789,-0.00321044,10.28419685
1691756162988419,-0.00853946,0.02908705,-0.00486924,10.30136776
1691756162993363,0.00277360,0.05379472,-0.00596045,10.27391529
1691756162996582,-0.02951122,-0.05347076,-0.00313425,10.30526161
1691756162999095,-0.03029766,-0.04920585,-0.00313045,10.28846931
1691756163003504,-0.03200087,-0.04879192,-0.00292899,10.29293156
1691756163007434,-0.03150170,-0.04632590,-0.00278256,10.29101944
1691756163013227,0.00262977,0.03756220,-0.00519244,10.32649231
1691756163014578,-0.03043555,-0.03208182,-0.00319836,10.32759857
1691756163017891,-0.03450879,-0.04285044,-0.00250374,10.29998779
1691756163021565,-0.03402223,-0.03843911,-0.00236145,10.29440498
1691756163025829,-0.03149858,-0.04175765,-0.00198747,10.27315617
1691756163029368,0.00481001,0.03550375,-0.00382789,10.26856804
1691756163032570,-0.03254253,-0.05530456,-0.00095319,10.30429268
1691756163036535,-0.00712428,0.02915827,-0.00302119,10.33361053
1691756163039251,0.00206075,0.03204670,-0.00311572,10.33318043
1691756163042949,-0.02676437,-0.02878157,-0.00125069,10.29284668
1691756163047742,-0.02955532,-0.03298271,-0.00095966,10.27453709
1691756163050772,0.01045620,0.02751589,-0.00244307,10.27867603
1691756163055771,-0.02246133,-0.09112833,0.00121164,10.35222721
1691756163058329,-0.02590001,-0.06729109,0.00107560,10.33365631
1691756163062782,-0.00593112,-0.00148033,-0.00052755,10.34039211
1691756163064740,-0.01524089,-0.05134682,0.00077215,10.33632088
1691756163068851,-0.02092833,-0.05035558,0.00096927,10.29906750
1691756163073501,0.00444929,0.00713932,-0.00051334,10.28180408
1691756163076759,-0.01835377,-0.06812204,0.00136044,10.33446121
1691756163079127,-0.02021210,-0.06147391,0.00145808,10.30670929
1691756163082900,-0.00136021,0.01363198,-0.00025468,10.34480286
1691756163086867,0.00133509,0.02196109,-0.00073482,10.31840324
1691756163090177,-0.00368846,0.06139464,-0.00226527,10.37061214
1691756163094513,-0.01617264,-0.05092724,0.00069989,10.31536865
1691756163097448,-0.02245233,-0.04548231,0.00087364,10.28567982
1691756163101439,-0.01801732,-0.04722651,0.00112750,10.28934479
1691756163105614,0.00835024,-0.00143523,0.00006406,10.31344986
1691756163108305,0.01298455,0.01741508,-0.00060717,10.29677105
1691756163112954,-0.01881354,-0.08203448,0.00216414,10.33905697
1691756163116441,-0.00996290,-0.07100931,0.00227349,10.31186008
1691756163120300,-0.00497392,-0.06244660,0.00236546,10.30364990
1691756163123248,-0.01016383,-0.05298502,0.00241132,10.28619194
1691756163126572,0.02004593,0.00831039,0.00097189,10.27965927
1691756163130542,-0.00295956,-0.07907462,0.00325431,10.32083702
1691756163134599,0.01246869,-0.00030091,0.00129550,10.30957508
1691756163138308,-0.01053089,-0.04028987,0.00235106,10.27194023
1691756163140934,0.00775902,0.00011454,0.00128422,10.26702309
1691756163145909,0.02736073,0.01983204,0.00031446,10.23934937
1691756163148511,-0.00533767,-0.05394879,0.00244445,10.28742123
1691756163152602,0.00521905,0.00358698,0.00104387,10.28582954
1691756163156540,0.01329859,0.01103535,0.00063098,10.28719807
1691756163159878,-0.00482754,-0.03303842,0.00166378,10.26388836
1691756163162973,0.02048589,0.01111482,0.00060802,10.25463963
1691756163166630,0.01471364,0.02488365,0.00004903,10.27097034
1691756163170978,0.00437723,-0.06303296,0.00240699,10.28111839
1691756163174806,0.01426817,-0.00287006,0.00097857,10.28110218
1691756163178551,0.01395695,0.01514113,0.00036986,10.28378105
1691756163180996,0.01324971,0.00701470,0.00037007,10.25320816
1691756163185165,0.03060761,0.00397480,-0.00004799,10.23314285
1691756163188758,0.00638390,-0.08893682,0.00249219,10.27263641
1691756163192645,-0.00167268,-0.04868704,0.00187727,10.25708771
1691756163196855,0.01543917,-0.00618969,0.00080467,10.26417446
1691756163199087,0.02010215,0.00407122,0.00027529,10.25674057
1691756163202948,0.02563116,0.01638563,-0.00034907,10.23579121
1691756163206609,0.00342413,-0.09979519,0.00290850,10.27084446
1691756163210682,0.00212086,-0.05218539,0.00203676,10.24829578
1691756163217307,0.00244104,-0.03777039,0.00187486,10.24281311
1691756163217462,0.02507124,0.02307160,0.00048038,10.26299286
1691756163221624,0.02927894,0.02774490,0.00011068,10.23922634
1691756163225838,0.05111168,0.04868899,-0.00095510,10.20549011
1691756163228236,0.00899183,-0.02701885,0.00120154,10.25022984
1691756163231940,0.00190715,-0.02506300,0.00148177,10.24254131
1691756163235762,0.00503154,-0.02715311,0.00173017,10.23697853
1691756163239585,0.03288982,0.02933091,0.00029404,10.23666000
