timestamp,roll,pitch,yaw,norm_thrust
1704701992828874,0.19873442,0.33778119,-0.05821932,6.29927731
1704701992888829,-0.36475962,-0.66605783,-0.04953572,10.61624146
1704701992890799,-0.36944920,-0.68347961,-0.04881829,10.52314091
1704701992900847,-0.36871791,-0.68018866,-0.04770441,10.07580662
1704701992906844,-0.34996057,-0.65282589,-0.04734257,9.81110096
1704701992912878,-0.32554051,-0.61606723,-0.05009062,9.54307938
1704701992919012,-0.29535300,-0.56172019,-0.05304337,9.25985241
1704701992924815,-0.25919068,-0.47221473,-0.05301815,9.00480270
1704701992930796,-0.20636082,-0.34050095,-0.04897590,8.74075222
1704701992936870,-0.13057533,-0.17805305,-0.04272915,8.44888592
1704701992944853,-0.00920235,0.06125684,-0.03247600,8.07789040
1704701992950860,0.08164129,0.23950088,-0.02544728,7.82290506
1704701992956883,0.17171438,0.40073913,-0.02017197,7.61420965
1704701992962882,0.24680182,0.53241324,-0.01718526,7.44126701
1704701992968876,0.30500183,0.62642950,-0.01587332,7.29361677
1704701992974852,0.34597707,0.67487365,-0.01428162,7.19735622
1704701992980809,0.36692443,0.68210548,-0.01374179,7.12943411
1704701992986849,0.37075937,0.64991212,-0.01440509,7.11290646
1704701992992809,0.35602400,0.59135777,-0.01568238,7.13434410
1704701992998841,0.32125998,0.50506526,-0.01617186,7.18552732
1704701993004870,0.27515617,0.40848315,-0.01547746,7.28621864
1704701993014842,0.17679697,0.23339291,-0.01446428,7.50822544
1704701993016823,0.15892406,0.20727327,-0.01406636,7.57289743
1704701993026837,0.05458859,0.05517806,-0.01409591,7.89882612
1704701993032799,-0.00140474,-0.01660240,-0.01391845,8.12686348
1704701993038825,-0.04868312,-0.06148043,-0.01330014,8.34014034
1704701993044948,-0.08129369,-0.02298344,-0.01153962,8.45605183
1704701993050898,-0.11116540,0.01301157,-0.01328745,8.40771198
1704701993056823,-0.15513405,0.00448130,-0.01533502,8.26029968
1704701993062826,-0.19681516,-0.00810692,-0.01584998,8.08443928
1704701993068850,-0.22563422,-0.00395539,-0.01444057,7.90712404
1704701993076829,-0.24891794,0.02672327,-0.01323341,7.70346355
1704701993082986,-0.24713458,0.05485949,-0.01262866,7.59936666
1704701993088957,-0.22818413,0.07093937,-0.01181604,7.53687000
1704701993094855,-0.19716887,0.08559940,-0.01101980,7.53508472
1704701993100830,-0.15284747,0.09205415,-0.01047278,7.56709719
1704701993106830,-0.10167575,0.09232277,-0.01013827,7.65700436
1704701993112932,-0.04839346,0.08692691,-0.00976314,7.78983688
1704701993118859,-0.00449936,0.09765244,-0.00987565,7.91418314
1704701993124824,0.02953948,0.11927652,-0.01056304,7.98569965
1704701993130870,0.07505488,0.11214226,-0.01040148,7.98307276
1704701993140794,0.15454859,0.05389537,-0.01171915,7.90440941
1704701993146867,0.19188836,0.01050339,-0.01365265,7.87708092
1704701993152843,0.21088260,-0.02287449,-0.01511674,7.87407875
1704701993154831,0.21202268,-0.02905022,-0.01535527,7.86873817
1704701993164813,0.19297996,-0.04555887,-0.01500566,7.86857176
1704701993170891,0.16381717,-0.06738747,-0.01511307,7.86162138
1704701993176872,0.12382999,-0.10370065,-0.01516232,7.85616684
1704701993183024,0.07747480,-0.13213639,-0.01426280,7.88233376
1704701993188854,0.02749932,-0.14458455,-0.01286809,7.90765095
1704701993194890,-0.02951682,-0.15133795,-0.01178771,7.91132927
1704701993200849,-0.08618158,-0.15336002,-0.01103453,7.93582106
1704701993208868,-0.15410286,-0.15000391,-0.01016386,7.97385168
1704701993214857,-0.19421405,-0.13189375,-0.00926319,8.00906563
1704701993220865,-0.22714087,-0.10642701,-0.00881626,8.01962566
1704701993226854,-0.24662016,-0.07316002,-0.00855437,8.04740524
1704701993232829,-0.25003898,-0.03283453,-0.00814603,8.07734394
1704701993238839,-0.23832883,0.00691871,-0.00771132,8.08139324
1704701993244871,-0.20553555,0.04961515,-0.00744095,8.09843254
1704701993250844,-0.15691972,0.08985546,-0.00721412,8.12147617
1704701993256859,-0.10145384,0.11615929,-0.00678054,8.12601566
1704701993262854,-0.03822020,0.13208769,-0.00639239,8.14002991
1704701993272837,0.07895482,0.12219611,-0.00669526,8.15382290
1704701993278900,0.14409676,0.09636734,-0.00619676,8.14928818
1704701993284828,0.20484057,0.06182595,-0.00556032,8.16182137
1704701993290806,0.25662699,0.01903289,-0.00473819,8.17581558
1704701993296870,0.29399037,-0.03168220,-0.00476554,8.17528820
1704701993302750,0.31494102,-0.07929002,-0.00508357,8.19678783
1704701993309108,0.31669435,-0.12507766,-0.00535339,8.22213364
1704701993314851,0.29834867,-0.16148473,-0.00591468,8.23520184
1704701993320817,0.25943676,-0.18670565,-0.00654642,8.26926804
1704701993326874,0.20084639,-0.20236698,-0.00710547,8.30897141
1704701993334821,0.10609920,-0.20762959,-0.00706634,8.35681820
1704701993340770,0.02785704,-0.19859757,-0.00616466,8.38251686
1704701993346872,-0.05474642,-0.16787072,-0.00513361,8.42172241
1704701993352867,-0.13331471,-0.12526298,-0.00450297,8.45759296
1704701993358831,-0.19747487,-0.08487102,-0.00431912,8.46457672
1704701993364832,-0.25137919,-0.03474006,-0.00419326,8.47666264
1704701993370833,-0.29458645,0.01759780,-0.00413354,8.48885536
1704701993376861,-0.32426330,0.06392547,-0.00426174,8.48885155
1704701993382830,-0.32971773,0.11095107,-0.00482268,8.50810909
1704701993388962,-0.31249297,0.15043926,-0.00534994,8.52945614
1704701993398813,-0.25017771,0.17970853,-0.00537630,8.55064583
1704701993404857,-0.18871780,0.18286315,-0.00461283,8.58511162
1704701993410854,-0.11635364,0.17404428,-0.00382761,8.62717819
1704701993416797,-0.04298506,0.14754434,-0.00248184,8.65578175
1704701993422822,0.03538676,0.11262236,-0.00155140,8.70166683
1704701993428775,0.10342842,0.07390165,-0.00094665,8.73779869
1704701993434868,0.16069840,0.02710949,-0.00106917,8.74302578
1704701993440790,0.21936153,-0.02216655,-0.00164154,8.76313591
1704701993446828,0.26675195,-0.07264861,-0.00215501,8.78669357
1704701993452849,0.29151458,-0.11844960,-0.00304623,8.79265499
1704701993460842,0.30141506,-0.16986305,-0.00436516,8.81334686
1704701993466791,0.29256493,-0.20084482,-0.00540979,8.84492207
1704701993473008,0.26610115,-0.22129843,-0.00695044,8.88116837
1704701993478863,0.22519025,-0.22959708,-0.00821341,8.90318394
1704701993484848,0.16906634,-0.22083600,-0.00894777,8.94662952
1704701993490812,0.10068264,-0.19612284,-0.00891027,8.99659443
1704701993496846,0.02757072,-0.16281611,-0.00886014,9.03176403
1704701993502884,-0.04840866,-0.11331973,-0.00896575,9.08023739
1704701993508847,-0.11698609,-0.06210888,-0.00952384,9.11523151
1704701993514836,-0.18076548,-0.01238931,-0.00969346,9.11466503
1704701993524798,-0.27911520,0.08500642,-0.00981388,9.12894917
1704701993530813,-0.32054707,0.13132094,-0.01016625,9.14309025
1704701993536844,-0.34372336,0.16183293,-0.01033280,9.14013672
1704701993542792,-0.34396747,0.18966706,-0.00962999,9.16103268
1704701993548785,-0.31951559,0.20663232,-0.00859553,9.19521141
1704701993554887,-0.27791321,0.21157798,-0.00716248,9.22269821
1704701993560850,-0.21798635,0.20405097,-0.00570507,9.28045368
1704701993566848,-0.14754930,0.18638496,-0.00470072,9.34653473
1704701993572814,-0.07634468,0.15813987,-0.00404528,9.40021229
1704701993580796,0.02738271,0.10881263,-0.00439280,9.49007702
1704701993586809,0.10125233,0.06982367,-0.00527601,9.56692410
1704701993592889,0.16316923,0.03118270,-0.00696366,9.64014339
1704701993598844,0.20266521,-0.00434195,-0.00850721,9.68676853
1704701993604844,0.22297731,-0.02908342,-0.00914850,9.72546864
1704701993610827,0.23212577,-0.05306877,-0.00957992,9.74026585
1704701993616836,0.22985367,-0.08026766,-0.00961759,9.72753716
1704701993622853,0.22252226,-0.10115217,-0.00965657,9.72318745
1704701993632834,0.18287440,-0.12042732,-0.01026752,9.71334743
1704701993638831,0.14343910,-0.12188445,-0.00984846,9.70195103
1704701993644832,0.10264859,-0.11097767,-0.00937504,9.71068382
1704701993650828,0.06096105,-0.08905677,-0.00899746,9.72630215
1704701993656825,0.01618239,-0.06958111,-0.00903771,9.71554279
1704701993662812,-0.02339992,-0.03871176,-0.00920309,9.76008511
1704701993668948,-0.05911567,-0.00972960,-0.00921063,9.79140568
1704701993674817,-0.08627640,0.01294330,-0.00909524,9.80605125
1704701993680839,-0.10139154,0.03816169,-0.00898214,9.83794689
1704701993686877,-0.10583632,0.06172822,-0.00864917,9.86989689
1704701993694898,-0.09634000,0.07943977,-0.00758595,9.89902115
1704701993700868,-0.08065680,0.08491326,-0.00657254,9.90870380
1704701993706847,-0.05872334,0.08951006,-0.00548564,9.93530655
1704701993712843,-0.03262167,0.08737362,-0.00464578,9.95772457
1704701993718943,-0.00616823,0.07813101,-0.00400487,9.95987415
1704701993724854,0.02433486,0.06718325,-0.00357176,9.97594166
1704701993730838,0.05812779,0.05531280,-0.00335629,9.98918724
1704701993736868,0.08552636,0.03931855,-0.00344658,9.98590374
1704701993742824,0.10744265,0.02793399,-0.00375659,9.99543667
1704701993748845,0.12101236,0.01727718,-0.00392994,10.00366497
1704701993758831,0.12764174,-0.00327362,-0.00415394,9.99680901
1704701993764807,0.12385108,-0.00943268,-0.00438441,10.00601578
1704701993770818,0.11295331,-0.00928515,-0.00471690,10.01342201
1704701993776886,0.09639013,-0.01052453,-0.00496509,10.00231361
1704701993782813,0.07592215,-0.00450042,-0.00511717,10.00574493
1704701993788884,0.05274373,0.00334501,-0.00518664,10.00452137
1704701993794943,0.02823145,0.00469337,-0.00536142,9.98657131
1704701993800840,0.00831050,0.00916814,-0.00557083,9.98279095
1704701993806857,-0.00955139,0.01228909,-0.00575464,9.98025036
1704701993814849,-0.03278308,0.00992175,-0.00605657,9.95022202
1704701993820791,-0.03916906,0.01126332,-0.00624086,9.94547939
1704701993826850,-0.04003905,0.01498419,-0.00617481,9.93721581
1704701993832844,-0.03727048,0.02069509,-0.00597234,9.93049622
1704701993838865,-0.03256712,0.02013222,-0.00564230,9.91498184
1704701993844914,-0.02337676,0.02007816,-0.00532119,9.91848183
1704701993850845,-0.01342871,0.02170459,-0.00509240,9.92335701
1704701993856856,-0.00403860,0.02091798,-0.00493479,9.91690826
1704701993866828,0.01190831,0.02143758,-0.00492322,9.93569183
1704701993872847,0.02014345,0.02359301,-0.00517179,9.95490837
1704701993878883,0.02220443,0.02070370,-0.00533205,9.96212292
1704701993884850,0.02091204,0.02523508,-0.00546100,9.99155998
1704701993890815,0.01806431,0.02457632,-0.00585045,10.02106571
1704701993896943,0.01272176,0.01732397,-0.00621067,10.02969551
1704701993902853,0.00880882,0.01051694,-0.00654084,10.05392742
1704701993908860,0.00070897,0.00434221,-0.00687135,10.07446766
1704701993914847,-0.00892097,-0.00133782,-0.00740473,10.07512379
1704701993922847,-0.01670076,-0.00353856,-0.00783603,10.09785652
1704701993928809,-0.01893529,-0.00592511,-0.00750343,10.09234524
1704701993935066,-0.01654735,0.00002619,-0.00713373,10.10194874
1704701993940826,-0.01440478,0.00047305,-0.00656937,10.09278584
1704701993946862,-0.00835346,0.00482395,-0.00609434,10.09871769
1704701993952869,0.00185505,0.00450320,-0.00564711,10.10449600
1704701993958853,0.00991853,-0.00258278,-0.00526590,10.09329128
1704701993964854,0.02197199,-0.00716078,-0.00470914,10.10204029
1704701993974849,0.03144984,-0.01960655,-0.00423102,10.12030697
1704701993980816,0.03313391,-0.03095208,-0.00402447,10.11681747
1704701993986890,0.03314971,-0.04375591,-0.00412484,10.13075924
1704701993992866,0.03146006,-0.05362502,-0.00422235,10.14489079
1704701993998829,0.02753642,-0.06041646,-0.00418463,10.14092731
1704701994004846,0.02260466,-0.06248346,-0.00418114,10.15734577
1704701994010834,0.01712573,-0.05872267,-0.00437634,10.17357254
1704701994016852,0.01002833,-0.05621999,-0.00473263,10.17396164
1704701994022891,0.00396813,-0.04951138,-0.00497341,10.19852257
1704701994028873,-0.00169379,-0.04557670,-0.00506109,10.22500706
1704701994034864,-0.00565722,-0.04501912,-0.00534265,10.22848606
1704701994042833,-0.00524428,-0.04752791,-0.00544647,10.26826382
1704701994048806,-0.00644246,-0.05083658,-0.00563510,10.27094078
1704701994055043,-0.00301179,-0.05118853,-0.00582731,10.28950882
1704701994060848,-0.00225358,-0.05105549,-0.00572593,10.28816986
1704701994066848,-0.00091399,-0.04596725,-0.00562109,10.30714703
1704701994072862,-0.00522891,-0.04737458,-0.00555257,10.32762051
1704701994079050,-0.01203216,-0.04857709,-0.00509794,10.32265472
1704701994084895,-0.01621554,-0.04181973,-0.00469511,10.33651829
1704701994090830,-0.02049486,-0.02951614,-0.00457314,10.34424973
1704701994100845,-0.02733935,-0.02752467,-0.00438325,10.32947922
1704701994106880,-0.03133269,-0.02815083,-0.00453622,10.33829212
1704701994112918,-0.03242067,-0.03609940,-0.00502375,10.34512138
1704701994118930,-0.02917427,-0.04490352,-0.00556465,10.33185863
1704701994124882,-0.01966263,-0.05581933,-0.00585265,10.33571911
1704701994130831,-0.00911834,-0.05873134,-0.00606763,10.33646584
1704701994136971,-0.00525138,-0.06150796,-0.00626587,10.32123756
1704701994142860,-0.00230161,-0.05522106,-0.00623060,10.32611370
1704701994148869,0.00231265,-0.05187673,-0.00619332,10.32417202
1704701994154882,0.00510025,-0.04954585,-0.00630440,10.30453968
1704701994162922,0.00969047,-0.04526072,-0.00631537,10.30463219
1704701994168888,0.01157586,-0.04112542,-0.00639445,10.28247452
1704701994174791,0.01295472,-0.03094847,-0.00611680,10.27790546
1704701994180848,0.01198717,-0.02569416,-0.00551397,10.25824738
1704701994186956,0.01194184,-0.01748633,-0.00519032,10.25678062
1704701994192862,0.01302215,-0.01608466,-0.00469640,10.25711346
1704701994198861,0.01276513,-0.02005013,-0.00472012,10.23947239
1704701994204889,0.01398834,-0.02303725,-0.00500440,10.24117661
1704701994210855,0.01433660,-0.02470414,-0.00528619,10.24898148
1704701994216843,0.01203519,-0.02967415,-0.00533939,10.24336338
1704701994226881,0.00826835,-0.03921343,-0.00552142,10.26796818
1704701994232866,0.00613769,-0.04069506,-0.00545679,10.28809547
1704701994238858,0.00172106,-0.04303049,-0.00528294,10.29137611
1704701994244931,-0.00376930,-0.03931171,-0.00535219,10.31532669
1704701994250925,-0.01133852,-0.02476912,-0.00547194,10.34378815
1704701994256874,-0.02001404,-0.01891978,-0.00564639,10.35581970
1704701994262776,-0.02628466,-0.01133881,-0.00594775,10.39145756
1704701994269126,-0.03105457,-0.00506697,-0.00624917,10.42386818
1704701994274836,-0.03537193,-0.00267153,-0.00674169,10.43394279
1704701994280848,-0.03790936,0.00027804,-0.00716605,10.46204376
1704701994286904,-0.03878042,0.00634271,-0.00744992,10.48509407
1704701994294931,-0.04203587,0.01392815,-0.00794879,10.50155640
1704701994300893,-0.04405685,0.01393684,-0.00798771,10.49952984
1704701994306915,-0.04341145,0.02108801,-0.00789411,10.51363754
1704701994312846,-0.03837531,0.02403570,-0.00800224,10.52175426
1704701994318889,-0.03202953,0.02267788,-0.00810621,10.50625896
1704701994324867,-0.02619220,0.02809361,-0.00808315,10.51003838
1704701994330868,-0.02191341,0.03191008,-0.00796195,10.51188946
1704701994336880,-0.01912885,0.03073699,-0.00800183,10.49149704
1704701994342863,-0.01542990,0.03859666,-0.00789504,10.48388767
1704701994352874,-0.00672251,0.04550360,-0.00769407,10.47024918
1704701994358862,-0.00529617,0.04248885,-0.00735531,10.45004272
1704701994364851,-0.00393918,0.04632217,-0.00702749,10.44863892
1704701994370944,-0.00043304,0.05667238,-0.00703802,10.44392967
1704701994376865,0.00175483,0.06181577,-0.00726247,10.42376232
1704701994382823,0.00550705,0.07592462,-0.00743172,10.42179108
1704701994389135,0.00695275,0.07453214,-0.00754250,10.41973686
1704701994394924,0.00497121,0.07280274,-0.00744795,10.40314770
1704701994400842,0.00530458,0.07695067,-0.00744910,10.40214157
1704701994406971,0.00807704,0.08534010,-0.00737159,10.40454674
1704701994414833,0.00983739,0.08529787,-0.00746691,10.40554428
1704701994420834,0.01111646,0.08282568,-0.00737088,10.39848900
1704701994426778,0.01428238,0.09502183,-0.00732019,10.41068935
1704701994432876,0.01553611,0.10603716,-0.00725477,10.43100834
1704701994438880,0.01344092,0.10267379,-0.00722646,10.44071579
1704701994444906,0.01317103,0.10119151,-0.00713890,10.47481823
1704701994450847,0.01748072,0.10177954,-0.00715731,10.50596809
1704701994456866,0.01804366,0.09868130,-0.00688125,10.51867104
1704701994462868,0.02133793,0.10503104,-0.00673601,10.55507088
1704701994469003,0.02539887,0.10101044,-0.00679841,10.59234142
1704701994479033,0.03779328,0.08660219,-0.00696491,10.61980629
1704701994484887,0.04598710,0.08550381,-0.00687916,10.64966488
1704701994490830,0.05206852,0.07957328,-0.00681210,10.68212414
1704701994496920,0.05484597,0.06399494,-0.00665747,10.69060612
1704701994502861,0.05907191,0.05440137,-0.00659116,10.71245766
1704701994508824,0.06000877,0.04473263,-0.00646060,10.71080875
1704701994512867,0.06140956,0.04505430,-0.00655753,10.71566296
1704701994520858,0.06723309,0.04389057,-0.00615669,10.73823833
1704701994526894,0.07110269,0.04386176,-0.00589702,10.74408531
1704701994532835,0.07082457,0.03732978,-0.00550783,10.73104763
1704701994541015,0.07683320,0.02928221,-0.00495638,10.73236847
1704701994544925,0.07801691,0.02809450,-0.00484545,10.72652340
1704701994552860,0.08002542,0.02619012,-0.00517001,10.71356583
1704701994558872,0.07795265,0.02008382,-0.00547412,10.69529629
1704701994564888,0.08028883,0.01890695,-0.00574176,10.69090462
1704701994570975,0.08039890,0.01592970,-0.00601573,10.68733597
1704701994576921,0.07552285,0.01057273,-0.00654731,10.66770554
1704701994582863,0.07348903,0.00688146,-0.00684911,10.66104221
1704701994588877,0.06795400,0.01006718,-0.00710783,10.65644646
1704701994594933,0.05986777,0.00866630,-0.00717490,10.63811111
1704701994600847,0.05945793,0.01364456,-0.00685301,10.63423920
1704701994606857,0.05793174,0.01737558,-0.00665818,10.63150215
1704701994616872,0.05640933,0.01739760,-0.00651535,10.60730267
1704701994622880,0.05770197,0.01904477,-0.00636888,10.60672665
1704701994628865,0.05807124,0.02186478,-0.00600476,10.60454464
1704701994634932,0.05700800,0.02005970,-0.00576388,10.59213543
1704701994640814,0.05972457,0.01958696,-0.00534570,10.59784031
1704701994646902,0.05999712,0.01509454,-0.00496987,10.60461998
1704701994652867,0.05566388,0.00568464,-0.00492782,10.59895897
1704701994658887,0.05471932,-0.00043633,-0.00491160,10.60834312
1704701994664882,0.05346685,-0.00837780,-0.00494951,10.61924934
1704701994672875,0.04874470,-0.01555493,-0.00527575,10.62251949
1704701994678864,0.04334871,-0.02033186,-0.00551112,10.62267017
1704701994685048,0.03791654,-0.02592691,-0.00578560,10.63841057
1704701994690848,0.03226459,-0.02343604,-0.00603008,10.65163898
1704701994696901,0.02048360,-0.02109294,-0.00652373,10.65427208
1704701994702892,0.00741227,-0.02064634,-0.00668094,10.67560005
1704701994708891,-0.00444074,-0.02030076,-0.00679139,10.69633579
1704701994714887,-0.01531079,-0.01488458,-0.00709426,10.70350170
1704701994720879,-0.02264892,-0.01000370,-0.00713280,10.72906303
1704701994726903,-0.02494647,-0.00912821,-0.00692727,10.75232315
1704701994736897,-0.02775995,-0.00387324,-0.00645182,10.77040863
1704701994742862,-0.02785346,-0.00937358,-0.00623900,10.79065704
1704701994748893,-0.02507475,-0.01308791,-0.00594585,10.80475044
1704701994754865,-0.02342829,-0.01533771,-0.00555485,10.80569553
1704701994760913,-0.01565725,-0.01761971,-0.00551920,10.81813526
1704701994766771,-0.00588533,-0.01560949,-0.00569582,10.82744789
1704701994772945,0.00320094,-0.01840149,-0.00593654,10.82147503
1704701994778909,0.00847398,-0.02499684,-0.00590732,10.82609272
1704701994784906,0.01354736,-0.03047987,-0.00584187,10.82764149
1704701994790842,0.01772581,-0.02981202,-0.00596639,10.81310844
1704701994796918,0.02427066,-0.02644146,-0.00606929,10.80703545
1704701994804861,0.03019603,-0.02280476,-0.00633883,10.79000854
1704701994810871,0.02873820,-0.01864943,-0.00674604,10.78048229
1704701994816961,0.02362625,-0.02210529,-0.00726099,10.75992680
1704701994823094,0.01548671,-0.02240598,-0.00750791,10.74979305
1704701994828902,0.00854055,-0.02284021,-0.00742837,10.74246407
1704701994834906,-0.00078286,-0.02354733,-0.00710698,10.72341728
1704701994840856,-0.00692440,-0.01877680,-0.00680581,10.71660519
1704701994846914,-0.01290751,-0.01410138,-0.00667475,10.70623589
1704701994852923,-0.02099720,-0.01476650,-0.00665897,10.68586826
1704701994858879,-0.02414957,-0.01505750,-0.00626381,10.67730618
1704701994868901,-0.02716436,-0.00994807,-0.00571351,10.65596294
1704701994874853,-0.02758706,-0.01035927,-0.00551385,10.63977337
1704701994880848,-0.02672813,-0.00930479,-0.00512045,10.63445377
1704701994886872,-0.02510125,-0.00559179,-0.00467399,10.63254166
1704701994892870,-0.02491941,-0.01033321,-0.00461477,10.62301445
1704701994898815,-0.02414385,-0.01476644,-0.00477235,10.62513638
1704701994905109,-0.02121712,-0.01279068,-0.00492905,10.62748241
1704701994910873,-0.01854911,-0.01740946,-0.00508009,10.62493515
1704701994916890,-0.01246750,-0.01832222,-0.00533144,10.63209724
1704701994922904,-0.00783419,-0.01306778,-0.00565910,10.64223671
1704701994930886,-0.00420668,-0.01761420,-0.00571248,10.65289879
1704701994936870,-0.00254071,-0.02325349,-0.00602945,10.65456581
1704701994942858,-0.00379148,-0.02423398,-0.00598808,10.66609955
1704701994948885,-0.00497402,-0.02856703,-0.00608496,10.67915058
1704701994954902,-0.00666068,-0.02947854,-0.00618520,10.67739201
1704701994960901,-0.00852181,-0.01984435,-0.00629086,10.68592739
1704701994966891,-0.00773780,-0.01797092,-0.00633244,10.69898033
1704701994972887,-0.00922043,-0.01642301,-0.00661947,10.69704914
1704701994978901,-0.00958278,-0.01009676,-0.00696148,10.71094990
1704701994988891,-0.01293683,-0.00913732,-0.00696863,10.72184086
1704701994994909,-0.01539851,-0.00616104,-0.00663357,10.71781731
1704701995000857,-0.01992493,0.00467807,-0.00627165,10.72555256
1704701995006871,-0.01973111,0.00938914,-0.00594628,10.73307800
1704701995012968,-0.01932643,0.01294077,-0.00585126,10.72745705
1704701995018872,-0.01640592,0.02153835,-0.00563900,10.73360062
1704701995024843,-0.01198268,0.02334042,-0.00515268,10.73519802
1704701995030882,-0.00984801,0.01935691,-0.00470479,10.72612095
1704701995036899,-0.00253943,0.02031367,-0.00460961,10.72262287
1704701995042871,0.00566057,0.01893301,-0.00466442,10.71871662
1704701995048897,0.00948452,0.01031254,-0.00469168,10.70263290
1704701995056874,0.01215826,0.00344299,-0.00494989,10.68125820
1704701995062938,0.01572867,-0.00195023,-0.00500969,10.66632366
1704701995068924,0.01542650,-0.01317977,-0.00530669,10.65004730
1704701995074883,0.01520553,-0.02375538,-0.00572058,10.62219906
1704701995080881,0.01570687,-0.02682798,-0.00600251,10.60343933
1704701995086869,0.01580735,-0.02968139,-0.00624143,10.58595753
1704701995092886,0.01457473,-0.03136559,-0.00650385,10.55715466
1704701995098890,0.01491419,-0.03023400,-0.00659339,10.54162502
1704701995108892,0.01335594,-0.02471251,-0.00636791,10.50712109
1704701995114882,0.01104556,-0.02491210,-0.00625720,10.48657990
1704701995120849,0.01096542,-0.02440118,-0.00618391,10.47724342
1704701995126905,0.00924008,-0.01660051,-0.00605133,10.47120094
1704701995132848,0.00885611,-0.01326992,-0.00606701,10.46194458
1704701995138989,0.01260875,-0.01230880,-0.00606679,10.46687889
1704701995144917,0.01594536,-0.00396233,-0.00615116,10.47182274
1704701995150875,0.01773349,-0.00350898,-0.00619051,10.47269535
1704701995156905,0.02226631,-0.00384991,-0.00621801,10.48640537
1704701995162894,0.02532803,-0.00686885,-0.00609759,10.50039101
1704701995170862,0.02662992,-0.01176888,-0.00635356,10.52115536
1704701995176815,0.02792566,-0.01546608,-0.00661433,10.52946568
1704701995182990,0.02881362,-0.01515931,-0.00671629,10.54831600
1704701995188922,0.02935025,-0.00705684,-0.00666577,10.56724834
1704701995194965,0.02966775,-0.00924481,-0.00632061,10.57667542
1704701995200874,0.03174550,-0.00928820,-0.00590947,10.59744930
1704701995206918,0.03240308,-0.00208068,-0.00529390,10.61357594
1704701995212931,0.02732406,0.00241210,-0.00496193,10.61770153
1704701995218931,0.02248739,0.00951208,-0.00460796,10.63217735
1704701995228917,0.01409293,0.00925624,-0.00445788,10.64484978
1704701995234912,0.00587196,0.00722233,-0.00440405,10.64174175
1704701995240866,-0.00078085,0.00675684,-0.00452345,10.64822674
1704701995246877,-0.00402027,0.00937560,-0.00461222,10.65221500
1704701995252881,-0.00760948,0.00702252,-0.00481234,10.64621449
1704701995258883,-0.00778582,0.00753858,-0.00504072,10.64891815
1704701995265116,-0.00340534,0.00823989,-0.00506660,10.64976406
1704701995270876,-0.00131486,0.00425184,-0.00535759,10.64085102
1704701995276909,0.00180366,-0.00014307,-0.00559241,10.63800621
1704701995282936,0.00628956,-0.00424759,-0.00576784,10.63379478
1704701995290868,0.00853953,-0.01013287,-0.00599230,10.62225437
1704701995296816,0.00986757,-0.00955922,-0.00640423,10.60495186
1704701995303023,0.01389866,-0.00147955,-0.00672660,10.59231567
1704701995308890,0.01576069,0.00066928,-0.00683657,10.58419132
1704701995314888,0.01348186,0.00037427,-0.00703605,10.56465149
1704701995320895,0.01543331,0.00688427,-0.00715116,10.55060959
1704701995326980,0.01479489,0.00473913,-0.00719389,10.53925419
1704701995332895,0.01426182,-0.00117553,-0.00694475,10.52017879
1704701995338932,0.01320675,-0.00311529,-0.00679513,10.50857067
1704701995348892,0.00997505,-0.00813551,-0.00643405,10.49200058
1704701995354909,0.01004301,-0.01023134,-0.00620925,10.47352982
1704701995360857,0.01148175,-0.00319250,-0.00586798,10.46461391
1704701995366966,0.01413943,-0.00212502,-0.00572556,10.45971394
1704701995372882,0.01421166,-0.00328432,-0.00554242,10.44734097
1704701995378872,0.01479946,-0.00087829,-0.00544296,10.44899273
1704701995385242,0.01808975,-0.00424423,-0.00537115,10.44749928
1704701995390862,0.01835113,-0.00680204,-0.00574183,10.43690586
1704701995396935,0.02275473,-0.00124386,-0.00617164,10.43262291
1704701995402943,0.02379982,-0.00558456,-0.00656949,10.42364883
1704701995410986,0.02367264,-0.01132639,-0.00695504,10.42182159
1704701995416886,0.01917658,-0.01798356,-0.00745661,10.41283321
1704701995422831,0.01293429,-0.02748002,-0.00772601,10.41433716
1704701995429248,0.00878044,-0.03510898,-0.00777183,10.41198730
1704701995434952,0.00389941,-0.03823760,-0.00767007,10.40612316
1704701995440862,-0.00118658,-0.03782225,-0.00732772,10.41036987
1704701995446898,-0.00224401,-0.03690597,-0.00698736,10.41276550
1704701995452905,-0.00253574,-0.03422469,-0.00670742,10.40455246
1704701995458897,-0.00132078,-0.02210404,-0.00641152,10.40569115
1704701995464988,0.00122443,-0.01130390,-0.00609662,10.40417290
1704701995474867,0.00036165,-0.00257166,-0.00571501,10.39147854
1704701995480874,0.00155240,0.01114252,-0.00558149,10.38790989
1704701995487040,0.00425647,0.02039833,-0.00540783,10.39074898
1704701995492948,0.00650072,0.01987239,-0.00542390,10.38368511
1704701995498863,0.00930609,0.02268207,-0.00562040,10.38579369
1704701995505031,0.01119451,0.02504455,-0.00579846,10.38889885
1704701995510868,0.01074021,0.01848657,-0.00611106,10.38476372
1704701995516887,0.01033836,0.01630414,-0.00637937,10.38845062
1704701995523018,0.01357603,0.01235699,-0.00662322,10.39315796
1704701995528914,0.01384598,0.00064607,-0.00708864,10.39032173
1704701995536915,0.01427653,-0.01577668,-0.00724282,10.39226723
1704701995542865,0.01558028,-0.02203073,-0.00694095,10.39663410
1704701995548839,0.01491715,-0.02964971,-0.00676095,10.40360737
1704701995555012,0.01504798,-0.03926226,-0.00653342,10.39833546
1704701995560893,0.01530436,-0.03970124,-0.00628922,10.40246964
1704701995566904,0.01341130,-0.04196240,-0.00607972,10.40948105
1704701995572896,0.01065883,-0.04618300,-0.00569957,10.40403271
1704701995578922,0.00832003,-0.03831164,-0.00530159,10.40678310
1704701995584956,0.00431506,-0.03185992,-0.00499421,10.41018391
1704701995590870,0.00120260,-0.02863973,-0.00500435,10.40264511
1704701995596942,0.00051379,-0.01940649,-0.00504792,10.40077686
1704701995606893,0.00027547,-0.00105145,-0.00524906,10.39634895
1704701995612892,0.00037907,0.00407700,-0.00534154,10.38580418
1704701995618922,-0.00090731,0.01308659,-0.00523101,10.38716316
1704701995624902,-0.00306856,0.01812927,-0.00512131,10.38840389
1704701995630853,-0.00520041,0.01743509,-0.00537759,10.38142586
1704701995636894,-0.00450183,0.02075244,-0.00569606,10.38107777
1704701995642830,-0.00567153,0.02598810,-0.00583481,10.38222408
1704701995649106,-0.00832527,0.01852172,-0.00590244,10.37580585
1704701995654931,-0.00686194,0.01703655,-0.00582229,10.37806702
1704701995660943,-0.00809224,0.00759587,-0.00590764,10.37335396
1704701995666875,-0.01067751,0.00163661,-0.00597510,10.37609863
1704701995672904,-0.00968012,-0.00668274,-0.00577969,10.37522507
1704701995680871,-0.01251072,-0.02118392,-0.00554482,10.36985302
1704701995687118,-0.01410803,-0.03469062,-0.00557295,10.36724949
1704701995693040,-0.01526957,-0.04521649,-0.00541997,10.35721207
1704701995698925,-0.01392084,-0.04744350,-0.00543035,10.35651875
1704701995704930,-0.01079324,-0.04440598,-0.00539164,10.35293007
1704701995710902,-0.00782289,-0.04263473,-0.00542254,10.34147549
1704701995716903,-0.00479087,-0.03069012,-0.00532233,10.34048367
1704701995722916,-0.00307196,-0.01850292,-0.00555283,10.33832264
1704701995728926,-0.00239558,-0.00581372,-0.00587910,10.32734299
1704701995734941,-0.00032445,0.00871508,-0.00589020,10.32739067
1704701995741002,-0.00007085,0.01123075,-0.00583484,10.32802868
1704701995750851,-0.00315520,0.01456006,-0.00582686,10.31599998
1704701995756955,-0.00801085,0.01535933,-0.00608871,10.31558132
1704701995762917,-0.01428417,0.01060640,-0.00618790,10.31089783
1704701995768918,-0.02090213,0.00576128,-0.00610776,10.31231117
1704701995774969,-0.02418421,0.00945071,-0.00608240,10.31007099
1704701995780904,-0.02607204,0.00782755,-0.00603781,10.30574131
1704701995786946,-0.02840797,0.00572623,-0.00603151,10.31079483
1704701995792939,-0.02953204,0.00445750,-0.00582285,10.31365108
1704701995800894,-0.02875456,0.00879231,-0.00572414,10.31134319
1704701995806905,-0.02656960,0.01007744,-0.00582012,10.31580353
1704701995812901,-0.02308409,0.00609211,-0.00583484,10.31394768
1704701995819027,-0.01796493,0.00743572,-0.00580182,10.31988144
1704701995824886,-0.01400864,0.00950282,-0.00572756,10.32951069
1704701995830909,-0.01053029,0.00530815,-0.00560811,10.33150864
1704701995836955,-0.00716546,0.00439925,-0.00560018,10.34440327
1704701995842920,-0.00130355,0.00737070,-0.00567092,10.35523033
1704701995848926,0.00246800,0.00588841,-0.00544010,10.35925770
1704701995854939,0.00624148,0.01245155,-0.00533125,10.36868572
1704701995860926,0.00804967,0.01201890,-0.00528200,10.37088299
1704701995870863,0.01114987,0.01629211,-0.00537441,10.38625240
1704701995876951,0.01036698,0.02176852,-0.00535824,10.39580441
1704701995882875,0.01141121,0.02675487,-0.00546616,10.40250015
1704701995888901,0.01051575,0.02427547,-0.00552787,10.39885998
1704701995894875,0.01218351,0.02743071,-0.00560159,10.40175056
1704701995900885,0.01127500,0.02393580,-0.00582860,10.39390564
1704701995906912,0.01252684,0.02721419,-0.00595521,10.38941288
1704701995912908,0.01671936,0.03117789,-0.00597117,10.38429260
1704701995920880,0.01846953,0.02973966,-0.00611843,10.37348747
1704701995926969,0.02044353,0.03275237,-0.00623016,10.36592674
1704701995932869,0.02115269,0.02765952,-0.00642271,10.35296154
1704701995939076,0.02433581,0.02701586,-0.00671656,10.34924126
1704701995944961,0.02280640,0.02144710,-0.00683970,10.33907032
1704701995950855,0.02387603,0.02350408,-0.00708196,10.33472538
1704701995956950,0.02415649,0.02544058,-0.00712596,10.33001328
1704701995962923,0.02391691,0.02624686,-0.00680194,10.32875252
1704701995968947,0.02023103,0.02083399,-0.00629867,10.32105732
1704701995974916,0.01854965,0.02860004,-0.00584975,10.31659698
1704701995980906,0.01276050,0.02629302,-0.00526473,10.31043816
1704701995990862,0.00847708,0.02316948,-0.00448666,10.31555462
1704701995996901,0.00405013,0.01624072,-0.00412719,10.31832314
1704701996002986,-0.00198032,0.00642171,-0.00438020,10.32349586
1704701996008915,-0.00819152,-0.00761791,-0.00453294,10.32390690
1704701996014910,-0.01603923,-0.02156593,-0.00457843,10.33066273
1704701996020861,-0.02156999,-0.03241742,-0.00453231,10.33065128
1704701996027110,-0.02705435,-0.03638457,-0.00463760,10.33908272
1704701996032908,-0.03113518,-0.03705030,-0.00475760,10.35080528
1704701996038946,-0.03327602,-0.03878159,-0.00489078,10.35458565
1704701996044991,-0.03344287,-0.03225604,-0.00511578,10.36440563
1704701996053004,-0.03406363,-0.01981027,-0.00551480,10.37361050
1704701996056911,-0.03152165,-0.01259663,-0.00564860,10.37780571
1704701996064959,-0.02366826,0.00667323,-0.00581202,10.39230919
1704701996070897,-0.01857338,0.01107806,-0.00585950,10.39623642
1704701996076930,-0.01230709,0.02202101,-0.00593101,10.40719986
1704701996082912,-0.00507506,0.03115056,-0.00590457,10.41571331
1704701996088922,-0.00236785,0.03261235,-0.00603497,10.41775703
1704701996094985,0.00142600,0.03684156,-0.00596666,10.42615223
1704701996101000,0.00533168,0.03966586,-0.00578798,10.43015099
1704701996110919,0.00972813,0.03402328,-0.00580110,10.42403412
1704701996116880,0.01283758,0.03135832,-0.00574116,10.42689133
1704701996118941,0.01253297,0.02695490,-0.00576506,10.42261219
1704701996128920,0.01508215,0.01240038,-0.00556303,10.41858196
1704701996134955,0.01687158,0.00297223,-0.00550699,10.41367149
1704701996140924,0.01576859,-0.00698421,-0.00549208,10.40386200
1704701996147114,0.01235067,-0.01064785,-0.00552668,10.39759064
1704701996152946,0.01014303,-0.00964852,-0.00531524,10.39043713
1704701996158885,0.00815157,-0.01229154,-0.00523432,10.37816048
1704701996164940,0.00615989,-0.00858419,-0.00543074,10.37092113
1704701996170901,0.00357289,-0.00196914,-0.00554791,10.36287880
1704701996178930,0.00068494,0.00577479,-0.00598663,10.34858036
1704701996184922,0.00047952,0.00669176,-0.00642008,10.33782291
1704701996190853,0.00144565,0.01324897,-0.00665700,10.33267689
1704701996197072,0.00318973,0.01789997,-0.00679528,10.32579899
1704701996202936,0.00531789,0.02259359,-0.00708023,10.31832314
1704701996208903,0.00539835,0.01827055,-0.00710920,10.30888557
1704701996214943,0.00560054,0.01332552,-0.00701528,10.30432606
1704701996220951,0.00430465,0.00708589,-0.00663805,10.29610825
1704701996227001,0.00464000,0.00224759,-0.00643586,10.29165840
1704701996232917,0.00446162,-0.00302775,-0.00591859,10.29216099
1704701996239040,0.00234954,-0.01116269,-0.00539582,10.28954697
1704701996248910,0.00146271,-0.01073050,-0.00457764,10.29242802
1704701996250923,0.00128429,-0.00727682,-0.00442373,10.29593182
1704701996260988,-0.00297894,-0.00720634,-0.00394534,10.30631351
1704701996266970,-0.00352833,-0.00304536,-0.00391754,10.32024097
1704701996272975,-0.00280108,0.00331752,-0.00402065,10.33458900
1704701996279074,-0.00615242,0.00545355,-0.00420006,10.34503365
1704701996284865,-0.00542265,0.01167690,-0.00434185,10.36329556
1704701996290898,-0.00423605,0.01425808,-0.00458933,10.38267136
1704701996296953,-0.00439726,0.01171758,-0.00477727,10.39454937
1704701996302964,-0.00070653,0.01554684,-0.00488116,10.41133308
1704701996308929,0.00108861,0.02101993,-0.00497358,10.42958164
1704701996314929,0.00089180,0.01743503,-0.00502481,10.43947506
1704701996322966,0.00506227,0.02053568,-0.00521213,10.46216393
1704701996328962,0.00577161,0.01812706,-0.00536807,10.46655273
1704701996334940,0.00629834,0.01977789,-0.00554312,10.47624397
1704701996340899,0.00654248,0.01532056,-0.00588905,10.47608757
1704701996346965,0.00824207,0.01433384,-0.00604684,10.48023224
1704701996352931,0.01069650,0.01737684,-0.00625433,10.48158836
1704701996358932,0.00852305,0.01479448,-0.00658048,10.47653866
1704701996364937,0.00519758,0.01227012,-0.00665846,10.47608089
1704701996370916,0.00230854,0.00881251,-0.00674685,10.47312641
1704701996376961,-0.00220178,0.00440426,-0.00667321,10.46301365
1704701996382928,-0.00428119,0.00355455,-0.00664793,10.45736504
1704701996388942,-0.00650831,0.00147789,-0.00649613,10.45067501
1704701996395012,-0.01015445,-0.00036988,-0.00631085,10.43748569
1704701996404926,-0.01385493,0.00397512,-0.00554470,10.42238903
1704701996410928,-0.01520367,0.00133803,-0.00538160,10.41104984
1704701996416922,-0.01420745,0.00196076,-0.00515881,10.40472126
1704701996422905,-0.01447513,0.00649967,-0.00501449,10.39822960
1704701996428910,-0.01394247,0.00878914,-0.00514109,10.39180756
1704701996434910,-0.01468954,0.00760692,-0.00542609,10.38115788
1704701996440877,-0.01392062,0.01115417,-0.00565919,10.37528706
1704701996446951,-0.01484724,0.01117699,-0.00580776,10.37109947
1704701996450895,-0.01622102,0.00787569,-0.00608823,10.36848831
1704701996458904,-0.01709623,0.00049049,-0.00637860,10.36315060
1704701996465137,-0.01852447,-0.00279833,-0.00663235,10.36360073
1704701996470927,-0.02053050,-0.00543192,-0.00685541,10.36102772
1704701996476954,-0.02186090,-0.00454331,-0.00709753,10.36464882
1704701996482894,-0.02330812,-0.00454553,-0.00715008,10.36452484
1704701996488941,-0.02042046,-0.00068869,-0.00700737,10.37101650
1704701996496927,-0.01512121,0.00228505,-0.00641530,10.37609196
1704701996500901,-0.01282333,0.00358347,-0.00618488,10.37862396
1704701996508916,-0.00893348,0.01008728,-0.00581540,10.39252758
1704701996514977,-0.00772432,0.01004631,-0.00566347,10.39502525
1704701996520885,-0.00372434,0.01439680,-0.00553548,10.40430450
1704701996526977,-0.00180506,0.01955108,-0.00546419,10.41581726
1704701996532912,-0.00103838,0.01814552,-0.00562644,10.42101383
1704701996539025,0.00090472,0.01777425,-0.00573018,10.43222046
1704701996544998,0.00052468,0.01599686,-0.00594619,10.44172955
1704701996550914,-0.00150794,0.01206394,-0.00626997,10.44370079
1704701996556948,-0.00159247,0.00872188,-0.00636932,10.45124722
1704701996562979,-0.00241551,0.00761135,-0.00664071,10.45507812
1704701996568958,-0.00471444,0.00154997,-0.00695114,10.45192051
1704701996574922,-0.00712772,0.00097722,-0.00706455,10.45356178
1704701996581008,-0.00934543,0.00317972,-0.00690928,10.45397949
1704701996586962,-0.01364511,0.00223789,-0.00646985,10.44794559
1704701996592927,-0.01676302,0.00290555,-0.00629300,10.44128990
1704701996599028,-0.01703554,0.00848652,-0.00606577,10.44113636
1704701996608917,-0.01566020,0.01975835,-0.00546561,10.43980885
1704701996614932,-0.01376424,0.02753154,-0.00519146,10.44186211
1704701996616923,-0.01326525,0.02635144,-0.00511638,10.43849945
1704701996626953,-0.00752057,0.03656932,-0.00494584,10.44166660
1704701996632949,-0.00062847,0.04153465,-0.00518234,10.44553471
1704701996638895,0.00349573,0.03809684,-0.00522116,10.44282055
1704701996644951,0.00717725,0.03590339,-0.00520199,10.44510651
1704701996650889,0.00964063,0.03502494,-0.00532839,10.44473553
1704701996656949,0.01045206,0.02846438,-0.00539489,10.43797779
1704701996662957,0.01120754,0.02381802,-0.00551426,10.43676186
1704701996668978,0.01005555,0.01950698,-0.00576589,10.43653488
1704701996674915,0.00793051,0.01102335,-0.00603266,10.43294621
1704701996680882,0.00696360,0.00490044,-0.00615310,10.43732262
1704701996686907,0.00653564,0.00058452,-0.00634543,10.44166946
1704701996692988,0.00610183,-0.00643943,-0.00653328,10.44000340
1704701996698972,0.00703187,-0.00804995,-0.00672527,10.44602013
1704701996705154,0.00922985,-0.01144335,-0.00669951,10.45342731
1704701996710933,0.01014381,-0.01584666,-0.00652622,10.45603657
1704701996716941,0.01228718,-0.01767843,-0.00621288,10.46544743
1704701996723027,0.01277408,-0.01984000,-0.00612760,10.47564983
1704701996728950,0.01348428,-0.02409535,-0.00594522,10.48017979
1704701996734953,0.01489659,-0.02492912,-0.00575790,10.49130058
1704701996740976,0.01683922,-0.02651117,-0.00557541,10.49523830
1704701996749008,0.01852818,-0.02048914,-0.00566506,10.50919819
1704701996754920,0.02053366,-0.01757906,-0.00591229,10.51024818
1704701996760918,0.02185414,-0.00852908,-0.00616823,10.51630592
1704701996766921,0.02427355,-0.00013268,-0.00631534,10.52149200
1704701996772891,0.02570341,0.00458993,-0.00646387,10.52060032
1704701996778966,0.02296183,0.01323559,-0.00669252,10.52657604
1704701996784992,0.01876729,0.02191904,-0.00723677,10.53337574
1704701996790995,0.01478409,0.02449422,-0.00717913,10.53448391
1704701996797124,0.01065533,0.03112685,-0.00675972,10.54121590
1704701996802996,0.00751355,0.03728336,-0.00611194,10.54740906
1704701996808943,0.00351338,0.03783587,-0.00560235,10.54663467
1704701996815031,-0.00004277,0.04153748,-0.00535850,10.55007172
1704701996820923,-0.00325169,0.03828212,-0.00515784,10.54582596
1704701996826982,-0.00494021,0.03842575,-0.00501653,10.54533005
1704701996832908,-0.00516315,0.03719092,-0.00491608,10.54297161
1704701996839089,-0.00574641,0.03007186,-0.00500414,10.53274727
1704701996844957,-0.00512359,0.02789553,-0.00501745,10.52850723
1704701996850913,-0.00293271,0.02440495,-0.00518836,10.52431488
1704701996856948,-0.00087436,0.01725166,-0.00552130,10.51447296
1704701996862952,0.00192050,0.01539148,-0.00560386,10.51092529
1704701996868966,0.00532145,0.01389610,-0.00554411,10.50851345
1704701996874928,0.00763105,0.00853632,-0.00548832,10.50118732
1704701996880925,0.00813785,0.00803546,-0.00554861,10.50094509
1704701996886998,0.00866953,0.00857949,-0.00558071,10.50112057
1704701996892938,0.00821585,0.00627100,-0.00562356,10.49644566
1704701996898938,0.00770979,0.00953398,-0.00561323,10.49917698
1704701996904973,0.00829193,0.00918691,-0.00576213,10.49520206
1704701996910932,0.00870476,0.01449532,-0.00610120,10.49814892
1704701996916924,0.00709625,0.01861369,-0.00632183,10.50142097
1704701996922956,0.00412394,0.02317052,-0.00661960,10.50493717
1704701996928997,0.00178393,0.02355891,-0.00701152,10.50230408
1704701996934966,0.00047692,0.02841618,-0.00729625,10.50706863
1704701996940926,-0.00144267,0.02819437,-0.00755753,10.50503159
1704701996946970,-0.00202890,0.03203316,-0.00749003,10.51043701
1704701996952987,-0.00327081,0.03164833,-0.00722972,10.51588249
1704701996958938,-0.00497196,0.02376328,-0.00684520,10.51393890
1704701996964980,-0.00458378,0.01745544,-0.00654837,10.51842213
1704701996970940,-0.00339173,0.01122646,-0.00620549,10.52213097
1704701996976991,-0.00150532,0.00023139,-0.00579937,10.51814842
1704701996983054,-0.00097398,-0.00439862,-0.00539214,10.52081776
1704701996988996,-0.00299221,-0.01339593,-0.00499133,10.51732826
1704701996995028,-0.00196846,-0.01784140,-0.00455429,10.52070522
1704701997000918,-0.00135123,-0.01915721,-0.00444885,10.52465534
1704701997006973,-0.00095920,-0.01971723,-0.00470026,10.52827740
1704701997012937,-0.00171638,-0.02361296,-0.00501467,10.52405548
1704701997018997,-0.00113280,-0.02119457,-0.00536347,10.52595711
1704701997024922,0.00114655,-0.01608470,-0.00571102,10.52740383
1704701997030936,0.00156842,-0.01489181,-0.00598206,10.52112865
1704701997040880,0.00022867,-0.00588594,-0.00639520,10.51995659
1704701997046965,-0.00288550,0.00196770,-0.00670382,10.51978683
1704701997052968,-0.00591415,0.00707798,-0.00707663,10.51339340
1704701997058954,-0.00905961,0.01528322,-0.00721445,10.51404572
1704701997064965,-0.01214003,0.02228775,-0.00712377,10.51472759
1704701997070934,-0.01514358,0.02403820,-0.00685623,10.50862885
1704701997072928,-0.01509539,0.02642420,-0.00664065,10.51169586
1704701997082932,-0.01614758,0.03199635,-0.00563075,10.51133251
1704701997088942,-0.01730553,0.03058092,-0.00514121,10.50466251
1704701997095003,-0.01575444,0.03053769,-0.00471864,10.50444412
1704701997100895,-0.01596477,0.02374292,-0.00437575,10.49645138
1704701997106909,-0.01468506,0.01857189,-0.00421498,10.49450588
1704701997112966,-0.01042648,0.01243252,-0.00399059,10.49177456
1704701997118950,-0.00599243,0.00379898,-0.00415137,10.48219776
1704701997124907,-0.00109951,-0.00207250,-0.00439348,10.48065472
1704701997130950,0.00400425,-0.00714891,-0.00470278,10.48011780
1704701997136908,0.00782370,-0.01516420,-0.00481066,10.47347355
1704701997142965,0.00984657,-0.01698020,-0.00477155,10.47437668
1704701997148961,0.01055844,-0.01524464,-0.00465745,10.47543812
1704701997154948,0.00935946,-0.01700872,-0.00481036,10.46986961
1704701997160960,0.00900144,-0.01618694,-0.00479944,10.47149181
1704701997166917,0.00724802,-0.01580761,-0.00485186,10.47358704
1704701997172973,0.00257536,-0.01771613,-0.00475838,10.46945286
1704701997178990,0.00045469,-0.01826368,-0.00487479,10.47375774
1704701997184923,-0.00116834,-0.01735039,-0.00507859,10.47897530
1704701997190925,-0.00325633,-0.01890519,-0.00514173,10.47830009
1704701997196942,-0.00342135,-0.01645168,-0.00508269,10.48499393
1704701997203002,-0.00227484,-0.01248733,-0.00499636,10.49191093
1704701997209105,-0.00323149,-0.01160129,-0.00485661,10.49259377
1704701997215009,-0.00528618,-0.00740100,-0.00482573,10.50007725
1704701997220945,-0.00768854,-0.00650789,-0.00500267,10.50100613
1704701997226991,-0.00815265,-0.00194629,-0.00534381,10.50775146
1704701997232939,-0.00852664,0.00015948,-0.00545533,10.51379395
1704701997239093,-0.01049132,-0.00416268,-0.00544617,10.51295280
1704701997245003,-0.01174493,-0.00714330,-0.00533972,10.51824760
1704701997250930,-0.01250793,-0.00859584,-0.00543067,10.52325916
1704701997256932,-0.01168038,-0.01360936,-0.00557889,10.52215385
1704701997262967,-0.01016252,-0.01519710,-0.00564640,10.52623081
1704701997268971,-0.00873349,-0.01621260,-0.00582124,10.52995682
1704701997274952,-0.00603314,-0.02132122,-0.00596498,10.52792454
1704701997280932,-0.00306647,-0.02234992,-0.00606255,10.53039455
1704701997286976,-0.00082983,-0.02167235,-0.00610302,10.53231812
1704701997292931,0.00011431,-0.02134970,-0.00592734,10.52808380
1704701997300904,0.00191230,-0.01622835,-0.00587616,10.52522564
1704701997306933,0.00193426,-0.01167841,-0.00598486,10.52533817
1704701997312961,0.00129123,-0.00781228,-0.00601720,10.52604008
1704701997318979,-0.00060485,-0.00517700,-0.00607437,10.52240753
1704701997324915,-0.00202846,-0.00045433,-0.00616647,10.52376652
1704701997330996,-0.00370900,0.00445062,-0.00610037,10.52508831
1704701997336948,-0.00807552,0.00519726,-0.00618396,10.52235985
1704701997342907,-0.01149882,0.00767052,-0.00619130,10.52379894
1704701997348909,-0.01513227,0.00956880,-0.00618672,10.52470112
1704701997354944,-0.01860832,0.00875243,-0.00611526,10.52070808
1704701997360967,-0.01933925,0.00947151,-0.00613527,10.52195740
1704701997366909,-0.02220425,0.00856656,-0.00625245,10.52397156
1704701997372906,-0.02465029,0.00511457,-0.00629170,10.52139664
1704701997379082,-0.02790952,0.00300778,-0.00647659,10.52367687
1704701997385146,-0.02898863,0.00319829,-0.00663822,10.52574158
1704701997390948,-0.02838000,-0.00096854,-0.00666198,10.52370167
1704701997397039,-0.02630082,-0.00242209,-0.00668342,10.52559280
1704701997402970,-0.02158679,-0.00158948,-0.00638104,10.52672577
1704701997408949,-0.01613044,-0.00256356,-0.00591516,10.52264023
1704701997414963,-0.00995737,-0.00225419,-0.00566874,10.52287674
1704701997420932,-0.00513528,-0.00492444,-0.00532909,10.51827049
1704701997426973,-0.00073618,-0.00476409,-0.00508287,10.51787853
1704701997432937,0.00597785,-0.00521229,-0.00496602,10.51765633
1704701997439060,0.01059447,-0.00705206,-0.00498637,10.51208687
1704701997444964,0.01498400,-0.00493872,-0.00502212,10.51098251
1704701997450932,0.01857493,-0.00296258,-0.00516068,10.51020241
1704701997456941,0.01885010,-0.00325186,-0.00529530,10.50474739
1704701997462941,0.01806826,-0.00090203,-0.00546774,10.50333691
1704701997469018,0.01659623,0.00229562,-0.00576487,10.50136185
1704701997474960,0.01494427,0.00038842,-0.00589886,10.49470901
1704701997480914,0.01029069,0.00064563,-0.00598515,10.49222851
1704701997486962,0.00430280,0.00188804,-0.00596632,10.48959064
1704701997492938,-0.00373828,-0.00097377,-0.00615210,10.48221493
1704701997498965,-0.01096435,-0.00078248,-0.00629711,10.47984219
1704701997504986,-0.01820603,-0.00030017,-0.00625419,10.47801685
1704701997510958,-0.02345882,-0.00204178,-0.00642827,10.47099209
1704701997516966,-0.02585812,0.00145815,-0.00647554,10.46896458
1704701997522972,-0.02565191,0.00372833,-0.00657784,10.46709728
1704701997529023,-0.02700326,0.00255781,-0.00684570,10.46071625
1704701997534958,-0.02633582,0.00569753,-0.00682518,10.46044540
1704701997540998,-0.02249294,0.01030900,-0.00669483,10.46001816
1704701997550908,-0.01353285,0.01337938,-0.00615076,10.45390320
1704701997556951,-0.00616315,0.01812238,-0.00581409,10.45575523
1704701997562959,0.00146369,0.02441024,-0.00539258,10.45874310
1704701997568964,0.00737769,0.02485348,-0.00530661,10.45789623
1704701997574940,0.01264914,0.02985545,-0.00544634,10.46379566
1704701997580946,0.01411516,0.03022480,-0.00568297,10.46503639
1704701997586954,0.01466769,0.03322547,-0.00607016,10.47295761
1704701997592950,0.01457473,0.03469834,-0.00628899,10.48254776
1704701997598938,0.01338869,0.03099098,-0.00654613,10.48750401
1704701997604925,0.01424249,0.03326408,-0.00690479,10.49700069
1704701997610916,0.01602507,0.03280729,-0.00717532,10.50649261
1704701997616948,0.01567397,0.02746844,-0.00729361,10.51078510
1704701997622963,0.01622481,0.02656995,-0.00741398,10.51933289
1704701997629024,0.01635189,0.02680017,-0.00711237,10.52646255
1704701997634955,0.01578888,0.02180235,-0.00668694,10.52844906
1704701997640927,0.01451027,0.01976369,-0.00635239,10.53406906
1704701997646950,0.01254095,0.01815628,-0.00615209,10.53890705
1704701997653062,0.00878407,0.01146536,-0.00580586,10.53856754
1704701997659209,0.00508288,0.00800870,-0.00553074,10.54250526
1704701997665105,0.00144048,0.00754209,-0.00527186,10.54617882
1704701997670938,-0.00319205,0.00389816,-0.00520239,10.54597855
1704701997676972,-0.00636428,0.00541893,-0.00528632,10.54928780
1704701997682971,-0.00783363,0.00870158,-0.00523570,10.55257225
1704701997688966,-0.00945439,0.00907961,-0.00530517,10.55129147
1704701997694967,-0.01037098,0.01403240,-0.00547410,10.55287552
1704701997700976,-0.01221417,0.01278732,-0.00572607,10.54898453
1704701997709079,-0.01379580,0.01670681,-0.00615171,10.54909229
1704701997715005,-0.01450745,0.01225829,-0.00653514,10.54321575
1704701997720963,-0.01434495,0.01143640,-0.00689073,10.54010773
1704701997726987,-0.01506464,0.01157952,-0.00717514,10.53690243
1704701997732953,-0.01892116,0.00802130,-0.00749227,10.53031063
1704701997738926,-0.02151572,0.00901177,-0.00732927,10.52831554
1704701997745059,-0.02188527,0.00879345,-0.00692136,10.52686596
1704701997750987,-0.02341524,0.00668410,-0.00696292,10.52148533
1704701997756982,-0.02226770,0.00862301,-0.00689833,10.52067661
1704701997763088,-0.01915029,0.01156816,-0.00691323,10.52080059
1704701997769220,-0.01661323,0.00902558,-0.00656938,10.51757240
1704701997774976,-0.00990877,0.01031460,-0.00633037,10.52048397
1704701997780965,-0.00538766,0.00777341,-0.00606749,10.52034283
1704701997787017,0.00001947,0.00841624,-0.00585130,10.52647305
1704701997792948,0.00612464,0.01014513,-0.00555993,10.53412533
1704701997798964,0.00807239,0.00727467,-0.00524269,10.53824043
1704701997804972,0.01117736,0.00733547,-0.00528441,10.54857349
1704701997810954,0.01305000,0.00712039,-0.00541116,10.55959034
1704701997816970,0.01148120,0.00379123,-0.00565239,10.56594086
1704701997822971,0.00907648,0.00423461,-0.00579351,10.57704163
1704701997829096,0.00684033,0.00631264,-0.00604628,10.58747387
1704701997834983,0.00285157,0.00705873,-0.00613715,10.59265327
1704701997840934,0.00056705,0.01183385,-0.00635494,10.60078239
1704701997847091,-0.00070474,0.01718265,-0.00662280,10.60613155
1704701997853015,-0.00248542,0.01696081,-0.00674738,10.60513210
1704701997858980,-0.00489510,0.02205852,-0.00683403,10.60527706
1704701997864965,-0.00842807,0.02512091,-0.00679862,10.60310650
1704701997870951,-0.01228038,0.02104956,-0.00672959,10.59567451
1704701997877013,-0.01586158,0.01969063,-0.00648814,10.59079933
1704701997883088,-0.01690092,0.01558171,-0.00614844,10.58458424
1704701997892970,-0.02121734,0.00126045,-0.00581627,10.56726933
1704701997898969,-0.02139996,-0.00277024,-0.00558820,10.55830002
1704701997904964,-0.02160839,-0.00715906,-0.00518903,10.54888725
1704701997910968,-0.01832880,-0.01552076,-0.00519911,10.53571033
1704701997916969,-0.01385503,-0.01900018,-0.00558255,10.52683067
1704701997922967,-0.00925265,-0.02141659,-0.00592159,10.51885700
1704701997928968,-0.00499812,-0.02598672,-0.00627242,10.50992107
1704701997934969,0.00012626,-0.02508128,-0.00665718,10.50853443
1704701997940915,0.00232738,-0.02658483,-0.00698858,10.50619411
1704701997946951,0.00657816,-0.02366435,-0.00727830,10.51022148
1704701997953086,0.00999850,-0.01882096,-0.00759986,10.51566029
1704701997958963,0.00955704,-0.01777180,-0.00765913,10.51710510
1704701997964948,0.01048548,-0.01383287,-0.00757728,10.52268505
1704701997970940,0.01048583,-0.00911814,-0.00733488,10.52757549
1704701997977010,0.00858359,-0.00682611,-0.00700872,10.52658844
1704701997982935,0.00717518,-0.00166994,-0.00671208,10.52993011
1704701997988963,0.00692699,0.00122153,-0.00660711,10.53253365
1704701997994911,0.00614915,0.00094118,-0.00636792,10.53047752
1704701998000868,0.00717800,0.00189831,-0.00599045,10.53203773
1704701998006966,0.00827855,0.00301395,-0.00551296,10.53330517
1704701998013051,0.00924487,0.00061873,-0.00500177,10.53032207
1704701998019039,0.01308936,0.00092735,-0.00456840,10.53168106
1704701998025010,0.01650505,0.00247522,-0.00426933,10.53307533
1704701998030950,0.01906058,-0.00133202,-0.00429276,10.53056622
1704701998036986,0.02351397,-0.00368062,-0.00453219,10.53226185
1704701998042966,0.02890925,-0.00760606,-0.00470230,10.53485107
1704701998048972,0.03280805,-0.01221718,-0.00489026,10.53318214
1704701998055003,0.03466600,-0.01410675,-0.00486835,10.53473568
1704701998060958,0.03260023,-0.01934685,-0.00499789,10.53248882
1704701998066953,0.03055683,-0.02102316,-0.00524158,10.53427410
1704701998072986,0.02708216,-0.02074841,-0.00538978,10.53620434
1704701998079091,0.02275671,-0.02221449,-0.00559300,10.53493404
1704701998086997,0.01600679,-0.01662426,-0.00579607,10.53845406
1704701998092980,0.00904222,-0.01338739,-0.00588800,10.53664494
1704701998098935,0.00472879,-0.00483589,-0.00606081,10.53852177
1704701998102961,0.00105412,-0.00423405,-0.00625266,10.53528976
1704701998110952,-0.00168357,0.01068652,-0.00637784,10.53969193
1704701998116926,-0.00180122,0.01835614,-0.00680894,10.54396439
1704701998122916,-0.00144065,0.02407528,-0.00716175,10.54833508
1704701998128921,-0.00048797,0.02678023,-0.00725778,10.54938316
1704701998134944,0.00426433,0.03119205,-0.00695934,10.55254459
1704701998140990,0.00853416,0.03187292,-0.00653567,10.55160427
1704701998147086,0.01458085,0.03481026,-0.00607632,10.55221844
1704701998153162,0.02009309,0.03713429,-0.00560607,10.55158997
1704701998159142,0.02371248,0.03449956,-0.00531892,10.54721832
1704701998164986,0.02787008,0.03511379,-0.00491533,10.54487038
1704701998170962,0.03225905,0.03446970,-0.00447790,10.54107666
1704701998176997,0.03296164,0.02940681,-0.00446950,10.53284740
1704701998182957,0.03360053,0.02866805,-0.00431874,10.52648354
1704701998188990,0.03258661,0.02671532,-0.00427203,10.51895714
1704701998195019,0.02853851,0.02244944,-0.00423723,10.50791359
1704701998200948,0.02287064,0.01988421,-0.00430921,10.50046730
1704701998206978,0.01517499,0.01723779,-0.00450390,10.49316597
1704701998212977,0.00929819,0.01245548,-0.00459103,10.48306179
1704701998219007,0.00459496,0.01175601,-0.00463710,10.47567749
1704701998224977,0.00258699,0.01337344,-0.00466321,10.46878719
1704701998230958,0.00058897,0.01094072,-0.00484116,10.46044159
1704701998236998,0.00085572,0.01320283,-0.00481896,10.45726585
1704701998242964,0.00262128,0.01818579,-0.00455819,10.45562077
1704701998248976,0.00338782,0.02089390,-0.00442450,10.45254135
1704701998255004,0.00445291,0.02343589,-0.00448564,10.45203590
1704701998260963,0.00853592,0.03086080,-0.00454576,10.45762062
1704701998266972,0.01260244,0.03583331,-0.00445198,10.46554756
1704701998276993,0.01535938,0.03876951,-0.00429058,10.48163795
1704701998278985,0.01407213,0.03687698,-0.00434817,10.48332119
1704701998288962,0.01827523,0.03617674,-0.00430055,10.50326633
1704701998294967,0.02139815,0.03742399,-0.00442884,10.51583099
1704701998300946,0.02179361,0.03377831,-0.00427927,10.52618217
1704701998306954,0.02467278,0.03350275,-0.00418306,10.54040909
1704701998312958,0.02845244,0.03685756,-0.00422501,10.55441475
1704701998319011,0.02856753,0.03272499,-0.00435684,10.56453800
1704701998322948,0.02890428,0.03647313,-0.00433698,10.57432079
1704701998330936,0.02701310,0.03287908,-0.00429970,10.58547878
1704701998336980,0.02495379,0.02759704,-0.00450228,10.59021282
1704701998342970,0.02313234,0.02592052,-0.00454327,10.59504604
1704701998348965,0.01966785,0.02398063,-0.00432806,10.59698772
1704701998354949,0.01386843,0.01844793,-0.00443332,10.59459114
1704701998360960,0.01063994,0.01471360,-0.00447325,10.59206295
1704701998366982,0.00940750,0.01167347,-0.00446773,10.58741856
1704701998372943,0.00568437,0.00857848,-0.00442258,10.57995033
1704701998378996,0.00282481,0.01063653,-0.00430248,10.57240582
1704701998384981,0.00211597,0.01400272,-0.00412468,10.56301880
1704701998390946,0.00019449,0.01346903,-0.00409306,10.55144787
1704701998396991,0.00119174,0.01661016,-0.00416747,10.54106522
1704701998403086,0.00350233,0.01784370,-0.00417575,10.53113747
1704701998409177,0.00603741,0.01611386,-0.00421166,10.52075768
1704701998415192,0.00871528,0.01952880,-0.00416362,10.51350403
1704701998420958,0.00910785,0.01575492,-0.00421470,10.50552177
1704701998427016,0.01013938,0.01527298,-0.00410835,10.49976063
1704701998432976,0.01012687,0.01684371,-0.00404097,10.49538326
1704701998439131,0.00914838,0.01179746,-0.00384462,10.48931313
1704701998445012,0.01050010,0.01132049,-0.00379311,10.48703957
1704701998450969,0.01291373,0.01046322,-0.00373732,10.48552132
1704701998456982,0.01424015,0.00672044,-0.00383026,10.48208141
1704701998462992,0.01661264,0.00567955,-0.00391176,10.48280430
1704701998469033,0.01905163,0.00536034,-0.00402361,10.48493862
1704701998477078,0.02058079,0.00238011,-0.00423322,10.48917770
1704701998483020,0.02046104,0.00240755,-0.00430194,10.49535847
1704701998488994,0.01571460,0.00004499,-0.00423049,10.49959183
1704701998494984,0.01133870,0.00170355,-0.00441500,10.50756645
1704701998500988,0.00671285,-0.00097781,-0.00465386,10.51373100
1704701998506943,0.00149225,-0.00070133,-0.00483511,10.52475929
1704701998512954,-0.00365690,-0.00123026,-0.00472187,10.53750610
1704701998519058,-0.01009059,-0.00515071,-0.00448281,10.54839897
1704701998524941,-0.01332945,-0.00498095,-0.00435798,10.56077385
1704701998531014,-0.01424992,-0.00536437,-0.00448950,10.57160187
1704701998537186,-0.01570123,-0.00946099,-0.00443792,10.57854176
1704701998543135,-0.01535812,-0.00853806,-0.00444937,10.58535480
1704701998549180,-0.01465954,-0.00906680,-0.00456271,10.58988762
1704701998555044,-0.01538373,-0.01391661,-0.00457880,10.59097195
1704701998560979,-0.01563775,-0.01583299,-0.00442810,10.59202480
1704701998567006,-0.01651704,-0.01727406,-0.00438517,10.59134579
1704701998572981,-0.01731548,-0.02123411,-0.00449751,10.58820629
1704701998578999,-0.01697451,-0.02001485,-0.00452390,10.58412552
1704701998585007,-0.01620295,-0.01662853,-0.00448993,10.57882881
1704701998590958,-0.01545727,-0.01719260,-0.00447200,10.57207680
1704701998597030,-0.01123030,-0.01170710,-0.00440017,10.56536770
1704701998603036,-0.00691650,-0.00487483,-0.00437621,10.55926037
1704701998609039,-0.00294007,-0.00293975,-0.00450225,10.55239868
1704701998614988,0.00271796,0.00296317,-0.00441065,10.54612637
1704701998620969,0.00491084,0.00333702,-0.00416161,10.53907776
1704701998626998,0.00828065,0.00797629,-0.00430699,10.53268051
1704701998632962,0.00959971,0.00516155,-0.00445370,10.52538013
1704701998639003,0.01059867,0.00655567,-0.00456946,10.51896858
1704701998645049,0.01260295,0.00781336,-0.00454182,10.51311874
1704701998650973,0.01355733,0.00409176,-0.00429584,10.50688171
1704701998656994,0.01380666,0.00467305,-0.00418792,10.50401592
1704701998663018,0.01344394,0.00505372,-0.00432868,10.50162888
1704701998669050,0.01151789,0.00720641,-0.00458488,10.49980354
1704701998678003,0.00448172,0.00465080,-0.00455443,10.49561596
1704701998685472,0.00071541,0.00410404,-0.00461957,10.49300194
1704701998691475,-0.00409695,0.00701727,-0.00490087,10.49174786
1704701998697517,-0.00912150,0.00825824,-0.00491979,10.49080753
1704701998703482,-0.01297224,0.00599065,-0.00498173,10.48642921
1704701998709474,-0.01547957,0.00847402,-0.00508063,10.48535442
1704701998715472,-0.01683348,0.00684460,-0.00516492,10.48196220
1704701998721494,-0.01609140,0.00530431,-0.00508503,10.48245907
1704701998727508,-0.01601845,0.00185510,-0.00498293,10.48378277
