timestamp,roll,pitch,yaw,norm_thrust
1704701147627586,-0.04108196,0.24949485,-0.05537352,6.37861729
1704701147685710,0.08440544,-0.53425854,-0.04704956,10.77436638
1704701147691629,0.08697718,-0.55120516,-0.04620843,10.49480534
1704701147697620,0.07182559,-0.54014856,-0.04489852,10.22153091
1704701147703608,0.05624847,-0.52524388,-0.04336777,9.93830681
1704701147709609,0.05139329,-0.49924445,-0.04263500,9.65697861
1704701147719605,0.06818409,-0.41724390,-0.03902512,9.18453503
1704701147725659,0.07582875,-0.32012707,-0.03639712,8.90150166
1704701147731729,0.07725748,-0.19196016,-0.03521471,8.61426163
1704701147737563,0.07060134,-0.04668587,-0.03457577,8.35145855
1704701147743631,0.06181507,0.10022144,-0.03402676,8.11244392
1704701147749661,0.04939505,0.24388784,-0.03353188,7.92327833
1704701147755567,0.03526584,0.37788138,-0.03336586,7.76965523
1704701147761657,0.01408811,0.49679902,-0.03336031,7.62817717
1704701147767594,-0.01682855,0.58006132,-0.03309082,7.51886654
1704701147773653,-0.05788651,0.62272453,-0.03378231,7.42948914
1704701147779622,-0.10782616,0.61498314,-0.03466249,7.35650969
1704701147787565,-0.17318824,0.52058256,-0.03404453,7.31531763
1704701147793723,-0.22364494,0.40195414,-0.03260493,7.30996132
1704701147799595,-0.25990915,0.26490051,-0.03095512,7.34818983
1704701147805635,-0.27943200,0.11887024,-0.02884506,7.42887449
1704701147811609,-0.28066134,-0.01935476,-0.02664825,7.53513145
1704701147817587,-0.26005104,-0.13508770,-0.02559010,7.68657160
1704701147823700,-0.22454751,-0.22419548,-0.02549264,7.87228203
1704701147829589,-0.18898569,-0.27524418,-0.02592643,8.05682564
1704701147835614,-0.16397151,-0.25194842,-0.02780733,8.18875313
1704701147841630,-0.11822915,-0.21435682,-0.02650398,8.17788982
1704701147851626,0.03645423,-0.13661307,-0.01962064,7.97910118
1704701147857573,0.13535395,-0.07135907,-0.01968385,7.83094883
1704701147863636,0.21533152,0.00377916,-0.01932386,7.68777180
1704701147869570,0.27965224,0.07844570,-0.01844460,7.58930254
1704701147875591,0.32474428,0.14733273,-0.01777215,7.53371286
1704701147881644,0.34894976,0.19615425,-0.01717236,7.51672745
1704701147887607,0.35691470,0.22628863,-0.01737701,7.55484247
1704701147893817,0.34334359,0.23170812,-0.01857567,7.62569714
1704701147899636,0.31688252,0.21330777,-0.02067107,7.72974157
1704701147905679,0.27378252,0.16732207,-0.02353161,7.85168314
1704701147913684,0.18732290,0.06402840,-0.02761228,8.00228024
1704701147919598,0.09480644,-0.04090419,-0.02947516,8.06058216
1704701147925611,-0.01610407,-0.17578965,-0.03022313,8.05430317
1704701147931559,-0.13441435,-0.32029337,-0.02962612,8.01209068
1704701147937551,-0.24662414,-0.45331231,-0.02777819,7.98223257
1704701147943623,-0.34371275,-0.56699091,-0.02552957,7.95714045
1704701147949611,-0.41862956,-0.63662475,-0.02415813,7.95978546
1704701147955659,-0.47176468,-0.65506893,-0.02342436,7.95273066
1704701147961679,-0.49430454,-0.61378306,-0.02283121,7.90974426
1704701147967582,-0.47993866,-0.51553160,-0.02165216,7.87930965
1704701147973626,-0.43387622,-0.37916225,-0.01968057,7.86531162
1704701147983590,-0.30893517,-0.12197763,-0.01555207,7.87934399
1704701147989599,-0.21249482,0.04365252,-0.01156672,7.92464018
1704701147995611,-0.11630674,0.20129657,-0.00798645,7.94127131
1704701148001732,-0.00403909,0.35914814,-0.00338507,7.90437317
1704701148007589,0.12274777,0.51538604,0.00095968,7.87476730
1704701148013617,0.25420383,0.65835696,0.00538343,7.85169983
1704701148019503,0.37561810,0.75278801,0.00879966,7.83032274
1704701148025855,0.48624688,0.80822402,0.01204887,7.83908796
1704701148031645,0.55923492,0.80660725,0.01362961,7.86623049
1704701148037683,0.60878873,0.74404311,0.01338036,7.89634800
1704701148045601,0.63116783,0.59299672,0.01087435,7.98757505
1704701148051702,0.61587626,0.43064511,0.01002752,8.06302929
1704701148057558,0.57085258,0.25434792,0.00890187,8.17005253
1704701148063778,0.49468535,0.06587559,0.00812587,8.29909325
1704701148069588,0.40028033,-0.09476103,0.00875193,8.41417599
1704701148075622,0.28279471,-0.20344861,0.01079007,8.48803711
1704701148081736,0.14496088,-0.29998294,0.01218407,8.45212746
1704701148087594,0.00022636,-0.40117255,0.01269572,8.38113308
1704701148093612,-0.15341279,-0.49948123,0.01237735,8.29783630
1704701148099614,-0.29682124,-0.56963766,0.01192970,8.21731091
1704701148105662,-0.41355550,-0.58640695,0.01164333,8.17614746
1704701148115677,-0.53229940,-0.53209543,0.00918246,8.17313004
1704701148121661,-0.56259447,-0.46980324,0.00971460,8.20190239
1704701148127574,-0.55476743,-0.38145933,0.00889171,8.27231884
1704701148133617,-0.51218396,-0.27859569,0.00840338,8.37151051
1704701148139623,-0.44197488,-0.18401384,0.00842147,8.47019768
1704701148145570,-0.33482677,-0.09570130,0.00884102,8.55631351
1704701148151652,-0.20303975,-0.00485375,0.00801790,8.58004093
1704701148157593,-0.07502033,0.09643424,0.00711598,8.55825615
1704701148163670,0.05441159,0.19831744,0.00735337,8.52045822
1704701148169605,0.17611164,0.28380308,0.00802327,8.47719860
1704701148173636,0.25789303,0.33598635,0.00914105,8.46386719
1704701148183670,0.45517260,0.43763134,0.01065139,8.48415279
1704701148189637,0.53591943,0.45852935,0.01175686,8.48220062
1704701148195543,0.59413910,0.44404745,0.01085822,8.51217461
1704701148201776,0.61730444,0.38421482,0.00921441,8.53183746
1704701148207602,0.61025059,0.29340604,0.00724805,8.57516098
1704701148213660,0.57158560,0.16888937,0.00440754,8.62290859
1704701148219614,0.50357932,0.02649169,0.00116142,8.66155624
1704701148225655,0.41135684,-0.12858655,-0.00137655,8.72167873
1704701148231662,0.30016905,-0.27565563,-0.00275548,8.78894234
1704701148237588,0.17952204,-0.39933696,-0.00359544,8.84385586
1704701148247604,-0.01349385,-0.50397050,-0.00281198,8.87681198
1704701148253582,-0.13205156,-0.53056300,-0.00081615,8.85354710
1704701148257617,-0.21350712,-0.53637254,-0.00000945,8.82884026
1704701148265640,-0.35242546,-0.50308561,-0.00032863,8.79260731
1704701148271637,-0.42295289,-0.44049066,0.00003796,8.79369354
1704701148277587,-0.46214610,-0.36207628,-0.00094306,8.80211830
1704701148283651,-0.46738005,-0.26370510,-0.00146687,8.84587955
1704701148289614,-0.43810296,-0.16903949,-0.00150598,8.90464497
1704701148295774,-0.38250929,-0.08307561,-0.00134059,8.95677090
1704701148301637,-0.30390221,-0.00258081,-0.00140057,9.02483463
1704701148307606,-0.20855439,0.07639331,-0.00164950,9.08903313
1704701148313663,-0.10457043,0.15113986,-0.00119588,9.12885189
1704701148321639,0.04704558,0.24423105,0.00053792,9.17616081
1704701148327598,0.16189340,0.30186930,0.00329223,9.20910168
1704701148333639,0.27115095,0.34530473,0.00574478,9.23521900
1704701148339607,0.36513001,0.36851332,0.00744689,9.24212742
1704701148345694,0.45246920,0.37149522,0.00850150,9.26153469
1704701148351636,0.51742655,0.34767884,0.00937598,9.28106499
1704701148357602,0.55702823,0.29696557,0.00962412,9.28756046
1704701148363668,0.57083035,0.22131902,0.00854236,9.30742836
1704701148369599,0.55514610,0.13129520,0.00674954,9.32898712
1704701148375652,0.50530529,0.03402933,0.00493037,9.33994961
1704701148381661,0.42716762,-0.05881646,0.00372936,9.36731911
1704701148387612,0.33322865,-0.13726954,0.00269348,9.39736271
1704701148393651,0.22613114,-0.20055753,0.00110292,9.41808987
1704701148403587,0.04194383,-0.25737011,-0.00230026,9.46913719
1704701148409603,-0.06537887,-0.26523677,-0.00342568,9.50692463
1704701148415586,-0.16514589,-0.25798351,-0.00448477,9.53165054
1704701148421606,-0.25156900,-0.23034400,-0.00545022,9.56976795
1704701148427618,-0.31938222,-0.19049391,-0.00677769,9.60742092
1704701148433611,-0.36436296,-0.14953393,-0.00833077,9.62768078
1704701148439603,-0.38398749,-0.10283133,-0.01005008,9.66115952
1704701148445586,-0.37674752,-0.05602066,-0.01084483,9.69264412
1704701148451619,-0.34387612,-0.01542795,-0.01039630,9.70589828
1704701148457632,-0.29049569,0.02207705,-0.00925627,9.73355484
1704701148463773,-0.22548272,0.05267630,-0.00850957,9.75787735
1704701148469591,-0.15956640,0.07028820,-0.00833293,9.76187992
1704701148475671,-0.08446035,0.08538628,-0.00846421,9.77615166
1704701148481668,-0.01474702,0.08700506,-0.00838886,9.76948833
1704701148489631,0.06518499,0.08177682,-0.00860495,9.77545357
1704701148495578,0.10935760,0.06602494,-0.00880682,9.75625801
1704701148501615,0.14184731,0.04732727,-0.00935488,9.74735069
1704701148507760,0.16005795,0.02649900,-0.01025058,9.73743916
1704701148513727,0.16177455,0.00077513,-0.01151599,9.71810913
1704701148519589,0.15158181,-0.02444297,-0.01237443,9.71147251
1704701148525654,0.13106236,-0.04853709,-0.01257590,9.70425892
1704701148531691,0.09863482,-0.07032808,-0.01285299,9.68852520
1704701148537603,0.05903519,-0.08274733,-0.01262596,9.68278790
1704701148543646,0.01034610,-0.09426355,-0.01192060,9.66722870
1704701148553648,-0.06900344,-0.08959953,-0.01129013,9.65749836
1704701148559631,-0.11618935,-0.07963762,-0.01147822,9.65598679
1704701148565632,-0.16288751,-0.06033477,-0.01215869,9.65582943
1704701148571769,-0.20230670,-0.04374395,-0.01301904,9.64827633
1704701148577574,-0.22826159,-0.02445301,-0.01362418,9.65724087
1704701148583652,-0.24303497,-0.00830608,-0.01386451,9.65539837
1704701148589620,-0.24463756,0.01111897,-0.01409413,9.66841412
1704701148595587,-0.23204596,0.02474038,-0.01336046,9.68665218
1704701148601812,-0.20702507,0.03506895,-0.01218456,9.69167709
1704701148607620,-0.17406777,0.04205858,-0.01106916,9.71290874
1704701148613665,-0.13701305,0.04735309,-0.01021378,9.73387241
1704701148621628,-0.08204849,0.04526405,-0.00933738,9.75532436
1704701148627574,-0.04695169,0.03860914,-0.00915478,9.77843380
1704701148633643,-0.01042159,0.02437135,-0.00961048,9.78239059
1704701148639634,0.01544129,0.00826928,-0.01032159,9.80094624
1704701148645669,0.03353129,-0.00860927,-0.01107180,9.81940651
1704701148651644,0.04337134,-0.02657904,-0.01158468,9.82630730
1704701148657614,0.04428506,-0.04387981,-0.01153741,9.85152435
1704701148663667,0.03732063,-0.05909476,-0.01122933,9.87734890
1704701148669596,0.02613138,-0.07083908,-0.01077850,9.88897610
1704701148675641,0.00980261,-0.07654611,-0.01034517,9.91431713
1704701148681662,-0.01081593,-0.08108234,-0.00988997,9.92674732
1704701148691771,-0.04518382,-0.07207341,-0.00950886,9.97343445
1704701148697623,-0.06006208,-0.05430058,-0.00944412,10.00397968
1704701148703640,-0.07186533,-0.04129584,-0.00918906,10.01585770
1704701148709603,-0.07898334,-0.01472943,-0.00891305,10.04511738
1704701148715627,-0.08335034,0.00783262,-0.00878302,10.07791996
1704701148721657,-0.08270932,0.01748080,-0.00866857,10.09027290
1704701148727594,-0.07672712,0.02907235,-0.00857802,10.12205601
1704701148733648,-0.06739017,0.03033481,-0.00845931,10.15159130
1704701148739712,-0.05794679,0.02482513,-0.00856326,10.16337395
1704701148745636,-0.04834147,0.01567801,-0.00878823,10.19561672
1704701148751622,-0.03908276,-0.00483749,-0.00878270,10.22978973
1704701148759612,-0.02635928,-0.04081134,-0.00843988,10.25778961
1704701148765622,-0.01423755,-0.07000843,-0.00815785,10.28109646
1704701148771646,-0.00337929,-0.09474261,-0.00832077,10.27972221
1704701148777648,0.00389495,-0.11139764,-0.00856486,10.28866386
1704701148783641,0.01057199,-0.12801588,-0.00835061,10.27893162
1704701148789658,0.01697952,-0.14110646,-0.00821878,10.28150654
1704701148795657,0.02266283,-0.15022029,-0.00793494,10.27489662
1704701148801658,0.02612010,-0.15242909,-0.00765740,10.24919128
1704701148807641,0.02669387,-0.14872906,-0.00738316,10.23935604
1704701148813685,0.02555657,-0.14161454,-0.00712499,10.22519779
1704701148819598,0.02378317,-0.13118969,-0.00684949,10.19456577
1704701148829633,0.02237860,-0.09532493,-0.00596600,10.16278648
1704701148835601,0.01822671,-0.07434707,-0.00553870,10.14857769
1704701148841652,0.01219770,-0.05934025,-0.00544883,10.12010574
1704701148847607,0.00644835,-0.04706522,-0.00554009,10.10556126
1704701148853640,0.00096928,-0.03669731,-0.00620236,10.09550858
1704701148859614,-0.00387596,-0.02983958,-0.00694130,10.07787514
1704701148865738,-0.00709813,-0.02344790,-0.00783278,10.07718277
1704701148871675,-0.00688099,-0.01973191,-0.00838476,10.07998466
1704701148877581,-0.00442571,-0.02103380,-0.00869817,10.06965923
1704701148885635,0.00629811,-0.02501723,-0.00840286,10.09064865
1704701148891757,0.01344360,-0.03132831,-0.00814312,10.08963680
1704701148897618,0.02120066,-0.03562272,-0.00754787,10.10757065
1704701148903630,0.02765884,-0.04020786,-0.00704498,10.10552120
1704701148909696,0.03420161,-0.04231329,-0.00627174,10.11887455
1704701148915655,0.04065501,-0.04230141,-0.00523276,10.13653374
1704701148921679,0.04475213,-0.04705617,-0.00440027,10.14332294
1704701148927605,0.04783485,-0.04880538,-0.00386151,10.17391300
1704701148933671,0.05073907,-0.05020107,-0.00338143,10.20078850
1704701148939658,0.05439417,-0.05457696,-0.00318775,10.20988655
1704701148945644,0.06040404,-0.05062369,-0.00328718,10.23689842
1704701148951669,0.06597170,-0.04183303,-0.00364359,10.27076530
1704701148961710,0.06924852,-0.03071829,-0.00400457,10.30204582
1704701148967629,0.07073318,-0.02042972,-0.00438466,10.33262348
1704701148973630,0.07072102,-0.01247691,-0.00490835,10.36207294
1704701148979685,0.07037812,-0.01199821,-0.00575542,10.37156010
1704701148985636,0.07156292,-0.00706126,-0.00624459,10.39984417
1704701148991584,0.07176724,-0.00668138,-0.00656148,10.42511940
1704701148997764,0.07225821,-0.01078577,-0.00699933,10.42249775
1704701149003651,0.07344176,-0.00712042,-0.00736349,10.43197060
1704701149009647,0.07422893,-0.00676320,-0.00758965,10.44148064
1704701149017595,0.07503883,-0.00941412,-0.00753169,10.44084644
1704701149023712,0.07793224,-0.00548680,-0.00743553,10.44275856
1704701149029635,0.07687386,-0.00471319,-0.00730873,10.42432308
1704701149035596,0.07740124,0.00087747,-0.00713906,10.42490482
1704701149041867,0.07903083,0.00282420,-0.00678925,10.42054939
1704701149047667,0.08083406,0.00415311,-0.00653074,10.40001297
1704701149053651,0.08435737,0.01567395,-0.00617381,10.39411831
1704701149059701,0.08237836,0.01878451,-0.00610866,10.37355042
1704701149065659,0.08081320,0.02387403,-0.00600648,10.36882782
1704701149071668,0.07836945,0.02301350,-0.00591536,10.36659241
1704701149077717,0.07278957,0.01647182,-0.00596600,10.35192680
1704701149083653,0.06957974,0.01195075,-0.00623759,10.35492134
1704701149093617,0.06376176,0.02002536,-0.00666520,10.35249710
1704701149099749,0.05723399,0.01589150,-0.00682589,10.34467316
1704701149101653,0.05625232,0.01696769,-0.00685158,10.35472965
1704701149111631,0.05147304,0.01335286,-0.00693813,10.36411476
1704701149117589,0.04825943,0.01050549,-0.00705384,10.35924053
1704701149123629,0.04771966,0.01333010,-0.00720424,10.36896801
1704701149129652,0.04909125,0.01262062,-0.00727878,10.37910271
1704701149135819,0.04603704,0.00526065,-0.00709737,10.37383461
1704701149141655,0.04310426,0.00090870,-0.00693133,10.38855076
1704701149147652,0.03883649,0.00359297,-0.00682215,10.39982796
1704701149155667,0.03630663,0.00721198,-0.00692942,10.41103554
1704701149161676,0.03587922,0.00661919,-0.00701423,10.41565037
1704701149167592,0.03907282,0.00959271,-0.00703326,10.43653679
1704701149173632,0.04108394,0.02428298,-0.00720837,10.45528889
1704701149179764,0.04203892,0.03288003,-0.00758360,10.46538258
1704701149185619,0.04752615,0.04573099,-0.00772717,10.49373150
1704701149191649,0.05555993,0.05907813,-0.00800571,10.52068329
1704701149197632,0.05984681,0.06613791,-0.00821017,10.53408146
1704701149203628,0.06582042,0.07797467,-0.00846958,10.56119156
1704701149209784,0.07524673,0.08479920,-0.00868426,10.58434677
1704701149219646,0.08554263,0.07622660,-0.00888857,10.60132504
1704701149225639,0.09008837,0.07023954,-0.00914365,10.61776352
1704701149227625,0.09169502,0.06662229,-0.00913381,10.62697697
1704701149237617,0.08610000,0.03736443,-0.00936206,10.63303852
1704701149243613,0.07931951,0.01769546,-0.00935946,10.64380074
1704701149249688,0.06956979,-0.00243563,-0.00937431,10.65544796
1704701149255798,0.05798237,-0.02511682,-0.00914759,10.65074921
1704701149261605,0.04583839,-0.03320939,-0.00908705,10.65611935
1704701149267653,0.03197287,-0.04316924,-0.00910136,10.66456509
1704701149273697,0.02123908,-0.05539564,-0.00910591,10.65711403
1704701149279739,0.01374738,-0.05112483,-0.00919801,10.65991974
1704701149285656,0.01058186,-0.04662260,-0.00938329,10.66380215
1704701149293691,0.00886356,-0.03910304,-0.00945226,10.65778160
1704701149299628,0.01017457,-0.03506924,-0.00935295,10.64585495
1704701149305551,0.01529405,-0.02596063,-0.00934665,10.64534664
1704701149311834,0.02133817,-0.02018938,-0.00919366,10.63986874
1704701149317637,0.02842764,-0.01298219,-0.00926594,10.62096691
1704701149323660,0.03796032,-0.00595073,-0.00923984,10.61295128
1704701149329639,0.04593120,0.00579326,-0.00936018,10.59891415
1704701149335654,0.05144728,0.00994261,-0.00944863,10.57869720
1704701149341679,0.05239126,0.01226424,-0.00926376,10.56868362
1704701149347642,0.05014428,0.01509388,-0.00923118,10.55788136
1704701149357618,0.04631395,0.00897495,-0.00919957,10.53486633
1704701149363694,0.04149369,0.00808728,-0.00928522,10.52884674
1704701149369623,0.03686175,0.00563139,-0.00934014,10.52553082
1704701149375658,0.03109019,0.00330511,-0.00945760,10.51255989
1704701149381637,0.02613804,0.01073680,-0.00939424,10.51246834
1704701149387621,0.02619002,0.01489509,-0.00934511,10.51680851
1704701149393639,0.02460853,0.01470825,-0.00923421,10.51671028
1704701149399805,0.02517528,0.01853668,-0.00916028,10.52924156
1704701149405705,0.02609661,0.01811273,-0.00880674,10.54778671
1704701149411646,0.02596143,0.01258588,-0.00850647,10.55720425
1704701149419633,0.02558634,0.00595232,-0.00810336,10.57792377
1704701149425636,0.02280462,0.00055266,-0.00793905,10.60332298
1704701149431633,0.01952784,0.00023657,-0.00762322,10.62339783
1704701149437597,0.01492846,-0.00356076,-0.00707163,10.63431168
1704701149443688,0.00949161,0.00006455,-0.00655361,10.65548801
1704701149449658,0.00492964,0.00744684,-0.00611634,10.67572117
1704701149455738,-0.00101731,0.00767971,-0.00564337,10.68288612
1704701149461655,-0.00642987,0.01375513,-0.00528359,10.69777107
1704701149467631,-0.01138991,0.01618568,-0.00489725,10.71344185
1704701149473671,-0.01499044,0.01287158,-0.00455961,10.71379280
1704701149479664,-0.02099471,0.01681402,-0.00453261,10.72113609
1704701149485655,-0.02844921,0.01454168,-0.00457046,10.72778511
1704701149495660,-0.03461708,0.00992982,-0.00485882,10.72043705
1704701149501665,-0.03802812,0.00631623,-0.00517235,10.72398567
1704701149507612,-0.03997991,0.00783412,-0.00548245,10.72453403
1704701149513724,-0.03969911,0.00163386,-0.00572760,10.71665096
1704701149519633,-0.03591314,0.00142184,-0.00596834,10.71740818
1704701149525645,-0.03284214,0.00860018,-0.00627279,10.71728230
1704701149531894,-0.02409307,0.00650592,-0.00655470,10.70564651
1704701149537636,-0.01673987,0.01352502,-0.00679329,10.70368958
1704701149543652,-0.00732385,0.01129489,-0.00692040,10.69090939
1704701149547664,-0.00182969,0.01071310,-0.00698792,10.69490910
1704701149557689,0.01034165,-0.00120040,-0.00679553,10.67311287
1704701149563729,0.01675173,-0.00822244,-0.00657696,10.66610432
1704701149569577,0.02125395,-0.01440616,-0.00639171,10.65856934
1704701149575679,0.02661301,-0.02003431,-0.00602724,10.64132595
1704701149581678,0.02811395,-0.02456349,-0.00581732,10.63519669
1704701149587631,0.03168626,-0.02399504,-0.00552924,10.62626648
1704701149593640,0.03220113,-0.03029007,-0.00514881,10.61353779
1704701149599657,0.03455640,-0.03713891,-0.00480890,10.61055183
1704701149605684,0.03406297,-0.04503362,-0.00476326,10.60981369
1704701149615678,0.03028333,-0.04587683,-0.00511950,10.59374237
1704701149621644,0.02430129,-0.04035501,-0.00552422,10.59457207
1704701149627620,0.01990325,-0.03448703,-0.00596392,10.59056854
1704701149633650,0.01507703,-0.03271664,-0.00633368,10.58178425
1704701149639739,0.00999131,-0.02859226,-0.00654230,10.58301544
1704701149645702,0.00494369,-0.02738703,-0.00666765,10.58486366
1704701149651617,0.00056394,-0.02962206,-0.00674137,10.57941437
1704701149657617,-0.00352922,-0.03195843,-0.00632520,10.58344364
1704701149663706,-0.00851967,-0.02895073,-0.00607447,10.59002686
1704701149669629,-0.00884601,-0.03102883,-0.00567150,10.58972168
1704701149677602,-0.00728318,-0.03040962,-0.00503684,10.59494972
1704701149683666,-0.00809384,-0.03037471,-0.00474759,10.60589886
1704701149689668,-0.00584690,-0.02676260,-0.00477106,10.61545086
1704701149695620,-0.00552652,-0.02610096,-0.00497441,10.61526299
1704701149701636,-0.00404569,-0.01927565,-0.00507710,10.62203884
1704701149707705,-0.00440410,-0.00849301,-0.00525206,10.63172722
1704701149713707,-0.00335905,-0.00427841,-0.00552627,10.63150692
1704701149719658,0.00119484,0.00627214,-0.00579659,10.63961506
1704701149725687,0.00714682,0.01138283,-0.00612350,10.64995861
1704701149731708,0.01348246,0.00919191,-0.00612790,10.64620018
1704701149737630,0.01857344,0.00920545,-0.00625390,10.65124798
1704701149743658,0.02247434,0.00221624,-0.00625650,10.64328384
1704701149753647,0.03084244,-0.00889375,-0.00630526,10.63454723
1704701149759712,0.03092505,-0.01816538,-0.00634124,10.62753582
1704701149765675,0.02686468,-0.02522059,-0.00626206,10.61930943
1704701149769672,0.02282352,-0.03222712,-0.00635000,10.61146164
1704701149777605,0.01644561,-0.03796795,-0.00596152,10.59090328
1704701149783651,0.01153271,-0.04320398,-0.00567870,10.57343674
1704701149789687,0.00562615,-0.03719294,-0.00579605,10.56308460
1704701149795887,0.00185387,-0.03189512,-0.00589483,10.55325985
1704701149797654,0.00148770,-0.03262965,-0.00586121,10.54619694
1704701149807689,0.00044424,-0.02181704,-0.00629391,10.53078938
1704701149815688,0.00198395,-0.01938936,-0.00662980,10.52246666
1704701149821697,0.00625011,-0.01590549,-0.00706496,10.51729679
1704701149827609,0.00964445,-0.01392083,-0.00731908,10.51881123
1704701149833708,0.01411604,-0.01210187,-0.00756124,10.51023388
1704701149839785,0.02395102,-0.00287884,-0.00767615,10.50950527
1704701149845684,0.03269595,0.00024578,-0.00745252,10.51346302
1704701149851679,0.03898943,-0.00227151,-0.00717187,10.50763321
1704701149857650,0.04637257,-0.00290465,-0.00694297,10.51116657
1704701149863713,0.04970736,-0.00918586,-0.00679036,10.51568413
1704701149869627,0.05031550,-0.01803916,-0.00633009,10.51184368
1704701149875687,0.04925728,-0.03024044,-0.00596621,10.52091026
1704701149881740,0.04648750,-0.04237087,-0.00571163,10.51909542
1704701149891657,0.03888479,-0.05928534,-0.00525114,10.52735806
1704701149897667,0.03048582,-0.06217155,-0.00522214,10.53279972
1704701149903655,0.02173978,-0.06529982,-0.00534049,10.52931309
1704701149909700,0.01169964,-0.06686985,-0.00550730,10.53480530
1704701149915756,0.00640320,-0.06398574,-0.00596203,10.53713226
1704701149921715,0.00219795,-0.06284329,-0.00612725,10.53372478
1704701149927607,-0.00136538,-0.05576266,-0.00643532,10.53738213
1704701149933671,-0.00238155,-0.04305863,-0.00662748,10.54005432
1704701149939693,-0.00222130,-0.03853203,-0.00692246,10.53368759
1704701149945682,0.00162825,-0.02681697,-0.00697930,10.53185463
1704701149951652,0.00548994,-0.01708072,-0.00673444,10.53330803
1704701149959677,0.01265307,-0.00469010,-0.00639115,10.52292633
1704701149965721,0.01497992,0.00546062,-0.00598929,10.52150536
1704701149971643,0.01738607,0.00879706,-0.00560044,10.51208973
1704701149977646,0.02261947,0.01984482,-0.00522725,10.50534630
1704701149983702,0.02564062,0.02325452,-0.00489236,10.50282669
1704701149989678,0.02939708,0.01878151,-0.00480376,10.49071693
1704701149995684,0.03064391,0.01476406,-0.00499201,10.48544598
1704701150001744,0.02928910,0.00242284,-0.00513107,10.47569942
1704701150007655,0.02599200,-0.01109572,-0.00536176,10.47094440
1704701150013690,0.02334460,-0.02301181,-0.00564302,10.46680546
1704701150019664,0.01909775,-0.03927494,-0.00601943,10.45862961
1704701150029652,0.01107323,-0.05702303,-0.00632634,10.45319843
1704701150035633,0.00573075,-0.06453486,-0.00635313,10.45109844
1704701150041668,0.00209746,-0.07164771,-0.00649014,10.44155884
1704701150047689,-0.00392097,-0.07123686,-0.00649672,10.44077873
1704701150053672,-0.00813858,-0.06834398,-0.00657221,10.43836880
1704701150059611,-0.00689502,-0.06615210,-0.00649210,10.43182468
1704701150065842,-0.00513025,-0.05679071,-0.00608796,10.42763615
1704701150071696,-0.00170250,-0.04545224,-0.00565054,10.42408371
1704701150077685,0.00155166,-0.04010567,-0.00543163,10.41398239
1704701150083692,0.00463476,-0.03068730,-0.00531922,10.40855885
1704701150091782,0.00705249,-0.02063254,-0.00560172,10.40027046
1704701150097647,0.00710684,-0.01567930,-0.00594733,10.39912891
1704701150103633,0.00837424,-0.01495075,-0.00636507,10.39044189
1704701150109646,0.00861659,-0.01430790,-0.00651034,10.39023590
1704701150115882,0.01119670,-0.01477891,-0.00667101,10.38696861
1704701150121716,0.01475950,-0.01570497,-0.00695948,10.37951469
1704701150127645,0.01690770,-0.01218695,-0.00715197,10.38163090
1704701150133718,0.01984295,-0.00929563,-0.00716505,10.38291740
1704701150139764,0.02173064,-0.01180488,-0.00702899,10.38075924
1704701150143675,0.02058526,-0.00834021,-0.00681650,10.39059162
1704701150151680,0.02655523,-0.01247279,-0.00654444,10.39156532
1704701150161681,0.02829171,-0.02219227,-0.00627373,10.39468670
1704701150167626,0.03026994,-0.02519094,-0.00613345,10.40232277
1704701150171708,0.03019042,-0.02797147,-0.00600721,10.40732765
1704701150179656,0.02796953,-0.03321544,-0.00556866,10.41411114
1704701150185650,0.02803704,-0.02895822,-0.00524589,10.42127228
1704701150191665,0.02578094,-0.01319112,-0.00496243,10.42629910
1704701150197842,0.02203200,-0.00775743,-0.00516460,10.42207718
1704701150203665,0.02274872,0.00516812,-0.00558673,10.42416954
1704701150209645,0.02067007,0.01159042,-0.00593729,10.42549324
1704701150215687,0.01775761,0.01075561,-0.00638512,10.41785622
1704701150223672,0.01433773,0.02265750,-0.00724069,10.41817379
1704701150229686,0.01136804,0.02044142,-0.00775282,10.40765858
1704701150235667,0.00836954,0.02456752,-0.00809193,10.40459156
1704701150241664,0.00557913,0.02023940,-0.00818888,10.39400482
1704701150247703,0.00288722,0.01801751,-0.00823049,10.38734436
1704701150253692,0.00054789,0.01809871,-0.00790412,10.38299274
1704701150259693,0.00159797,0.00808789,-0.00774634,10.37316418
1704701150265710,0.00462099,0.00191627,-0.00718805,10.36600590
1704701150271701,0.00705302,-0.01199525,-0.00667280,10.35983944
1704701150277665,0.00949171,-0.02626200,-0.00619453,10.34639835
1704701150283710,0.01068757,-0.04019443,-0.00550010,10.34104252
1704701150289690,0.01231949,-0.05500492,-0.00508763,10.33489990
1704701150299682,0.01260007,-0.06945363,-0.00483158,10.32143688
1704701150305732,0.01228721,-0.07172941,-0.00498760,10.31416607
1704701150311653,0.00981301,-0.07245410,-0.00544959,10.31149769
1704701150317621,0.00796450,-0.07210436,-0.00594243,10.30471325
1704701150323677,0.00514576,-0.06496501,-0.00637805,10.30207348
1704701150329635,0.00353700,-0.06375296,-0.00689412,10.30611134
1704701150335764,0.00209192,-0.06030549,-0.00725135,10.30444717
1704701150341677,-0.00146230,-0.05529351,-0.00757439,10.30983829
1704701150347673,-0.00437519,-0.05516759,-0.00766366,10.31757832
1704701150355703,-0.00670513,-0.04627568,-0.00760728,10.32422066
1704701150361741,-0.00817911,-0.04341891,-0.00740492,10.32754707
1704701150367648,-0.00828927,-0.03504397,-0.00704603,10.33364391
1704701150373642,-0.00981638,-0.02705765,-0.00662895,10.34232330
1704701150380083,-0.01052480,-0.02184977,-0.00604717,10.34852695
1704701150385703,-0.01231772,-0.01732398,-0.00567312,10.34860039
1704701150391707,-0.01537013,-0.01328063,-0.00525567,10.35644531
1704701150397691,-0.01918779,-0.01674167,-0.00492221,10.35574436
1704701150403677,-0.02125269,-0.01315455,-0.00465494,10.35908318
1704701150409671,-0.02337278,-0.01400275,-0.00449080,10.36297512
1704701150415696,-0.02293509,-0.01785040,-0.00445697,10.35903263
1704701150425685,-0.02152678,-0.01994189,-0.00446186,10.36026859
1704701150427666,-0.02046457,-0.01859721,-0.00443046,10.36094379
1704701150437650,-0.01353382,-0.02214015,-0.00463226,10.35370064
1704701150443650,-0.00947715,-0.01924569,-0.00473463,10.35024548
1704701150449689,-0.00688336,-0.01895429,-0.00470923,10.34903431
1704701150455703,-0.00305985,-0.02060591,-0.00475911,10.34038639
1704701150461645,-0.00209438,-0.01767591,-0.00468290,10.33467865
1704701150467696,-0.00447644,-0.01944287,-0.00475710,10.32860470
1704701150473699,-0.00679472,-0.02029240,-0.00487513,10.31434536
1704701150479669,-0.00993645,-0.01949251,-0.00494905,10.30591965
1704701150485689,-0.01117930,-0.02249176,-0.00496215,10.29516983
1704701150493661,-0.01420640,-0.02387364,-0.00489423,10.28129387
1704701150499679,-0.01560882,-0.02917869,-0.00486237,10.27060127
1704701150505710,-0.01578976,-0.03065057,-0.00492464,10.26393414
1704701150511795,-0.01577233,-0.02820793,-0.00489971,10.25967979
1704701150517680,-0.01589617,-0.02633943,-0.00488218,10.25101566
1704701150523708,-0.01417445,-0.01741499,-0.00470485,10.24679565
1704701150529673,-0.01435890,-0.00376767,-0.00446516,10.24489403
1704701150535690,-0.01290763,0.00294247,-0.00426629,10.24010277
1704701150541692,-0.01246358,0.01530457,-0.00431373,10.24548054
1704701150547691,-0.01159728,0.02352395,-0.00412969,10.25145340
1704701150557668,-0.01301648,0.02885414,-0.00380940,10.25918865
1704701150563697,-0.01580520,0.02713030,-0.00379703,10.27020931
1704701150569655,-0.01716867,0.02324003,-0.00371901,10.28009987
1704701150575685,-0.01651304,0.01253521,-0.00385421,10.28827190
1704701150581694,-0.01654214,-0.00009098,-0.00388304,10.30283928
1704701150587645,-0.01450422,-0.01413366,-0.00381323,10.31545258
1704701150593787,-0.01396498,-0.02840615,-0.00368632,10.32264996
1704701150599658,-0.01178404,-0.04224341,-0.00318766,10.33496666
1704701150605705,-0.00706712,-0.05364669,-0.00278551,10.34290695
1704701150613717,-0.00411666,-0.06456625,-0.00285484,10.34854412
1704701150619680,-0.00101505,-0.06719054,-0.00298509,10.34746265
1704701150625689,0.00104877,-0.06022461,-0.00294271,10.34837627
1704701150631661,0.00048329,-0.05430291,-0.00280574,10.35298061
1704701150637615,0.00020262,-0.05137614,-0.00280540,10.35089874
1704701150643698,0.00057034,-0.03852985,-0.00285545,10.34877110
1704701150649723,0.00188110,-0.03280175,-0.00282630,10.34732056
1704701150655750,0.00376318,-0.03043281,-0.00270560,10.33826256
1704701150661710,0.00450330,-0.02429793,-0.00264909,10.33369923
1704701150667682,0.00524876,-0.02013366,-0.00259791,10.32585716
1704701150673831,0.00620789,-0.02032595,-0.00262409,10.31148624
1704701150679701,0.00522392,-0.01714839,-0.00269503,10.30001354
1704701150689754,0.00198467,-0.00550263,-0.00265407,10.27735710
1704701150695730,0.00056823,-0.00626803,-0.00244707,10.26774597
1704701150699689,0.00075690,-0.00536196,-0.00234612,10.26351070
1704701150707647,0.00448681,0.00206650,-0.00211236,10.25846100
1704701150713810,0.00748662,-0.00190017,-0.00184175,10.25375843
1704701150719735,0.01246846,-0.00577036,-0.00169722,10.25338268
1704701150725686,0.01699636,-0.00888332,-0.00168518,10.25193977
1704701150731900,0.02065006,-0.01713854,-0.00165754,10.24801922
1704701150737675,0.02549278,-0.01989817,-0.00166796,10.24709892
1704701150743695,0.02908326,-0.02135853,-0.00157790,10.24451923
1704701150749707,0.03036159,-0.02555982,-0.00169364,10.23995876
1704701150757716,0.02987524,-0.02337227,-0.00192122,10.23514175
1704701150763795,0.02729976,-0.01971506,-0.00199856,10.23470688
1704701150769656,0.02342949,-0.01653569,-0.00190969,10.23742199
1704701150775679,0.02148020,-0.01797969,-0.00192162,10.23789310
1704701150781746,0.01794337,-0.00870085,-0.00203892,10.24162865
1704701150787685,0.01213224,-0.00443697,-0.00222383,10.25161552
1704701150793692,0.00605097,-0.00602691,-0.00220202,10.25908470
1704701150799688,0.00287751,-0.00236753,-0.00215258,10.26980877
1704701150805725,0.00058239,0.00523223,-0.00213873,10.28154755
1704701150811691,-0.00060685,0.00433837,-0.00221952,10.29004765
1704701150817672,0.00267077,0.00367897,-0.00211849,10.30324459
1704701150827649,0.00892803,0.00377326,-0.00202996,10.32438755
1704701150833720,0.01119267,-0.00192213,-0.00209479,10.33303070
1704701150839698,0.01508493,-0.00382685,-0.00184287,10.34428596
1704701150845759,0.01778795,-0.01058819,-0.00180844,10.35710907
1704701150851764,0.01812127,-0.01988975,-0.00153220,10.36395168
1704701150857662,0.01838042,-0.02619227,-0.00122690,10.37115288
1704701150863657,0.01722860,-0.03533397,-0.00115187,10.37531471
1704701150869856,0.01279651,-0.04430126,-0.00095025,10.38300228
1704701150875687,0.01188102,-0.04803156,-0.00058120,10.38680458
1704701150879691,0.01117236,-0.04768303,-0.00043369,10.38627052
1704701150887667,0.00866186,-0.04441101,-0.00026105,10.38282871
1704701150895699,0.01102696,-0.04187923,-0.00015373,10.37695408
1704701150901653,0.01404716,-0.03284069,0.00000749,10.37215042
1704701150907668,0.01885566,-0.01802724,0.00027121,10.36353874
1704701150913719,0.02522292,-0.01100772,0.00046840,10.35043716
1704701150919697,0.03043153,-0.00201442,0.00069263,10.34060860
1704701150925710,0.03679462,0.00282377,0.00078242,10.32821655
1704701150931737,0.04139613,0.00420313,0.00081878,10.31094551
1704701150937676,0.04597979,0.01026232,0.00088727,10.29571056
1704701150943704,0.04932149,0.00729823,0.00096312,10.28155994
1704701150949683,0.04967755,-0.00061746,0.00113131,10.26570320
1704701150959683,0.04803571,-0.00614817,0.00131931,10.24103260
1704701150963725,0.04725883,-0.01089525,0.00145069,10.23367023
1704701150971711,0.04451742,-0.01870971,0.00130862,10.22187996
1704701150977648,0.04046566,-0.01843434,0.00125101,10.21491718
1704701150983687,0.03579509,-0.01462557,0.00120679,10.21196747
1704701150989714,0.03244566,-0.01833276,0.00128170,10.21120262
1704701150995659,0.03074062,-0.01763626,0.00135209,10.21579170
1704701151001636,0.02826572,-0.02055969,0.00148610,10.22099972
1704701151007695,0.02548685,-0.02027305,0.00142702,10.23353958
1704701151013743,0.02428995,-0.01591522,0.00151079,10.24640083
1704701151019698,0.02368313,-0.01543927,0.00139879,10.25750351
1704701151025703,0.02277007,-0.00873075,0.00133237,10.27639771
1704701151033772,0.02246074,-0.00671455,0.00124945,10.30347824
1704701151039740,0.02044402,0.00028416,0.00123878,10.32619762
1704701151045762,0.01662007,0.00703311,0.00109958,10.34826088
1704701151051804,0.01154198,0.00350198,0.00081321,10.36630726
1704701151057608,0.00431834,-0.00081435,0.00093053,10.38932610
1704701151063742,-0.00090127,-0.00771572,0.00097481,10.41199589
1704701151069677,-0.00318498,-0.01554407,0.00111633,10.42832565
1704701151075718,-0.00513642,-0.01688917,0.00115244,10.44769096
1704701151081860,-0.00435133,-0.01697393,0.00120724,10.46369553
1704701151087695,0.00143646,-0.02393277,0.00112154,10.47226620
1704701151093712,0.00747775,-0.02511405,0.00111581,10.48420238
1704701151099716,0.01334566,-0.03173647,0.00100823,10.48746395
1704701151105763,0.01702094,-0.02910490,0.00089103,10.48950100
1704701151111693,0.01832755,-0.02341821,0.00082574,10.48608589
1704701151121729,0.02164849,-0.02667772,0.00034558,10.47070312
1704701151127646,0.02467914,-0.02618306,0.00003053,10.45873737
1704701151133700,0.02586551,-0.02408322,0.00004700,10.44522762
1704701151139737,0.02616715,-0.02531283,-0.00000515,10.42868996
1704701151145752,0.02573294,-0.02121441,-0.00012706,10.41383934
1704701151151701,0.02582665,-0.01565971,-0.00021824,10.39883137
1704701151157713,0.02530402,-0.01268945,-0.00014573,10.38189125
1704701151163665,0.02489999,-0.00380991,-0.00019613,10.36698341
1704701151169679,0.02353452,0.00398731,-0.00028845,10.35407257
1704701151175948,0.01908960,0.00430052,-0.00056420,10.34205914
1704701151181732,0.01500388,0.00494185,-0.00081544,10.33566093
1704701151187654,0.01084181,0.00697074,-0.00115502,10.32862282
1704701151193721,0.00558796,0.00263495,-0.00142473,10.32297993
1704701151199720,0.00163958,0.00069130,-0.00151862,10.32234669
1704701151207675,-0.00205048,-0.00625895,-0.00154599,10.32250309
1704701151213714,-0.00158121,-0.00685874,-0.00158538,10.32380676
1704701151219676,-0.00056923,-0.01221315,-0.00169029,10.32535553
1704701151225699,0.00228512,-0.01637282,-0.00172915,10.33169174
1704701151231696,0.00564703,-0.02233514,-0.00173539,10.33936024
1704701151237761,0.00858996,-0.03133732,-0.00167484,10.34587002
1704701151243754,0.01209339,-0.03370373,-0.00156439,10.35749722
1704701151249957,0.01421140,-0.03294906,-0.00171263,10.36939812
1704701151255745,0.01653786,-0.03345354,-0.00182380,10.37844563
1704701151261702,0.01707325,-0.03008135,-0.00199381,10.39374924
1704701151267703,0.01691137,-0.02749610,-0.00208240,10.41055202
1704701151273772,0.01683362,-0.02774909,-0.00211582,10.42168903
1704701151279725,0.01418035,-0.01886973,-0.00236824,10.43539906
1704701151285724,0.01263136,-0.01250021,-0.00249288,10.44814301
1704701151291743,0.01109025,-0.01257594,-0.00276733,10.45457268
1704701151297706,0.00706149,-0.01151842,-0.00270542,10.46394444
1704701151303715,0.00217111,-0.01041741,-0.00304444,10.47274590
1704701151309802,-0.00039453,-0.01358452,-0.00355151,10.47572231
1704701151315722,-0.00260548,-0.01407752,-0.00394774,10.48176575
1704701151325700,-0.00324367,-0.01764834,-0.00428336,10.48893833
1704701151331839,0.00088395,-0.02329488,-0.00432372,10.48622036
1704701151337686,0.00458076,-0.02489304,-0.00429226,10.48561478
1704701151343711,0.00848079,-0.02807496,-0.00449138,10.48338509
1704701151349729,0.01217602,-0.03652614,-0.00467500,10.47631168
1704701151355735,0.01366844,-0.03675357,-0.00480407,10.47075844
1704701151361727,0.01398830,-0.03933049,-0.00486804,10.46194744
1704701151367666,0.01170696,-0.03564667,-0.00509199,10.45557404
1704701151373681,0.00888287,-0.03209253,-0.00546557,10.44886017
1704701151379677,0.00594241,-0.03258964,-0.00575639,10.43957615
1704701151385677,-0.00012130,-0.02689985,-0.00597074,10.43283367
1704701151391641,-0.00739396,-0.02359984,-0.00637157,10.42693329
1704701151397620,-0.01301557,-0.02470297,-0.00674989,10.41964626
1704701151403817,-0.01769900,-0.02391622,-0.00707729,10.41638756
1704701151409722,-0.02130202,-0.02097736,-0.00729890,10.41288567
1704701151415717,-0.02248654,-0.02300706,-0.00723105,10.40772629
1704701151419710,-0.02214605,-0.02346350,-0.00697672,10.40574741
1704701151427681,-0.01763376,-0.02028088,-0.00640952,10.40585804
1704701151431741,-0.01361337,-0.01936406,-0.00612385,10.40406990
1704701151439765,-0.00267484,-0.01649775,-0.00567488,10.40086365
1704701151445753,0.00515254,-0.01542979,-0.00532720,10.40002346
1704701151453676,0.01123063,-0.01644152,-0.00523977,10.39814758
1704701151459703,0.01511956,-0.01898912,-0.00544853,10.39593029
1704701151465707,0.01621617,-0.01942401,-0.00573716,10.39701843
1704701151471720,0.01409607,-0.01962663,-0.00612705,10.39969730
1704701151477650,0.01301621,-0.02395344,-0.00639047,10.40088654
1704701151483714,0.01088265,-0.02360030,-0.00644158,10.40657520
1704701151489682,0.00874232,-0.02209365,-0.00657107,10.41461468
1704701151495675,0.00645709,-0.02594247,-0.00686843,10.42104721
1704701151501704,0.00600471,-0.02235693,-0.00677599,10.43219662
1704701151507662,0.00678917,-0.01696826,-0.00654261,10.44255733
1704701151513976,0.00817616,-0.01805409,-0.00636480,10.44931316
1704701151519699,0.00781137,-0.01576016,-0.00602447,10.45891857
1704701151525741,0.00624817,-0.01330145,-0.00571682,10.46826172
1704701151531822,0.00738730,-0.01543326,-0.00557964,10.47353363
1704701151537695,0.00713946,-0.01285782,-0.00542533,10.48052025
1704701151543701,0.00779511,-0.01043979,-0.00557981,10.48642254
1704701151549696,0.00895119,-0.01284837,-0.00558362,10.48872948
1704701151555770,0.00809597,-0.01126401,-0.00587952,10.49319267
1704701151561697,0.00789408,-0.01461574,-0.00624976,10.49463272
1704701151567703,0.00682950,-0.01282286,-0.00657929,10.49898911
1704701151573747,0.00702649,-0.01282378,-0.00704536,10.50347614
1704701151579743,0.00873073,-0.01785661,-0.00754769,10.50479698
1704701151585697,0.01045603,-0.01691520,-0.00793072,10.50903130
1704701151591720,0.01141537,-0.01861124,-0.00803889,10.51311207
1704701151597724,0.01380395,-0.02298536,-0.00777165,10.51451015
1704701151603712,0.01440925,-0.02288628,-0.00742223,10.51792908
1704701151609707,0.01481704,-0.02255100,-0.00695250,10.52062130
1704701151615730,0.01660708,-0.02526694,-0.00675888,10.51956654
1704701151621730,0.01682725,-0.02259152,-0.00648096,10.51949215
1704701151627694,0.01622442,-0.01855184,-0.00613084,10.51811790
1704701151633815,0.01309697,-0.01980735,-0.00586172,10.51276302
1704701151639777,0.00818711,-0.01813904,-0.00576424,10.51033878
1704701151645775,0.00411354,-0.01734173,-0.00553042,10.50849915
1704701151651837,-0.00261313,-0.02074727,-0.00533105,10.50418472
1704701151657706,-0.00826220,-0.01980993,-0.00540951,10.50272274
1704701151663757,-0.01289769,-0.02270707,-0.00561282,10.49792957
1704701151673800,-0.01612955,-0.01912750,-0.00599220,10.49067307
1704701151675810,-0.01673292,-0.01655540,-0.00604032,10.49017048
1704701151681753,-0.01633263,-0.01719975,-0.00620920,10.48298454
1704701151691757,-0.01207193,-0.01001860,-0.00682940,10.47689533
1704701151693723,-0.01117197,-0.00588305,-0.00683783,10.47748661
1704701151703724,-0.00451706,0.00023631,-0.00727328,10.47760773
1704701151709864,0.00440451,0.00072446,-0.00741038,10.47688293
1704701151715736,0.01183329,0.00393405,-0.00699019,10.47990417
1704701151721765,0.01718470,0.00030967,-0.00654824,10.47908974
1704701151727665,0.02025468,-0.00151677,-0.00617643,10.48084164
1704701151733752,0.02090443,-0.00354325,-0.00596131,10.48168850
1704701151739816,0.02171405,-0.01021525,-0.00558655,10.47840786
1704701151745682,0.02243254,-0.01249448,-0.00536144,10.47801590
1704701151751718,0.02190370,-0.01666522,-0.00524325,10.47697926
1704701151757714,0.02077159,-0.02631955,-0.00543672,10.47192669
1704701151763758,0.01639786,-0.02840203,-0.00580430,10.46968651
1704701151769754,0.01067523,-0.03068518,-0.00595243,10.46749687
1704701151775723,0.00591342,-0.03576455,-0.00603821,10.46173000
1704701151781768,0.00032729,-0.03465700,-0.00629382,10.45995903
1704701151787702,-0.00457717,-0.03121551,-0.00636295,10.45885086
1704701151793837,-0.00849527,-0.03170126,-0.00668637,10.45370960
1704701151799712,-0.01036670,-0.02558554,-0.00690636,10.45161819
1704701151805784,-0.01148148,-0.02007871,-0.00690922,10.44802284
1704701151811774,-0.00875620,-0.02214402,-0.00648472,10.44109821
1704701151817672,-0.00823086,-0.01929807,-0.00615197,10.43634701
1704701151823760,-0.00849824,-0.01417003,-0.00573819,10.43027687
1704701151829702,-0.00729815,-0.01363874,-0.00510785,10.42212772
1704701151835687,-0.00574414,-0.00866261,-0.00460317,10.41773510
1704701151841736,-0.00294371,-0.00895840,-0.00431174,10.41157532
1704701151847719,-0.00312827,-0.00331179,-0.00437958,10.40954018
1704701151853732,-0.00340346,0.00016985,-0.00447368,10.40919399
1704701151859693,-0.00052717,-0.00415154,-0.00441598,10.40607548
1704701151865719,0.00182367,-0.00514512,-0.00435938,10.40690613
1704701151871750,0.00454742,-0.00881765,-0.00436734,10.40748119
1704701151877666,0.00731044,-0.01744732,-0.00447164,10.40573978
1704701151883745,0.01182419,-0.02237246,-0.00437938,10.40700436
1704701151889753,0.01799246,-0.03552815,-0.00440007,10.40344906
1704701151895779,0.02195002,-0.03540517,-0.00428717,10.40978336
1704701151901698,0.02757479,-0.03838478,-0.00415544,10.41361237
1704701151907716,0.03241642,-0.04142133,-0.00397489,10.41821575
1704701151913736,0.03729971,-0.04744607,-0.00381212,10.42032051
1704701151919695,0.03948606,-0.04353312,-0.00374653,10.42416191
1704701151925740,0.03837554,-0.03942417,-0.00373545,10.42838287
1704701151931803,0.03701107,-0.04214090,-0.00394635,10.43048573
1704701151937708,0.03422409,-0.04152321,-0.00384112,10.43524075
1704701151943758,0.03177477,-0.03937604,-0.00363714,10.44018745
1704701151949762,0.03078912,-0.04142969,-0.00349029,10.44200516
1704701151955786,0.02762783,-0.03935205,-0.00352752,10.44563675
1704701151961735,0.02547233,-0.04127193,-0.00341831,10.44641209
1704701151967727,0.02360041,-0.03948760,-0.00329338,10.44981194
1704701151973765,0.02342020,-0.03491900,-0.00320239,10.45271778
1704701151979742,0.02534993,-0.03596995,-0.00304027,10.45284081
1704701151985770,0.02597775,-0.03294400,-0.00290982,10.45495319
1704701151991691,0.02618640,-0.03087419,-0.00289311,10.45623493
1704701151997696,0.02716349,-0.03208496,-0.00307602,10.45473385
1704701152003711,0.02754209,-0.02839732,-0.00334986,10.45516396
1704701152009716,0.02672359,-0.02695418,-0.00331791,10.45522881
1704701152015721,0.02801663,-0.02922341,-0.00322967,10.45174885
1704701152021707,0.02934618,-0.02839730,-0.00309963,10.45004177
1704701152027674,0.02864579,-0.02896685,-0.00306784,10.44783592
1704701152033939,0.02746242,-0.03431740,-0.00297723,10.44278240
1704701152039965,0.02288388,-0.03566112,-0.00298856,10.44103813
1704701152045795,0.01862425,-0.03614418,-0.00300353,10.44060040
1704701152051736,0.01835486,-0.04141660,-0.00292641,10.43823719
1704701152057794,0.01785399,-0.04027733,-0.00291423,10.43867683
1704701152063745,0.01665249,-0.03708972,-0.00283414,10.44052696
1704701152069719,0.01488052,-0.03791076,-0.00277993,10.44030762
1704701152075735,0.01284466,-0.03384854,-0.00269790,10.44404411
1704701152081751,0.01200682,-0.03320490,-0.00258529,10.44579124
1704701152087685,0.01014178,-0.02458248,-0.00265302,10.45108795
1704701152093722,0.00929127,-0.01747595,-0.00268569,10.45753288
1704701152099737,0.01165596,-0.01659654,-0.00280821,10.46114731
1704701152105787,0.01494251,-0.01161964,-0.00290950,10.46785259
1704701152111734,0.01855038,-0.00780916,-0.00282100,10.47366714
1704701152117723,0.02344793,-0.01063075,-0.00266512,10.47631836
1704701152123769,0.02923416,-0.00994183,-0.00250615,10.48123360
1704701152129717,0.03434466,-0.01008701,-0.00234890,10.48522377
1704701152137689,0.03638382,-0.01611521,-0.00212685,10.48730659
1704701152143732,0.03814645,-0.01902566,-0.00213499,10.48829937
1704701152149861,0.03846113,-0.02688008,-0.00216590,10.48641205
1704701152155769,0.03583926,-0.03010524,-0.00238545,10.48684120
1704701152161689,0.03356314,-0.03671322,-0.00246438,10.48452282
1704701152167702,0.02978964,-0.03843573,-0.00243647,10.48397350
1704701152173698,0.02591345,-0.03825088,-0.00249504,10.48270416
1704701152179746,0.02458628,-0.04073495,-0.00263469,10.47899628
1704701152185690,0.02393124,-0.04016080,-0.00267301,10.47658920
1704701152191735,0.02579128,-0.03988541,-0.00266570,10.47355366
1704701152197750,0.02651239,-0.04182087,-0.00265202,10.46826363
1704701152203716,0.02669821,-0.04347257,-0.00270506,10.46247768
1704701152209653,0.02679413,-0.04287390,-0.00278813,10.45909214
1704701152215838,0.02505705,-0.04214785,-0.00299511,10.45652199
1704701152221825,0.02503651,-0.03944443,-0.00318947,10.45508862
1704701152227657,0.02499027,-0.03650609,-0.00324654,10.45586205
1704701152233890,0.02445595,-0.03749964,-0.00331055,10.45606804
1704701152239821,0.02385789,-0.03449332,-0.00331657,10.45950317
1704701152245836,0.02384685,-0.03146996,-0.00339983,10.46464539
1704701152251758,0.02382556,-0.03133268,-0.00367361,10.46848679
1704701152257724,0.02256835,-0.02483812,-0.00380690,10.47476387
1704701152263763,0.01819206,-0.01737434,-0.00381423,10.48117447
1704701152269736,0.01486471,-0.01468419,-0.00382716,10.48558807
1704701152275746,0.01108077,-0.00841167,-0.00383009,10.49217319
1704701152281757,0.00661476,-0.00880458,-0.00387403,10.49666214
1704701152287709,0.00228894,-0.00410578,-0.00394644,10.50177193
1704701152293751,-0.00053225,-0.00052848,-0.00424499,10.50614643
1704701152299741,-0.00231775,-0.00453652,-0.00459054,10.50721931
1704701152305754,-0.00069265,-0.00867219,-0.00479761,10.50997353
1704701152311747,0.00100702,-0.01370690,-0.00484398,10.51172352
1704701152317724,0.00101208,-0.02208349,-0.00490733,10.51054287
1704701152323758,0.00206679,-0.02739872,-0.00490285,10.50946712
1704701152329763,0.00313125,-0.03331782,-0.00488798,10.50611782
1704701152335750,0.00421865,-0.04338736,-0.00494743,10.49948502
1704701152341746,0.00621709,-0.04777535,-0.00482972,10.49269867
1704701152347720,0.00948482,-0.04960504,-0.00489527,10.48446655
1704701152353749,0.01313229,-0.05445619,-0.00500751,10.47374630
1704701152359732,0.01650536,-0.05421226,-0.00529800,10.46449471
1704701152365755,0.01898681,-0.05417300,-0.00539068,10.45579433
1704701152375739,0.02465874,-0.05554057,-0.00543896,10.44094372
1704701152377707,0.02565109,-0.05189447,-0.00543184,10.43959808
1704701152387696,0.03034526,-0.04158040,-0.00567601,10.43196964
1704701152393824,0.03110708,-0.03840043,-0.00589833,10.42846394
1704701152399741,0.02994977,-0.03142842,-0.00611984,10.42960072
1704701152401748,0.02973737,-0.03161263,-0.00617611,10.42830944
1704701152411800,0.02575136,-0.02221710,-0.00660666,10.43515015
1704701152417691,0.02330587,-0.01734298,-0.00675272,10.44295120
1704701152423769,0.02147194,-0.01402200,-0.00680668,10.45216465
1704701152429856,0.02084003,-0.01548604,-0.00676180,10.45928097
1704701152435721,0.01789824,-0.01264308,-0.00651043,10.46889973
1704701152441735,0.01598625,-0.01522894,-0.00592619,10.47554111
1704701152447743,0.01308633,-0.01333970,-0.00538310,10.48364258
1704701152453719,0.01044964,-0.01222349,-0.00500134,10.49078465
1704701152459826,0.00757400,-0.01763617,-0.00471510,10.49474525
1704701152465754,0.00309082,-0.01685800,-0.00455584,10.49990654
1704701152471729,0.00001844,-0.01622527,-0.00448644,10.50375748
1704701152477698,0.00080073,-0.02177298,-0.00456776,10.50412846
1704701152483724,0.00081094,-0.02024087,-0.00465390,10.50458908
1704701152489761,0.00086450,-0.01747320,-0.00469536,10.50271702
1704701152495880,0.00020959,-0.01742435,-0.00480982,10.49802971
1704701152501711,0.00164930,-0.01109974,-0.00510659,10.49360752
1704701152507712,0.00300817,-0.00478339,-0.00544589,10.48825455
1704701152513737,0.00592075,-0.00617125,-0.00555681,10.48185539
1704701152519721,0.00794907,-0.00439665,-0.00563746,10.47693062
1704701152525736,0.00773632,-0.00369604,-0.00564624,10.47224903
1704701152531745,0.00786350,-0.00652679,-0.00567973,10.46704388
1704701152537712,0.00777952,-0.00716643,-0.00578776,10.46434116
1704701152543736,0.00958422,-0.00950886,-0.00605071,10.46277332
1704701152549653,0.01264484,-0.01341782,-0.00618570,10.46035480
1704701152555779,0.01168097,-0.01452094,-0.00637517,10.45919514
1704701152561791,0.01079506,-0.01894115,-0.00651781,10.45693779
1704701152567718,0.01058166,-0.01995310,-0.00669969,10.45688534
1704701152573761,0.00948380,-0.02111717,-0.00673946,10.45642757
1704701152579881,0.00782679,-0.02638722,-0.00678180,10.45529461
1704701152585738,0.00762047,-0.02606517,-0.00653606,10.45643044
1704701152591746,0.00865449,-0.02455992,-0.00616668,10.45791626
1704701152597717,0.01137773,-0.02747046,-0.00568241,10.45823765
1704701152603725,0.01468759,-0.02500303,-0.00524412,10.46090603
1704701152609733,0.01787797,-0.02369453,-0.00490068,10.46431065
1704701152617702,0.01975830,-0.02345615,-0.00475895,10.46806717
1704701152623738,0.02069448,-0.01797662,-0.00481282,10.47160435
1704701152629907,0.02302939,-0.01849871,-0.00483457,10.47419071
1704701152635800,0.02438353,-0.01192838,-0.00499341,10.47861862
1704701152641808,0.02438440,-0.01074707,-0.00504053,10.48200130
1704701152647786,0.02232583,-0.00591552,-0.00509718,10.48667145
1704701152653792,0.01870459,-0.00176761,-0.00513440,10.49071980
1704701152659744,0.01375830,-0.00414704,-0.00544654,10.49288082
1704701152665747,0.00985469,-0.00228798,-0.00566243,10.49507046
1704701152671768,0.00587640,-0.00230761,-0.00573780,10.49594116
1704701152677712,0.00539678,-0.00721358,-0.00587603,10.49403477
1704701152683736,0.00386773,-0.00883552,-0.00589680,10.49191952
1704701152689709,0.00203034,-0.00997079,-0.00583613,10.48869801
1704701152695797,0.00038567,-0.01555614,-0.00574572,10.48404694
1704701152701787,0.00177278,-0.01572025,-0.00572836,10.48077583
1704701152707736,0.00310130,-0.01559301,-0.00577271,10.47784519
1704701152713769,0.00563366,-0.02048485,-0.00584075,10.47400093
1704701152719734,0.00854885,-0.01883468,-0.00585632,10.47211170
1704701152725766,0.00934845,-0.01599393,-0.00599582,10.47140121
1704701152731777,0.01124702,-0.01932365,-0.00599785,10.47066593
1704701152737722,0.01030588,-0.01648864,-0.00613060,10.47179604
1704701152743759,0.01109233,-0.01295706,-0.00622947,10.47370052
1704701152749757,0.01185129,-0.01484666,-0.00623562,10.47434521
1704701152755755,0.01267259,-0.01075795,-0.00614674,10.47645187
1704701152761760,0.01162272,-0.01300575,-0.00611791,10.47740650
1704701152767730,0.01059661,-0.00838534,-0.00626171,10.47848320
1704701152773759,0.00938533,-0.00535410,-0.00644267,10.47884274
1704701152779868,0.00950123,-0.00871953,-0.00661207,10.47664642
1704701152785756,0.00917779,-0.00736196,-0.00672176,10.47511005
1704701152791763,0.00798839,-0.00775805,-0.00678038,10.47335529
1704701152797728,0.00940801,-0.01342652,-0.00675233,10.47116661
1704701152803748,0.00975761,-0.01208862,-0.00647734,10.47074032
1704701152809731,0.00927303,-0.00930948,-0.00631504,10.46962166
1704701152815776,0.01102846,-0.01315749,-0.00599053,10.46662617
1704701152825736,0.01263699,-0.01329816,-0.00532623,10.46150303
1704701152827727,0.01420376,-0.01020919,-0.00523390,10.46064949
1704701152837720,0.01887956,-0.01728016,-0.00484630,10.45391846
1704701152839762,0.01909082,-0.01444710,-0.00483541,10.45252037
1704701152845816,0.02112440,-0.00974965,-0.00500245,10.44752026
1704701152855764,0.02389189,-0.01411138,-0.00550571,10.43899822
1704701152861733,0.02496105,-0.01040948,-0.00578940,10.43452740
1704701152867733,0.02450918,-0.00714800,-0.00600827,10.43061161
1704701152873753,0.02397140,-0.00991673,-0.00632002,10.42585468
1704701152879748,0.02154553,-0.00742536,-0.00660936,10.42282009
1704701152885758,0.01623349,-0.00522605,-0.00692312,10.41981506
1704701152891733,0.01209031,-0.00899789,-0.00698575,10.41691399
1704701152897731,0.00737664,-0.00852648,-0.00680996,10.41696072
1704701152903733,0.00352022,-0.01391737,-0.00658256,10.41692543
1704701152909752,-0.00186573,-0.01453583,-0.00650091,10.41953278
1704701152915764,-0.00634738,-0.01485291,-0.00627372,10.42328930
1704701152921747,-0.00849196,-0.01937710,-0.00609962,10.42545986
1704701152927709,-0.01027255,-0.01529013,-0.00604696,10.42838001
1704701152933738,-0.01265322,-0.01197778,-0.00581344,10.43167877
1704701152939739,-0.01347985,-0.01549946,-0.00575970,10.43396378
1704701152945786,-0.01439545,-0.01269002,-0.00605092,10.43794155
1704701152951715,-0.01512030,-0.01083764,-0.00649011,10.44216919
1704701152957733,-0.01514417,-0.01485661,-0.00713877,10.44490242
1704701152963742,-0.01316632,-0.01298693,-0.00749353,10.44786072
1704701152969673,-0.01201576,-0.00974589,-0.00803095,10.44996834
1704701152975715,-0.01065026,-0.01469936,-0.00821327,10.45160103
1704701152981884,-0.00993656,-0.01701137,-0.00805911,10.45289326
1704701152987762,-0.00978108,-0.01951790,-0.00780202,10.45419025
1704701152993765,-0.00718762,-0.02580293,-0.00744499,10.45502567
1704701152999761,-0.00481796,-0.02650570,-0.00732264,10.45527458
1704701153005777,-0.00144320,-0.02757006,-0.00727800,10.45481396
1704701153011747,-0.00072134,-0.03292425,-0.00714295,10.45356750
1704701153017731,0.00133160,-0.03191196,-0.00689054,10.45192814
1704701153023858,0.00169002,-0.03020654,-0.00668824,10.44930077
1704701153029847,0.00247939,-0.03044903,-0.00641446,10.44560528
1704701153035744,0.00453020,-0.02554505,-0.00632863,10.44218159
1704701153041767,0.00700537,-0.02550207,-0.00629072,10.43906784
1704701153049808,0.00817674,-0.01667339,-0.00612733,10.43565559
1704701153055796,0.00975087,-0.01609063,-0.00599877,10.43545437
1704701153061750,0.01771333,-0.01158701,-0.00586608,10.43944931
1704701153067727,0.02845875,-0.00966645,-0.00579339,10.44489861
1704701153073789,0.03825211,-0.01267750,-0.00591563,10.45043564
1704701153079738,0.04693140,-0.00997058,-0.00609879,10.45588589
1704701153085784,0.05208730,-0.01153085,-0.00634373,10.46041775
1704701153091793,0.05474221,-0.01887173,-0.00643373,10.46378136
1704701153097740,0.05267656,-0.02079313,-0.00674243,10.46525478
1704701153103763,0.04749876,-0.02222186,-0.00686893,10.46565533
1704701153109896,0.03988715,-0.02874251,-0.00680517,10.46537971
1704701153115757,0.03082538,-0.02819737,-0.00673322,10.46281815
1704701153121803,0.02178718,-0.02922529,-0.00655325,10.45825291
1704701153127708,0.00954255,-0.02198800,-0.00636370,10.45056057
1704701153133740,-0.00254568,-0.01639093,-0.00644369,10.44180012
1704701153139805,-0.01178241,-0.01541870,-0.00634995,10.43327808
1704701153145931,-0.01929558,-0.00919386,-0.00612326,10.42295456
1704701153151818,-0.02462480,-0.00244151,-0.00580510,10.41280174
1704701153157749,-0.02743439,-0.00046111,-0.00538247,10.40356064
1704701153163765,-0.03104010,0.00720867,-0.00530832,10.39519787
1704701153169742,-0.03152902,0.01135483,-0.00547119,10.38767147
1704701153175774,-0.02624999,0.00850210,-0.00564095,10.38040829
1704701153181768,-0.02028612,0.01011746,-0.00587016,10.37454605
1704701153187741,-0.01397086,0.01232860,-0.00620014,10.37028599
1704701153193774,-0.00580435,0.00780708,-0.00636445,10.36653423
1704701153199768,-0.00039719,0.00684944,-0.00643265,10.36433697
1704701153205804,0.00446360,0.00515996,-0.00658546,10.36369419
1704701153211777,0.00762861,-0.00012875,-0.00671496,10.36349201
1704701153217741,0.00937054,0.00090911,-0.00697157,10.36532211
1704701153223821,0.01050474,0.00002043,-0.00678908,10.36899185
1704701153229770,0.01267293,-0.00558099,-0.00665392,10.37304401
1704701153235764,0.01381904,-0.00819714,-0.00629602,10.37983513
1704701153241777,0.01625047,-0.01482534,-0.00586061,10.38655472
1704701153247800,0.01678912,-0.01643169,-0.00537731,10.39416599
1704701153253769,0.01770753,-0.01717640,-0.00500279,10.40148544
1704701153259776,0.01885727,-0.02242019,-0.00475344,10.40790749
1704701153265779,0.01663748,-0.02448597,-0.00465054,10.41505623
1704701153271799,0.01393719,-0.02571419,-0.00468178,10.42311668
1704701153281798,0.00826892,-0.02859236,-0.00492755,10.43424511
1704701153283779,0.00742004,-0.02548405,-0.00501590,10.43646336
1704701153293748,0.00330106,-0.01997588,-0.00568957,10.44612122
1704701153299764,0.00183091,-0.01928619,-0.00617232,10.45265007
1704701153305756,0.00205178,-0.01502376,-0.00653982,10.45876026
1704701153311737,0.00410051,-0.01036871,-0.00659858,10.46445751
1704701153317741,0.00821518,-0.00992156,-0.00670060,10.47013855
1704701153323810,0.01188268,-0.00665275,-0.00686618,10.47478199
1704701153329843,0.01577185,-0.00555252,-0.00679052,10.47846317
1704701153335769,0.01813254,-0.00954412,-0.00644748,10.48191929
1704701153341769,0.01960145,-0.01225901,-0.00599373,10.48392963
1704701153347762,0.02190123,-0.01522203,-0.00562672,10.48423767
1704701153353747,0.02606128,-0.02257438,-0.00526095,10.48419571
1704701153359749,0.02897874,-0.02762918,-0.00503408,10.48146915
1704701153361780,0.03033124,-0.03108208,-0.00505040,10.48096371
1704701153371755,0.02811626,-0.03823323,-0.00516537,10.47444534
1704701153377716,0.02631749,-0.03950418,-0.00503996,10.46968746
1704701153383766,0.02126597,-0.03790991,-0.00498868,10.46512318
1704701153389870,0.01755124,-0.03819365,-0.00517883,10.46151638
1704701153395847,0.01336165,-0.03362440,-0.00539471,10.45595074
1704701153401845,0.00848901,-0.02783512,-0.00545612,10.45069122
1704701153407772,0.00437251,-0.02672231,-0.00571105,10.44695282
1704701153413767,-0.00030888,-0.02299737,-0.00578693,10.44279480
1704701153419778,-0.00515444,-0.02307174,-0.00609879,10.44014835
1704701153425771,-0.00780256,-0.02052889,-0.00636942,10.43637848
1704701153431903,-0.00637815,-0.01729393,-0.00655990,10.43205738
1704701153439769,-0.00479482,-0.01435483,-0.00638471,10.42666149
1704701153449774,-0.00155275,-0.01410013,-0.00608091,10.41872692
1704701153457738,0.00157727,-0.01490421,-0.00563759,10.41165161
1704701153463812,0.00420720,-0.01434859,-0.00537483,10.40590286
1704701153473798,0.01104528,-0.02140248,-0.00505519,10.39641571
1704701153481791,0.01679893,-0.02397087,-0.00522137,10.39062119
1704701153491795,0.02021557,-0.02674161,-0.00561685,10.38888741
1704701153499872,0.02203520,-0.03340150,-0.00596577,10.39143085
1704701153505869,0.02262223,-0.03400781,-0.00624834,10.39574623
1704701153515769,0.01879811,-0.03349138,-0.00663639,10.40450764
1704701153521767,0.01450994,-0.03455186,-0.00697226,10.41008663
