timestamp,roll,pitch,thrust,yaw,aux1,aux2,aux3,aux4
1691758657098576,1500,1500,1000,1500,1000,0,0,0
1691758657108575,1500,1500,1000,1500,1000,0,0,0
1691758657118544,1500,1500,1000,1500,1000,0,0,0
1691758657128559,1500,1500,1000,1500,1000,0,0,0
1691758657138601,1500,1500,1000,1500,1000,0,0,0
1691758657148564,1500,1500,1000,1500,1000,0,0,0
1691758657158636,1500,1500,1000,1500,1000,0,0,0
1691758657168543,1500,1500,1000,1500,1000,0,0,0
1691758657178561,1500,1500,1000,1500,1000,0,0,0
1691758657188773,1500,1500,1000,1500,1000,0,0,0
1691758657198564,1500,1500,1000,1500,1000,0,0,0
1691758657208559,1500,1500,1000,1500,1000,0,0,0
1691758657218572,1500,1500,1000,1500,1000,0,0,0
1691758657230877,1501,1506,1254,1491,1000,0,0,0
1691758657234398,1501,1507,1279,1491,1000,0,0,0
1691758657236618,1501,1507,1282,1491,1000,0,0,0
1691758657240530,1500,1506,1283,1491,1000,0,0,0
1691758657244062,1500,1506,1283,1491,1000,0,0,0
1691758657248184,1500,1507,1283,1491,1000,0,0,0
1691758657252103,1501,1506,1284,1491,1000,0,0,0
1691758657254755,1501,1507,1284,1491,1000,0,0,0
1691758657258472,1501,1507,1284,1491,1000,0,0,0
1691758657262171,1501,1507,1285,1491,1000,0,0,0
1691758657265881,1500,1505,1286,1491,1000,0,0,0
1691758657269468,1501,1506,1286,1491,1000,0,0,0
1691758657273143,1501,1507,1286,1491,1000,0,0,0
1691758657279913,1501,1507,1287,1491,1000,0,0,0
1691758657281250,1501,1507,1287,1491,1000,0,0,0
1691758657285107,1501,1506,1287,1491,1000,0,0,0
1691758657288366,1501,1506,1286,1491,1000,0,0,0
1691758657291948,1501,1507,1286,1491,1000,0,0,0
1691758657294995,1501,1506,1287,1491,1000,0,0,0
1691758657299227,1501,1506,1288,1492,1000,0,0,0
1691758657303101,1501,1506,1287,1492,1000,0,0,0
1691758657306185,1501,1507,1282,1492,1000,0,0,0
1691758657309877,1500,1505,1284,1492,1000,0,0,0
1691758657312798,1500,1504,1282,1493,1000,0,0,0
1691758657316621,1499,1501,1276,1493,1000,0,0,0
1691758657322378,1499,1503,1278,1493,1000,0,0,0
1691758657323923,1499,1504,1271,1494,1000,0,0,0
1691758657327659,1499,1501,1270,1494,1000,0,0,0
1691758657331491,1498,1501,1265,1494,1000,0,0,0
1691758657334804,1502,1502,1262,1494,1000,0,0,0
1691758657338553,1501,1504,1260,1495,1000,0,0,0
1691758657342552,1501,1506,1255,1495,1000,0,0,0
1691758657346382,1501,1497,1263,1495,1000,0,0,0
1691758657350427,1501,1501,1259,1496,1000,0,0,0
1691758657355754,1499,1504,1254,1496,1000,0,0,0
1691758657356888,1503,1512,1243,1496,1000,0,0,0
1691758657360446,1501,1496,1258,1496,1000,0,0,0
1691758657364424,1501,1501,1253,1497,1000,0,0,0
1691758657368217,1500,1503,1249,1497,1000,0,0,0
1691758657372411,1501,1500,1249,1497,1000,0,0,0
1691758657374958,1500,1494,1246,1498,1000,0,0,0
1691758657378721,1502,1502,1242,1498,1000,0,0,0
1691758657384108,1505,1511,1242,1498,1000,0,0,0
1691758657386102,1501,1495,1251,1498,1000,0,0,0
1691758657390468,1500,1497,1250,1498,1000,0,0,0
1691758657394144,1499,1498,1249,1499,1000,0,0,0
1691758657396702,1499,1498,1247,1499,1000,0,0,0
1691758657400782,1497,1495,1250,1499,1000,0,0,0
1691758657404462,1496,1494,1245,1499,1000,0,0,0
1691758657408863,1498,1496,1243,1499,1000,0,0,0
1691758657412361,1502,1501,1241,1499,1000,0,0,0
1691758657415020,1503,1504,1241,1500,1000,0,0,0
1691758657418702,1505,1509,1242,1500,1000,0,0,0
1691758657422834,1500,1491,1250,1500,1000,0,0,0
1691758657426702,1499,1492,1249,1500,1000,0,0,0
1691758657430376,1500,1492,1247,1500,1000,0,0,0
1691758657433050,1499,1492,1243,1500,1000,0,0,0
1691758657437284,1499,1495,1243,1500,1000,0,0,0
1691758657448176,1500,1495,1246,1500,1000,0,0,0
1691758657448506,1499,1495,1244,1500,1000,0,0,0
1691758657448658,1495,1492,1241,1500,1000,0,0,0
1691758657451254,1500,1496,1240,1500,1000,0,0,0
1691758657454983,1501,1503,1242,1501,1000,0,0,0
1691758657459437,1502,1506,1244,1501,1000,0,0,0
1691758657463053,1503,1506,1245,1501,1000,0,0,0
1691758657466188,1499,1488,1255,1501,1000,0,0,0
1691758657469593,1499,1488,1251,1501,1000,0,0,0
1691758657473282,1500,1490,1249,1501,1000,0,0,0
1691758657478065,1500,1491,1247,1501,1000,0,0,0
1691758657481859,1499,1490,1247,1501,1000,0,0,0
1691758657483999,1499,1487,1249,1501,1000,0,0,0
1691758657490666,1500,1490,1248,1501,1000,0,0,0
1691758657493087,1500,1498,1245,1501,1000,0,0,0
1691758657495244,1502,1499,1245,1501,1000,0,0,0
1691758657499035,1502,1499,1247,1501,1000,0,0,0
1691758657503373,1502,1498,1249,1501,1000,0,0,0
1691758657505819,1499,1495,1251,1501,1000,0,0,0
1691758657509371,1500,1495,1243,1501,1000,0,0,0
1691758657513348,1503,1517,1229,1501,1000,0,0,0
1691758657517321,1504,1519,1238,1502,1000,0,0,0
1691758657521206,1504,1512,1245,1502,1000,0,0,0
1691758657524023,1501,1509,1245,1502,1000,0,0,0
1691758657529643,1502,1505,1246,1502,1000,0,0,0
1691758657531453,1503,1500,1247,1502,1000,0,0,0
1691758657538048,1501,1492,1248,1502,1000,0,0,0
1691758657539246,1500,1490,1256,1502,1000,0,0,0
1691758657542075,1501,1491,1252,1502,1000,0,0,0
1691758657546379,1501,1493,1250,1502,1000,0,0,0
1691758657550897,1500,1494,1250,1502,1000,0,0,0
1691758657554911,1499,1493,1252,1502,1000,0,0,0
1691758657556725,1498,1492,1246,1502,1000,0,0,0
1691758657560462,1502,1499,1246,1502,1000,0,0,0
1691758657564736,1503,1492,1248,1502,1000,0,0,0
1691758657570534,1499,1483,1259,1502,1000,0,0,0
1691758657572132,1499,1488,1257,1502,1000,0,0,0
1691758657575201,1500,1488,1254,1502,1000,0,0,0
1691758657578452,1500,1490,1252,1502,1000,0,0,0
1691758657582377,1499,1491,1250,1502,1000,0,0,0
1691758657587825,1497,1491,1252,1502,1000,0,0,0
1691758657590445,1498,1493,1252,1502,1000,0,0,0
1691758657593010,1498,1492,1245,1502,1000,0,0,0
1691758657597516,1503,1514,1237,1502,1000,0,0,0
1691758657601707,1503,1507,1246,1502,1000,0,0,0
1691758657605344,1498,1491,1261,1502,1000,0,0,0
1691758657608384,1498,1491,1259,1501,1000,0,0,0
1691758657612177,1500,1494,1257,1501,1000,0,0,0
1691758657614982,1500,1495,1253,1501,1000,0,0,0
1691758657618543,1500,1507,1245,1501,1000,0,0,0
1691758657622648,1501,1505,1249,1501,1000,0,0,0
1691758657626840,1502,1502,1252,1501,1000,0,0,0
1691758657630491,1499,1489,1258,1501,1000,0,0,0
1691758657633120,1498,1488,1256,1501,1000,0,0,0
1691758657636787,1497,1489,1256,1500,1000,0,0,0
1691758657640969,1496,1491,1254,1500,1000,0,0,0
1691758657645527,1496,1492,1245,1500,1000,0,0,0
1691758657648522,1503,1511,1236,1500,1000,0,0,0
1691758657651273,1502,1504,1250,1500,1000,0,0,0
1691758657654886,1498,1492,1261,1500,1000,0,0,0
1691758657658654,1499,1496,1258,1500,1000,0,0,0
1691758657662394,1500,1495,1255,1500,1000,0,0,0
1691758657666472,1500,1496,1252,1500,1000,0,0,0
1691758657670422,1499,1499,1254,1500,1000,0,0,0
1691758657673153,1499,1500,1253,1499,1000,0,0,0
1691758657676757,1498,1501,1249,1499,1000,0,0,0
1691758657680816,1499,1500,1251,1499,1000,0,0,0
1691758657684460,1500,1499,1252,1499,1000,0,0,0
1691758657688527,1496,1495,1246,1499,1000,0,0,0
1691758657691177,1500,1500,1243,1499,1000,0,0,0
1691758657694829,1505,1521,1238,1499,1000,0,0,0
1691758657698894,1504,1518,1245,1499,1000,0,0,0
1691758657702881,1503,1515,1246,1500,1000,0,0,0
1691758657706800,1496,1492,1257,1499,1000,0,0,0
1691758657710438,1497,1495,1262,1499,1000,0,0,0
1691758657713081,1495,1485,1263,1499,1000,0,0,0
1691758657716797,1494,1492,1259,1499,1000,0,0,0
1691758657720841,1501,1502,1249,1499,1000,0,0,0
1691758657724751,1501,1504,1250,1499,1000,0,0,0
1691758657728578,1501,1507,1251,1499,1000,0,0,0
1691758657731329,1499,1494,1262,1499,1000,0,0,0
1691758657735561,1500,1498,1258,1499,1000,0,0,0
1691758657739717,1500,1500,1256,1499,1000,0,0,0
1691758657742317,1500,1501,1254,1499,1000,0,0,0
1691758657745845,1499,1501,1253,1499,1000,0,0,0
1691758657749549,1501,1499,1256,1499,1000,0,0,0
1691758657753632,1501,1500,1258,1499,1000,0,0,0
1691758657757541,1498,1500,1258,1499,1000,0,0,0
1691758657762022,1499,1501,1249,1499,1000,0,0,0
1691758657764088,1502,1508,1251,1499,1000,0,0,0
1691758657767606,1504,1515,1250,1499,1000,0,0,0
1691758657771432,1499,1500,1263,1499,1000,0,0,0
1691758657775614,1500,1502,1262,1499,1000,0,0,0
1691758657779398,1501,1505,1259,1499,1000,0,0,0
1691758657782166,1501,1504,1257,1499,1000,0,0,0
1691758657785746,1501,1503,1258,1499,1000,0,0,0
1691758657789373,1502,1502,1256,1499,1000,0,0,0
1691758657792976,1502,1502,1256,1499,1000,0,0,0
1691758657796657,1499,1500,1259,1499,1000,0,0,0
1691758657802325,1501,1501,1250,1499,1000,0,0,0
1691758657805083,1503,1511,1249,1499,1000,0,0,0
1691758657808009,1499,1500,1262,1499,1000,0,0,0
1691758657811673,1501,1503,1259,1499,1000,0,0,0
1691758657815522,1502,1506,1257,1499,1000,0,0,0
1691758657819381,1501,1506,1257,1499,1000,0,0,0
1691758657822717,1501,1504,1257,1499,1000,0,0,0
1691758657825776,1503,1509,1253,1499,1000,0,0,0
1691758657829870,1504,1516,1250,1499,1000,0,0,0
1691758657833640,1500,1499,1264,1499,1000,0,0,0
1691758657837538,1501,1499,1262,1499,1000,0,0,0
1691758657840548,1501,1502,1258,1499,1000,0,0,0
1691758657843992,1501,1502,1257,1499,1000,0,0,0
1691758657847768,1503,1502,1256,1499,1000,0,0,0
1691758657851385,1502,1503,1255,1499,1000,0,0,0
1691758657854916,1502,1509,1249,1499,1000,0,0,0
1691758657858809,1500,1496,1261,1499,1000,0,0,0
1691758657862572,1504,1502,1257,1499,1000,0,0,0
1691758657868214,1503,1504,1256,1499,1000,0,0,0
1691758657870345,1500,1501,1261,1499,1000,0,0,0
1691758657872998,1504,1502,1250,1500,1000,0,0,0
1691758657876730,1506,1512,1251,1500,1000,0,0,0
1691758657880628,1507,1516,1252,1500,1000,0,0,0
1691758657884694,1501,1499,1265,1500,1000,0,0,0
1691758657888058,1502,1501,1263,1500,1000,0,0,0
1691758657891202,1502,1503,1259,1500,1000,0,0,0
1691758657894911,1503,1503,1256,1500,1000,0,0,0
1691758657903544,1504,1501,1255,1500,1000,0,0,0
1691758657903732,1500,1501,1261,1500,1000,0,0,0
1691758657908913,1500,1500,1257,1500,1000,0,0,0
1691758657909626,1506,1505,1248,1500,1000,0,0,0
1691758657913719,1503,1495,1262,1500,1000,0,0,0
1691758657917723,1502,1500,1261,1500,1000,0,0,0
1691758657920449,1505,1512,1252,1500,1000,0,0,0
1691758657923983,1503,1500,1260,1500,1000,0,0,0
1691758657927660,1503,1502,1257,1500,1000,0,0,0
1691758657931742,1498,1498,1267,1500,1000,0,0,0
1691758657935675,1500,1497,1261,1500,1000,0,0,0
1691758657938502,1503,1502,1258,1500,1000,0,0,0
1691758657942798,1502,1500,1260,1500,1000,0,0,0
1691758657946936,1500,1497,1257,1500,1000,0,0,0
1691758657949457,1503,1505,1253,1501,1000,0,0,0
1691758657954977,1501,1500,1261,1501,1000,0,0,0
1691758657958626,1502,1509,1255,1501,1000,0,0,0
1691758657960388,1500,1497,1263,1501,1000,0,0,0
1691758657964116,1499,1493,1266,1501,1000,0,0,0
1691758657967808,1503,1497,1254,1501,1000,0,0,0
1691758657974074,1504,1505,1252,1501,1000,0,0,0
1691758657978556,1499,1494,1265,1501,1000,0,0,0
1691758657978981,1501,1497,1264,1501,1000,0,0,0
1691758657986135,1501,1498,1261,1501,1000,0,0,0
1691758657986770,1500,1511,1249,1501,1000,0,0,0
1691758657989500,1504,1518,1249,1501,1000,0,0,0
1691758657993673,1499,1491,1268,1501,1000,0,0,0
1691758657996833,1497,1492,1267,1501,1000,0,0,0
1691758658002339,1498,1494,1263,1501,1000,0,0,0
1691758658008197,1499,1493,1260,1501,1000,0,0,0
1691758658008515,1500,1493,1261,1501,1000,0,0,0
1691758658013786,1496,1494,1262,1501,1000,0,0,0
1691758658014662,1503,1514,1245,1502,1000,0,0,0
1691758658018580,1500,1501,1259,1501,1000,0,0,0
1691758658022363,1497,1493,1267,1501,1000,0,0,0
1691758658025938,1495,1490,1267,1501,1000,0,0,0
1691758658029632,1500,1496,1257,1501,1000,0,0,0
1691758658039898,1508,1523,1248,1502,1000,0,0,0
1691758658040345,1499,1495,1261,1501,1000,0,0,0
1691758658044075,1500,1497,1263,1501,1000,0,0,0
1691758658049538,1499,1500,1263,1501,1000,0,0,0
1691758658057886,1498,1500,1258,1501,1000,0,0,0
1691758658058097,1497,1499,1266,1501,1000,0,0,0
1691758658058750,1499,1495,1262,1501,1000,0,0,0
1691758658062009,1498,1497,1261,1501,1000,0,0,0
1691758658065880,1498,1497,1260,1501,1000,0,0,0
1691758658070299,1499,1495,1256,1501,1000,0,0,0
1691758658076347,1506,1532,1245,1502,1000,0,0,0
1691758658077577,1497,1495,1267,1501,1000,0,0,0
1691758658080521,1496,1491,1270,1501,1000,0,0,0
1691758658084400,1494,1491,1269,1501,1000,0,0,0
1691758658088095,1496,1496,1259,1501,1000,0,0,0
1691758658091917,1498,1500,1255,1501,1000,0,0,0
1691758658095789,1498,1501,1260,1501,1000,0,0,0
1691758658098604,1499,1502,1261,1501,1000,0,0,0
1691758658102217,1495,1493,1267,1501,1000,0,0,0
1691758658105966,1495,1494,1265,1501,1000,0,0,0
1691758658109790,1496,1494,1264,1501,1000,0,0,0
1691758658114416,1499,1502,1255,1501,1000,0,0,0
1691758658117690,1497,1493,1264,1501,1000,0,0,0
1691758658120429,1497,1494,1265,1501,1000,0,0,0
1691758658124096,1498,1495,1262,1501,1000,0,0,0
1691758658127806,1496,1497,1261,1501,1000,0,0,0
1691758658132006,1498,1506,1256,1501,1000,0,0,0
1691758658134896,1497,1504,1263,1501,1000,0,0,0
1691758658138638,1495,1496,1270,1500,1000,0,0,0
1691758658142346,1495,1496,1267,1500,1000,0,0,0
1691758658145810,1496,1498,1264,1500,1000,0,0,0
1691758658149454,1496,1499,1260,1500,1000,0,0,0
1691758658154353,1502,1517,1256,1501,1000,0,0,0
1691758658157027,1497,1504,1262,1500,1000,0,0,0
1691758658161541,1496,1493,1269,1500,1000,0,0,0
1691758658165040,1495,1491,1268,1500,1000,0,0,0
1691758658167570,1496,1497,1259,1500,1000,0,0,0
1691758658171313,1494,1489,1263,1500,1000,0,0,0
1691758658174939,1497,1508,1257,1500,1000,0,0,0
1691758658179051,1499,1508,1260,1500,1000,0,0,0
1691758658182974,1497,1496,1265,1500,1000,0,0,0
1691758658186732,1497,1503,1256,1500,1000,0,0,0
1691758658189510,1496,1494,1268,1500,1000,0,0,0
1691758658193059,1497,1494,1268,1500,1000,0,0,0
1691758658197109,1498,1506,1258,1500,1000,0,0,0
1691758658201039,1497,1509,1257,1500,1000,0,0,0
1691758658204874,1498,1502,1261,1500,1000,0,0,0
1691758658207558,1496,1494,1268,1500,1000,0,0,0
1691758658211278,1495,1496,1263,1500,1000,0,0,0
1691758658215353,1496,1496,1260,1500,1000,0,0,0
1691758658218907,1499,1507,1253,1500,1000,0,0,0
1691758658223034,1499,1511,1253,1500,1000,0,0,0
1691758658225706,1497,1501,1262,1500,1000,0,0,0
1691758658229876,1496,1492,1270,1499,1000,0,0,0
1691758658233948,1498,1492,1268,1499,1000,0,0,0
1691758658236679,1497,1493,1264,1499,1000,0,0,0
1691758658241167,1496,1500,1258,1500,1000,0,0,0
1691758658243831,1499,1505,1259,1500,1000,0,0,0
1691758658248070,1499,1505,1263,1500,1000,0,0,0
1691758658251961,1499,1510,1262,1500,1000,0,0,0
1691758658255866,1496,1498,1272,1499,1000,0,0,0
1691758658258710,1499,1498,1261,1499,1000,0,0,0
1691758658262385,1501,1504,1256,1500,1000,0,0,0
1691758658266519,1497,1495,1265,1499,1000,0,0,0
1691758658269877,1500,1505,1262,1499,1000,0,0,0
1691758658274757,1501,1507,1261,1500,1000,0,0,0
1691758658276771,1498,1496,1264,1499,1000,0,0,0
1691758658280485,1498,1500,1260,1499,1000,0,0,0
1691758658284100,1496,1488,1265,1499,1000,0,0,0
1691758658288085,1500,1507,1258,1499,1000,0,0,0
1691758658292068,1501,1512,1259,1500,1000,0,0,0
1691758658295880,1497,1499,1270,1499,1000,0,0,0
1691758658298598,1500,1499,1262,1499,1000,0,0,0
1691758658302079,1499,1492,1267,1499,1000,0,0,0
1691758658305828,1499,1497,1263,1499,1000,0,0,0
1691758658310378,1500,1500,1264,1499,1000,0,0,0
1691758658313083,1504,1511,1258,1500,1000,0,0,0
1691758658317513,1503,1514,1255,1500,1000,0,0,0
1691758658320894,1497,1501,1268,1499,1000,0,0,0
1691758658324917,1500,1495,1266,1499,1000,0,0,0
1691758658327346,1502,1498,1263,1499,1000,0,0,0
1691758658331616,1501,1499,1258,1499,1000,0,0,0
1691758658335050,1503,1512,1249,1500,1000,0,0,0
1691758658339276,1505,1517,1256,1500,1000,0,0,0
1691758658343089,1500,1492,1272,1499,1000,0,0,0
1691758658347257,1499,1494,1269,1499,1000,0,0,0
1691758658349560,1504,1504,1260,1500,1000,0,0,0
1691758658353004,1502,1497,1265,1499,1000,0,0,0
1691758658356797,1502,1512,1254,1500,1000,0,0,0
1691758658362032,1499,1510,1263,1500,1000,0,0,0
1691758658364000,1500,1496,1271,1500,1000,0,0,0
1691758658369870,1502,1496,1268,1500,1000,0,0,0
1691758658372174,1501,1497,1264,1500,1000,0,0,0
1691758658374833,1501,1500,1257,1500,1000,0,0,0
1691758658378395,1507,1518,1249,1500,1000,0,0,0
1691758658383019,1503,1504,1264,1500,1000,0,0,0
1691758658388381,1501,1496,1270,1500,1000,0,0,0
1691758658391929,1500,1493,1270,1500,1000,0,0,0
1691758658392824,1506,1509,1252,1500,1000,0,0,0
1691758658398408,1501,1498,1262,1500,1000,0,0,0
1691758658400436,1500,1495,1269,1500,1000,0,0,0
1691758658405039,1504,1505,1262,1500,1000,0,0,0
1691758658409765,1505,1509,1262,1500,1000,0,0,0
1691758658412153,1502,1497,1268,1500,1000,0,0,0
1691758658420345,1501,1499,1262,1500,1000,0,0,0
1691758658421297,1499,1499,1268,1500,1000,0,0,0
1691758658422098,1504,1505,1258,1500,1000,0,0,0
1691758658426134,1505,1508,1262,1500,1000,0,0,0
1691758658432761,1500,1495,1272,1500,1000,0,0,0
1691758658435242,1503,1496,1260,1500,1000,0,0,0
1691758658441484,1500,1497,1266,1500,1000,0,0,0
1691758658441734,1502,1496,1264,1500,1000,0,0,0
1691758658444786,1507,1505,1257,1500,1000,0,0,0
1691758658449280,1507,1508,1260,1500,1000,0,0,0
1691758658456654,1502,1499,1268,1500,1000,0,0,0
1691758658456840,1503,1502,1260,1500,1000,0,0,0
1691758658458538,1504,1504,1262,1500,1000,0,0,0
1691758658462081,1503,1499,1269,1500,1000,0,0,0
1691758658467014,1502,1498,1267,1500,1000,0,0,0
1691758658470066,1506,1510,1256,1500,1000,0,0,0
1691758658473486,1503,1501,1262,1500,1000,0,0,0
1691758658477151,1501,1491,1270,1500,1000,0,0,0
1691758658481350,1502,1493,1265,1500,1000,0,0,0
1691758658484031,1503,1495,1262,1500,1000,0,0,0
1691758658487730,1504,1505,1257,1500,1000,0,0,0
1691758658491118,1504,1512,1255,1500,1000,0,0,0
1691758658494914,1500,1499,1270,1500,1000,0,0,0
1691758658498691,1503,1505,1259,1500,1000,0,0,0
1691758658502111,1503,1506,1262,1500,1000,0,0,0
1691758658507495,1504,1506,1260,1500,1000,0,0,0
1691758658510060,1504,1510,1255,1500,1000,0,0,0
1691758658514070,1500,1497,1266,1500,1000,0,0,0
1691758658516891,1502,1500,1267,1500,1000,0,0,0
1691758658525579,1500,1492,1271,1500,1000,0,0,0
1691758658525927,1499,1499,1266,1500,1000,0,0,0
1691758658529974,1504,1500,1254,1500,1000,0,0,0
1691758658532231,1504,1507,1254,1500,1000,0,0,0
1691758658536174,1498,1488,1271,1500,1000,0,0,0
1691758658539023,1500,1501,1263,1500,1000,0,0,0
1691758658542535,1500,1503,1263,1500,1000,0,0,0
1691758658545662,1504,1505,1250,1500,1000,0,0,0
1691758658551370,1499,1496,1265,1500,1000,0,0,0
1691758658553229,1500,1501,1263,1500,1000,0,0,0
1691758658557886,1499,1499,1261,1500,1000,0,0,0
1691758658562542,1503,1500,1257,1500,1000,0,0,0
1691758658566853,1499,1491,1267,1500,1000,0,0,0
1691758658569101,1501,1496,1264,1500,1000,0,0,0
1691758658571606,1501,1499,1259,1500,1000,0,0,0
1691758658575205,1499,1501,1259,1500,1000,0,0,0
1691758658579184,1495,1490,1267,1500,1000,0,0,0
1691758658583317,1501,1493,1259,1500,1000,0,0,0
1691758658587757,1501,1494,1261,1500,1000,0,0,0
1691758658589502,1501,1504,1255,1500,1000,0,0,0
1691758658593318,1499,1504,1258,1500,1000,0,0,0
1691758658597420,1501,1503,1257,1500,1000,0,0,0
1691758658604491,1504,1507,1254,1500,1000,0,0,0
1691758658605484,1496,1486,1267,1500,1000,0,0,0
1691758658607688,1498,1495,1262,1500,1000,0,0,0
1691758658611329,1500,1497,1260,1500,1000,0,0,0
1691758658615408,1499,1498,1259,1500,1000,0,0,0
1691758658619583,1497,1501,1260,1500,1000,0,0,0
1691758658622521,1501,1503,1257,1500,1000,0,0,0
1691758658626576,1497,1483,1271,1499,1000,0,0,0
1691758658630467,1498,1499,1258,1500,1000,0,0,0
1691758658633594,1498,1502,1260,1500,1000,0,0,0
1691758658636688,1501,1501,1255,1500,1000,0,0,0
1691758658640549,1502,1508,1254,1500,1000,0,0,0
1691758658644483,1496,1495,1265,1500,1000,0,0,0
1691758658648414,1498,1497,1262,1500,1000,0,0,0
1691758658654499,1501,1496,1263,1500,1000,0,0,0
1691758658655155,1499,1496,1257,1500,1000,0,0,0
1691758658658572,1498,1503,1255,1500,1000,0,0,0
1691758658662416,1500,1504,1255,1500,1000,0,0,0
1691758658666393,1496,1492,1264,1500,1000,0,0,0
1691758658670402,1495,1496,1262,1500,1000,0,0,0
1691758658673053,1496,1496,1264,1500,1000,0,0,0
1691758658676731,1498,1495,1261,1500,1000,0,0,0
1691758658680522,1499,1499,1258,1500,1000,0,0,0
1691758658685942,1495,1500,1266,1500,1000,0,0,0
1691758658688629,1497,1495,1257,1500,1000,0,0,0
1691758658692577,1499,1493,1260,1500,1000,0,0,0
1691758658694738,1497,1496,1261,1500,1000,0,0,0
1691758658698589,1499,1500,1258,1500,1000,0,0,0
1691758658702434,1503,1504,1260,1500,1000,0,0,0
1691758658708888,1496,1492,1262,1500,1000,0,0,0
1691758658710368,1495,1498,1260,1500,1000,0,0,0
1691758658712955,1496,1496,1259,1500,1000,0,0,0
1691758658717170,1498,1497,1259,1500,1000,0,0,0
1691758658720476,1498,1504,1258,1500,1000,0,0,0
1691758658726427,1495,1498,1268,1500,1000,0,0,0
1691758658729711,1495,1493,1263,1500,1000,0,0,0
1691758658731181,1497,1497,1262,1500,1000,0,0,0
1691758658735409,1497,1495,1260,1500,1000,0,0,0
1691758658740427,1498,1497,1258,1500,1000,0,0,0
1691758658742471,1503,1504,1254,1500,1000,0,0,0
1691758658745768,1497,1495,1265,1500,1000,0,0,0
1691758658749551,1495,1497,1265,1500,1000,0,0,0
1691758658753510,1495,1498,1262,1500,1000,0,0,0
1691758658758877,1498,1500,1257,1500,1000,0,0,0
1691758658760409,1500,1505,1253,1500,1000,0,0,0
1691758658765109,1495,1491,1267,1500,1000,0,0,0
1691758658768489,1496,1496,1261,1500,1000,0,0,0
1691758658771363,1496,1500,1263,1500,1000,0,0,0
1691758658775044,1496,1500,1262,1500,1000,0,0,0
1691758658779754,1498,1498,1260,1500,1000,0,0,0
1691758658782368,1501,1502,1257,1500,1000,0,0,0
1691758658785891,1496,1492,1267,1500,1000,0,0,0
1691758658791123,1495,1497,1261,1500,1000,0,0,0
1691758658793514,1496,1500,1262,1500,1000,0,0,0
1691758658797660,1496,1500,1261,1500,1000,0,0,0
1691758658801258,1498,1504,1258,1500,1000,0,0,0
1691758658804021,1504,1522,1253,1500,1000,0,0,0
1691758658807694,1496,1495,1262,1500,1000,0,0,0
1691758658811582,1495,1495,1265,1500,1000,0,0,0
1691758658818855,1496,1495,1262,1500,1000,0,0,0
1691758658819676,1497,1496,1262,1500,1000,0,0,0
1691758658822057,1498,1498,1262,1500,1000,0,0,0
1691758658825832,1499,1501,1258,1500,1000,0,0,0
1691758658829777,1496,1491,1269,1500,1000,0,0,0
1691758658833694,1495,1495,1262,1500,1000,0,0,0
1691758658838596,1496,1499,1264,1500,1000,0,0,0
1691758658841587,1499,1507,1258,1500,1000,0,0,0
1691758658843953,1496,1495,1268,1500,1000,0,0,0
1691758658848072,1497,1499,1260,1500,1000,0,0,0
1691758658851523,1498,1503,1262,1500,1000,0,0,0
1691758658855541,1499,1506,1255,1500,1000,0,0,0
1691758658858672,1496,1492,1264,1500,1000,0,0,0
1691758658868592,1498,1502,1259,1500,1000,0,0,0
1691758658868788,1499,1503,1262,1500,1000,0,0,0
1691758658870287,1498,1500,1261,1500,1000,0,0,0
1691758658873374,1500,1504,1257,1500,1000,0,0,0
1691758658876698,1503,1508,1254,1500,1000,0,0,0
1691758658880611,1496,1497,1267,1500,1000,0,0,0
1691758658886184,1497,1499,1266,1500,1000,0,0,0
1691758658888430,1497,1503,1261,1500,1000,0,0,0
1691758658893770,1499,1502,1262,1500,1000,0,0,0
1691758658894691,1501,1503,1255,1500,1000,0,0,0
1691758658901062,1502,1510,1254,1500,1000,0,0,0
1691758658904971,1497,1498,1266,1500,1000,0,0,0
1691758658906568,1498,1498,1264,1500,1000,0,0,0
1691758658909369,1499,1499,1261,1500,1000,0,0,0
1691758658912952,1499,1500,1258,1500,1000,0,0,0
1691758658916879,1503,1501,1255,1500,1000,0,0,0
1691758658920577,1505,1505,1255,1500,1000,0,0,0
1691758658924623,1498,1495,1269,1500,1000,0,0,0
1691758658930749,1496,1499,1263,1500,1000,0,0,0
1691758658931570,1500,1503,1264,1500,1000,0,0,0
1691758658934954,1499,1503,1261,1500,1000,0,0,0
1691758658938637,1500,1506,1258,1500,1000,0,0,0
1691758658942630,1507,1524,1255,1501,1000,0,0,0
1691758658947607,1499,1498,1267,1500,1000,0,0,0
1691758658951588,1497,1499,1264,1500,1000,0,0,0
1691758658952789,1499,1500,1264,1500,1000,0,0,0
1691758658957654,1501,1501,1262,1500,1000,0,0,0
1691758658960395,1502,1504,1259,1500,1000,0,0,0
1691758658964468,1502,1501,1255,1500,1000,0,0,0
1691758658967653,1499,1491,1269,1500,1000,0,0,0
1691758658971625,1500,1498,1266,1500,1000,0,0,0
1691758658975750,1500,1501,1262,1500,1000,0,0,0
1691758658979362,1499,1502,1260,1500,1000,0,0,0
1691758658982180,1507,1524,1256,1501,1000,0,0,0
1691758658986177,1500,1497,1269,1500,1000,0,0,0
1691758658989647,1498,1497,1263,1500,1000,0,0,0
1691758658995941,1498,1500,1265,1500,1000,0,0,0
1691758658997663,1502,1504,1260,1500,1000,0,0,0
1691758659000466,1503,1507,1266,1500,1000,0,0,0
1691758659004357,1497,1503,1269,1500,1000,0,0,0
1691758659007889,1498,1495,1266,1500,1000,0,0,0
1691758659011963,1500,1497,1260,1500,1000,0,0,0
1691758659021081,1500,1499,1261,1500,1000,0,0,0
1691758659021308,1500,1505,1258,1500,1000,0,0,0
1691758659022665,1498,1494,1271,1500,1000,0,0,0
1691758659033035,1501,1497,1266,1500,1000,0,0,0
1691758659033265,1500,1502,1262,1500,1000,0,0,0
1691758659034052,1499,1504,1258,1500,1000,0,0,0
1691758659036613,1499,1492,1269,1500,1000,0,0,0
1691758659040750,1501,1500,1262,1500,1000,0,0,0
1691758659045226,1499,1504,1264,1500,1000,0,0,0
1691758659048608,1501,1508,1257,1500,1000,0,0,0
1691758659051258,1501,1497,1267,1500,1000,0,0,0
1691758659055018,1500,1502,1261,1500,1000,0,0,0
1691758659058878,1498,1503,1258,1500,1000,0,0,0
1691758659062715,1503,1507,1260,1500,1000,0,0,0
1691758659066726,1499,1494,1268,1500,1000,0,0,0
1691758659069413,1499,1496,1257,1500,1000,0,0,0
1691758659073250,1498,1501,1258,1500,1000,0,0,0
1691758659076749,1498,1501,1261,1500,1000,0,0,0
1691758659081490,1502,1505,1254,1500,1000,0,0,0
1691758659084997,1499,1493,1263,1500,1000,0,0,0
1691758659087723,1498,1503,1260,1500,1000,0,0,0
1691758659091223,1499,1503,1258,1500,1000,0,0,0
1691758659094881,1501,1502,1255,1500,1000,0,0,0
1691758659098764,1498,1504,1264,1500,1000,0,0,0
1691758659102810,1499,1498,1262,1500,1000,0,0,0
1691758659107683,1501,1496,1254,1500,1000,0,0,0
1691758659109385,1502,1498,1261,1500,1000,0,0,0
1691758659113893,1500,1503,1259,1500,1000,0,0,0
1691758659116805,1506,1521,1252,1500,1000,0,0,0
1691758659120913,1499,1494,1263,1500,1000,0,0,0
1691758659125726,1499,1496,1261,1500,1000,0,0,0
1691758659128377,1497,1495,1256,1500,1000,0,0,0
1691758659131744,1498,1499,1256,1500,1000,0,0,0
1691758659136184,1500,1500,1256,1500,1000,0,0,0
1691758659138613,1505,1517,1254,1500,1000,0,0,0
1691758659142402,1494,1492,1265,1500,1000,0,0,0
1691758659146642,1496,1494,1259,1500,1000,0,0,0
1691758659149676,1499,1495,1261,1500,1000,0,0,0
1691758659154769,1500,1501,1256,1500,1000,0,0,0
1691758659157603,1496,1492,1263,1500,1000,0,0,0
1691758659160427,1499,1498,1261,1500,1000,0,0,0
1691758659163947,1500,1499,1263,1500,1000,0,0,0
1691758659167794,1500,1501,1258,1500,1000,0,0,0
1691758659171937,1496,1490,1263,1500,1000,0,0,0
1691758659175767,1499,1494,1256,1500,1000,0,0,0
1691758659178416,1499,1499,1258,1500,1000,0,0,0
1691758659182250,1498,1500,1254,1500,1000,0,0,0
1691758659185919,1505,1519,1252,1500,1000,0,0,0
1691758659189896,1495,1493,1265,1500,1000,0,0,0
1691758659193818,1496,1494,1259,1500,1000,0,0,0
1691758659196648,1497,1498,1261,1500,1000,0,0,0
1691758659200837,1497,1498,1259,1500,1000,0,0,0
1691758659205090,1503,1517,1255,1500,1000,0,0,0
1691758659207602,1497,1493,1264,1500,1000,0,0,0
1691758659211325,1496,1494,1262,1500,1000,0,0,0
1691758659215107,1497,1494,1259,1500,1000,0,0,0
1691758659219262,1501,1497,1255,1500,1000,0,0,0
1691758659222817,1497,1496,1264,1500,1000,0,0,0
1691758659228747,1496,1493,1259,1500,1000,0,0,0
1691758659229578,1498,1498,1258,1500,1000,0,0,0
1691758659233565,1499,1498,1255,1500,1000,0,0,0
1691758659237241,1502,1503,1248,1500,1000,0,0,0
1691758659240827,1497,1495,1261,1500,1000,0,0,0
1691758659244903,1497,1500,1262,1500,1000,0,0,0
1691758659248039,1498,1500,1256,1500,1000,0,0,0
1691758659253960,1499,1499,1257,1500,1000,0,0,0
1691758659255421,1500,1504,1253,1500,1000,0,0,0
1691758659259192,1496,1491,1263,1500,1000,0,0,0
1691758659262765,1498,1497,1263,1500,1000,0,0,0
1691758659266735,1499,1501,1260,1500,1000,0,0,0
1691758659269299,1499,1500,1260,1500,1000,0,0,0
1691758659273103,1502,1501,1254,1500,1000,0,0,0
1691758659279478,1509,1517,1249,1501,1000,0,0,0
1691758659281000,1497,1494,1265,1500,1000,0,0,0
1691758659284872,1495,1495,1262,1500,1000,0,0,0
1691758659288065,1497,1497,1261,1500,1000,0,0,0
1691758659292480,1498,1499,1256,1500,1000,0,0,0
1691758659294753,1506,1519,1246,1501,1000,0,0,0
1691758659301071,1496,1496,1263,1500,1000,0,0,0
1691758659302774,1497,1495,1263,1500,1000,0,0,0
1691758659305748,1497,1498,1263,1500,1000,0,0,0
1691758659309953,1503,1517,1254,1501,1000,0,0,0
1691758659313987,1500,1517,1264,1501,1000,0,0,0
1691758659316703,1497,1483,1261,1500,1000,0,0,0
1691758659320481,1496,1490,1261,1500,1000,0,0,0
1691758659324910,1498,1496,1260,1500,1000,0,0,0
1691758659328700,1500,1498,1261,1500,1000,0,0,0
1691758659337547,1500,1500,1259,1500,1000,0,0,0
1691758659337728,1503,1507,1251,1500,1000,0,0,0
1691758659339090,1499,1498,1262,1500,1000,0,0,0
1691758659342740,1500,1497,1265,1500,1000,0,0,0
1691758659346053,1501,1502,1255,1500,1000,0,0,0
1691758659350044,1497,1492,1264,1500,1000,0,0,0
1691758659354085,1498,1500,1265,1500,1000,0,0,0
1691758659356853,1500,1501,1263,1500,1000,0,0,0
1691758659360447,1500,1501,1262,1500,1000,0,0,0
1691758659364461,1500,1503,1259,1500,1000,0,0,0
1691758659367700,1505,1505,1255,1500,1000,0,0,0
1691758659371187,1499,1497,1267,1500,1000,0,0,0
1691758659374939,1498,1501,1265,1500,1000,0,0,0
1691758659378347,1500,1502,1263,1500,1000,0,0,0
1691758659386746,1502,1501,1257,1500,1000,0,0,0
1691758659386991,1507,1522,1252,1501,1000,0,0,0
1691758659389972,1496,1497,1268,1500,1000,0,0,0
1691758659393547,1497,1497,1264,1500,1000,0,0,0
1691758659396739,1500,1500,1263,1500,1000,0,0,0
1691758659400465,1500,1503,1258,1500,1000,0,0,0
1691758659405457,1508,1522,1250,1501,1000,0,0,0
1691758659407815,1499,1499,1267,1500,1000,0,0,0
1691758659411325,1499,1497,1267,1500,1000,0,0,0
1691758659417714,1500,1501,1259,1500,1000,0,0,0
1691758659418867,1498,1498,1264,1500,1000,0,0,0
1691758659423112,1500,1496,1263,1500,1000,0,0,0
1691758659426453,1501,1500,1262,1500,1000,0,0,0
1691758659429553,1498,1502,1260,1500,1000,0,0,0
1691758659433174,1507,1524,1251,1501,1000,0,0,0
1691758659437112,1500,1497,1262,1500,1000,0,0,0
1691758659441414,1499,1496,1261,1500,1000,0,0,0
1691758659444824,1498,1501,1259,1500,1000,0,0,0
1691758659448073,1508,1521,1250,1501,1000,0,0,0
1691758659451301,1500,1498,1264,1500,1000,0,0,0
1691758659455232,1499,1496,1262,1500,1000,0,0,0
1691758659459782,1498,1499,1257,1500,1000,0,0,0
1691758659463187,1498,1502,1263,1500,1000,0,0,0
1691758659466034,1500,1494,1263,1500,1000,0,0,0
1691758659469518,1500,1498,1257,1500,1000,0,0,0
1691758659473073,1499,1503,1256,1500,1000,0,0,0
1691758659477175,1501,1504,1262,1500,1000,0,0,0
1691758659481201,1504,1505,1256,1500,1000,0,0,0
1691758659484122,1499,1499,1262,1500,1000,0,0,0
1691758659487625,1499,1505,1257,1500,1000,0,0,0
1691758659492795,1501,1504,1257,1500,1000,0,0,0
1691758659495454,1509,1525,1250,1501,1000,0,0,0
1691758659499013,1498,1507,1263,1500,1000,0,0,0
1691758659503006,1498,1497,1262,1500,1000,0,0,0
1691758659505977,1500,1499,1256,1500,1000,0,0,0
1691758659509487,1502,1499,1257,1500,1000,0,0,0
1691758659513042,1499,1502,1257,1500,1000,0,0,0
1691758659517285,1501,1504,1257,1500,1000,0,0,0
1691758659523028,1508,1522,1253,1500,1000,0,0,0
1691758659525451,1499,1498,1264,1500,1000,0,0,0
1691758659527988,1498,1499,1262,1500,1000,0,0,0
1691758659532266,1499,1498,1258,1500,1000,0,0,0
1691758659534897,1507,1517,1253,1500,1000,0,0,0
1691758659540967,1501,1516,1261,1500,1000,0,0,0
1691758659542740,1495,1489,1266,1500,1000,0,0,0
1691758659546040,1498,1488,1262,1500,1000,0,0,0
1691758659550486,1499,1493,1262,1500,1000,0,0,0
1691758659552848,1500,1496,1259,1500,1000,0,0,0
1691758659557241,1499,1500,1260,1500,1000,0,0,0
1691758659561569,1504,1505,1255,1500,1000,0,0,0
1691758659563947,1499,1497,1263,1500,1000,0,0,0
1691758659568453,1498,1499,1264,1500,1000,0,0,0
1691758659572208,1510,1520,1204,1500,1000,0,0,0
1691758659575075,1500,1488,1208,1499,1000,0,0,0
1691758659578394,1499,1494,1203,1500,1000,0,0,0
1691758659582168,1501,1498,1201,1500,1000,0,0,0
1691758659587023,1501,1498,1199,1500,1000,0,0,0
1691758659590082,1509,1523,1195,1500,1000,0,0,0
1691758659593459,1504,1519,1200,1500,1000,0,0,0
1691758659597102,1499,1482,1200,1499,1000,0,0,0
1691758659608472,1498,1486,1202,1499,1000,0,0,0
1691758659608973,1499,1484,1205,1499,1000,0,0,0
1691758659609241,1504,1498,1194,1500,1000,0,0,0
1691758659612918,1501,1496,1203,1500,1000,0,0,0
1691758659615233,1501,1497,1209,1500,1000,0,0,0
1691758659619148,1500,1499,1211,1500,1000,0,0,0
1691758659623639,1501,1497,1212,1500,1000,0,0,0
1691758659625810,1501,1501,1212,1500,1000,0,0,0
1691758659629465,1499,1498,1214,1500,1000,0,0,0
1691758659633150,1499,1494,1219,1499,1000,0,0,0
1691758659637135,1498,1499,1221,1500,1000,0,0,0
1691758659641217,1500,1500,1219,1500,1000,0,0,0
1691758659644513,1500,1497,1223,1499,1000,0,0,0
1691758659650504,1500,1496,1224,1499,1000,0,0,0
1691758659651167,1499,1497,1225,1499,1000,0,0,0
1691758659655142,1498,1493,1228,1499,1000,0,0,0
1691758659659119,1498,1498,1229,1499,1000,0,0,0
1691758659662022,1505,1509,1226,1500,1000,0,0,0
1691758659666619,1500,1502,1231,1499,1000,0,0,0
1691758659669463,1498,1499,1235,1499,1000,0,0,0
1691758659673261,1498,1498,1238,1499,1000,0,0,0
1691758659677339,1497,1498,1239,1499,1000,0,0,0
1691758659680569,1497,1497,1241,1499,1000,0,0,0
1691758659684196,1497,1498,1243,1499,1000,0,0,0
1691758659688451,1497,1498,1244,1499,1000,0,0,0
1691758659691193,1497,1498,1244,1499,1000,0,0,0
1691758659694792,1497,1498,1245,1499,1000,0,0,0
1691758659698563,1497,1498,1245,1499,1000,0,0,0
1691758659702380,1497,1499,1245,1499,1000,0,0,0
1691758659706526,1500,1504,1245,1499,1000,0,0,0
1691758659710457,1498,1505,1247,1499,1000,0,0,0
1691758659713005,1497,1498,1248,1499,1000,0,0,0
1691758659718444,1496,1497,1249,1499,1000,0,0,0
1691758659720513,1496,1497,1249,1499,1000,0,0,0
1691758659724541,1496,1497,1249,1499,1000,0,0,0
1691758659728231,1496,1497,1250,1499,1000,0,0,0
1691758659731345,1496,1497,1250,1499,1000,0,0,0
1691758659736444,1496,1498,1250,1499,1000,0,0,0
1691758659739295,1498,1502,1251,1499,1000,0,0,0
1691758659742131,1497,1496,1252,1499,1000,0,0,0
1691758659747295,1496,1497,1252,1499,1000,0,0,0
1691758659750469,1496,1497,1253,1499,1000,0,0,0
1691758659752926,1497,1497,1253,1499,1000,0,0,0
1691758659756671,1496,1497,1253,1499,1000,0,0,0
1691758659760516,1499,1503,1253,1499,1000,0,0,0
1691758659764509,1497,1496,1255,1499,1000,0,0,0
1691758659768467,1496,1496,1256,1499,1000,0,0,0
1691758659773005,1496,1497,1256,1499,1000,0,0,0
1691758659774884,1496,1497,1256,1499,1000,0,0,0
1691758659779480,1497,1498,1255,1499,1000,0,0,0
1691758659782431,1498,1505,1258,1499,1000,0,0,0
1691758659786450,1495,1498,1259,1499,1000,0,0,0
1691758659790507,1496,1498,1258,1499,1000,0,0,0
1691758659792944,1497,1498,1258,1499,1000,0,0,0
1691758659796901,1497,1499,1257,1499,1000,0,0,0
1691758659800526,1496,1499,1258,1499,1000,0,0,0
1691758659804435,1496,1498,1259,1499,1000,0,0,0
1691758659808462,1497,1498,1259,1499,1000,0,0,0
1691758659811439,1497,1499,1258,1499,1000,0,0,0
1691758659815375,1497,1499,1256,1499,1000,0,0,0
1691758659819440,1496,1495,1259,1499,1000,0,0,0
1691758659822179,1497,1498,1258,1499,1000,0,0,0
1691758659825861,1497,1499,1258,1499,1000,0,0,0
1691758659829343,1497,1500,1257,1499,1000,0,0,0
1691758659833445,1500,1505,1257,1499,1000,0,0,0
1691758659837336,1498,1498,1258,1499,1000,0,0,0
1691758659841315,1497,1498,1257,1499,1000,0,0,0
1691758659843993,1497,1499,1259,1499,1000,0,0,0
1691758659847957,1500,1504,1258,1499,1000,0,0,0
1691758659851734,1497,1496,1260,1499,1000,0,0,0
1691758659855524,1497,1498,1258,1499,1000,0,0,0
1691758659859497,1498,1498,1257,1499,1000,0,0,0
1691758659862435,1498,1499,1257,1499,1000,0,0,0
1691758659866090,1500,1505,1257,1499,1000,0,0,0
1691758659869375,1498,1497,1257,1499,1000,0,0,0
1691758659873292,1498,1498,1256,1499,1000,0,0,0
1691758659877483,1498,1499,1256,1499,1000,0,0,0
1691758659881281,1498,1500,1256,1499,1000,0,0,0
1691758659884098,1498,1500,1257,1499,1000,0,0,0
1691758659887864,1499,1499,1257,1499,1000,0,0,0
1691758659891578,1499,1499,1256,1499,1000,0,0,0
1691758659895374,1499,1500,1256,1499,1000,0,0,0
1691758659899484,1499,1500,1255,1499,1000,0,0,0
1691758659904491,1499,1497,1258,1499,1000,0,0,0
1691758659907039,1500,1499,1257,1499,1000,0,0,0
1691758659911511,1500,1499,1256,1499,1000,0,0,0
1691758659914667,1500,1499,1256,1499,1000,0,0,0
1691758659917565,1503,1505,1256,1499,1000,0,0,0
1691758659920372,1500,1498,1257,1499,1000,0,0,0
1691758659924756,1500,1499,1256,1499,1000,0,0,0
1691758659927646,1500,1499,1256,1499,1000,0,0,0
1691758659934079,1500,1499,1255,1499,1000,0,0,0
1691758659934961,1500,1500,1255,1499,1000,0,0,0
1691758659938475,1500,1498,1257,1499,1000,0,0,0
1691758659942472,1501,1499,1256,1499,1000,0,0,0
1691758659946544,1501,1500,1256,1499,1000,0,0,0
1691758659954241,1501,1501,1256,1499,1000,0,0,0
1691758659954538,1501,1501,1255,1499,1000,0,0,0
1691758659956785,1502,1498,1257,1499,1000,0,0,0
1691758659960572,1502,1500,1257,1499,1000,0,0,0
1691758659964626,1502,1501,1257,1499,1000,0,0,0
1691758659968524,1502,1500,1256,1499,1000,0,0,0
1691758659971168,1503,1501,1255,1499,1000,0,0,0
1691758659975028,1502,1499,1256,1499,1000,0,0,0
1691758659978483,1502,1500,1256,1499,1000,0,0,0
1691758659982487,1502,1501,1257,1499,1000,0,0,0
1691758659987446,1503,1501,1256,1499,1000,0,0,0
1691758659990526,1503,1502,1255,1499,1000,0,0,0
1691758659992964,1502,1499,1257,1499,1000,0,0,0
1691758659996745,1503,1500,1257,1499,1000,0,0,0
1691758660000805,1503,1501,1257,1499,1000,0,0,0
1691758660004530,1503,1502,1257,1499,1000,0,0,0
1691758660008648,1503,1502,1256,1499,1000,0,0,0
1691758660011025,1503,1498,1258,1499,1000,0,0,0
1691758660014888,1503,1499,1257,1499,1000,0,0,0
1691758660018636,1503,1500,1257,1499,1000,0,0,0
1691758660022827,1504,1501,1257,1499,1000,0,0,0
1691758660026546,1504,1501,1256,1499,1000,0,0,0
1691758660030544,1503,1501,1257,1499,1000,0,0,0
1691758660033021,1503,1500,1257,1499,1000,0,0,0
1691758660036672,1504,1501,1258,1499,1000,0,0,0
1691758660042520,1504,1502,1258,1499,1000,0,0,0
1691758660044868,1504,1502,1256,1499,1000,0,0,0
1691758660047676,1503,1498,1258,1499,1000,0,0,0
1691758660057203,1503,1500,1257,1499,1000,0,0,0
1691758660057399,1504,1502,1258,1499,1000,0,0,0
1691758660060463,1503,1502,1258,1499,1000,0,0,0
1691758660062548,1507,1509,1257,1500,1000,0,0,0
1691758660067425,1503,1500,1257,1499,1000,0,0,0
1691758660072482,1502,1500,1256,1499,1000,0,0,0
1691758660073701,1502,1501,1256,1499,1000,0,0,0
1691758660077725,1503,1501,1257,1499,1000,0,0,0
1691758660081020,1506,1507,1257,1500,1000,0,0,0
1691758660084080,1505,1509,1257,1500,1000,0,0,0
1691758660087648,1502,1500,1257,1500,1000,0,0,0
1691758660091766,1502,1499,1256,1500,1000,0,0,0
1691758660095614,1502,1499,1257,1500,1000,0,0,0
1691758660100519,1504,1504,1257,1500,1000,0,0,0
1691758660102608,1504,1505,1256,1500,1000,0,0,0
1691758660106647,1502,1497,1258,1500,1000,0,0,0
1691758660109413,1501,1498,1258,1500,1000,0,0,0
1691758660113858,1501,1498,1258,1500,1000,0,0,0
1691758660117962,1501,1498,1258,1500,1000,0,0,0
1691758660120142,1504,1504,1258,1500,1000,0,0,0
1691758660123922,1502,1497,1259,1500,1000,0,0,0
1691758660127731,1501,1496,1258,1500,1000,0,0,0
1691758660131922,1501,1497,1258,1500,1000,0,0,0
1691758660135581,1501,1498,1257,1500,1000,0,0,0
1691758660139518,1500,1493,1260,1500,1000,0,0,0
1691758660142204,1500,1496,1259,1500,1000,0,0,0
1691758660145791,1500,1497,1258,1500,1000,0,0,0
1691758660149908,1500,1498,1258,1500,1000,0,0,0
1691758660155214,1500,1498,1259,1500,1000,0,0,0
1691758660157652,1499,1497,1259,1500,1000,0,0,0
1691758660160563,1499,1498,1259,1500,1000,0,0,0
1691758660163877,1499,1499,1259,1500,1000,0,0,0
1691758660167540,1499,1499,1258,1500,1000,0,0,0
1691758660171712,1498,1496,1259,1500,1000,0,0,0
1691758660175743,1498,1498,1258,1500,1000,0,0,0
1691758660178426,1499,1498,1259,1500,1000,0,0,0
1691758660182134,1499,1499,1258,1500,1000,0,0,0
1691758660185785,1502,1506,1257,1500,1000,0,0,0
1691758660189501,1499,1499,1258,1500,1000,0,0,0
1691758660192966,1498,1498,1258,1500,1000,0,0,0
1691758660196898,1498,1498,1258,1500,1000,0,0,0
1691758660206500,1500,1504,1258,1500,1000,0,0,0
1691758660207094,1498,1497,1259,1500,1000,0,0,0
1691758660207437,1498,1496,1258,1500,1000,0,0,0
1691758660212122,1498,1497,1258,1500,1000,0,0,0
1691758660215785,1497,1498,1258,1500,1000,0,0,0
1691758660218682,1500,1503,1258,1500,1000,0,0,0
1691758660222978,1498,1497,1259,1500,1000,0,0,0
1691758660226746,1497,1497,1258,1500,1000,0,0,0
1691758660229347,1497,1497,1257,1500,1000,0,0,0
1691758660233109,1497,1498,1256,1500,1000,0,0,0
1691758660236830,1497,1494,1259,1500,1000,0,0,0
1691758660240808,1496,1497,1257,1500,1000,0,0,0
1691758660244646,1496,1498,1257,1500,1000,0,0,0
1691758660247556,1497,1498,1256,1500,1000,0,0,0
1691758660252255,1499,1503,1256,1500,1000,0,0,0
1691758660254830,1497,1499,1257,1500,1000,0,0,0
1691758660260481,1496,1498,1257,1500,1000,0,0,0
1691758660262717,1497,1498,1257,1500,1000,0,0,0
1691758660266868,1497,1499,1256,1500,1000,0,0,0
1691758660269625,1496,1499,1257,1500,1000,0,0,0
1691758660273086,1497,1498,1257,1500,1000,0,0,0
1691758660277062,1497,1498,1257,1500,1000,0,0,0
1691758660280697,1497,1499,1257,1500,1000,0,0,0
1691758660284851,1496,1499,1256,1500,1000,0,0,0
1691758660288260,1497,1496,1257,1500,1000,0,0,0
1691758660294005,1497,1498,1256,1500,1000,0,0,0
1691758660294727,1497,1499,1256,1500,1000,0,0,0
1691758660298863,1497,1499,1256,1500,1000,0,0,0
1691758660302913,1500,1503,1256,1500,1000,0,0,0
1691758660306837,1498,1498,1257,1500,1000,0,0,0
1691758660309332,1497,1499,1256,1500,1000,0,0,0
1691758660314281,1497,1499,1256,1500,1000,0,0,0
1691758660320926,1497,1499,1256,1500,1000,0,0,0
1691758660321164,1500,1504,1256,1500,1000,0,0,0
1691758660324877,1497,1499,1257,1500,1000,0,0,0
1691758660327495,1497,1499,1256,1500,1000,0,0,0
1691758660331204,1497,1499,1256,1500,1000,0,0,0
1691758660334866,1497,1500,1256,1500,1000,0,0,0
1691758660338907,1499,1505,1256,1500,1000,0,0,0
1691758660343685,1498,1500,1257,1500,1000,0,0,0
1691758660346879,1497,1500,1256,1500,1000,0,0,0
1691758660350630,1497,1500,1256,1500,1000,0,0,0
1691758660352944,1497,1500,1255,1500,1000,0,0,0
1691758660357019,1500,1504,1256,1500,1000,0,0,0
1691758660361338,1498,1500,1256,1500,1000,0,0,0
1691758660364946,1497,1500,1256,1500,1000,0,0,0
1691758660368911,1498,1500,1256,1500,1000,0,0,0
1691758660371091,1498,1500,1256,1500,1000,0,0,0
1691758660375517,1498,1501,1256,1500,1000,0,0,0
1691758660378691,1498,1499,1257,1500,1000,0,0,0
1691758660383403,1498,1500,1257,1500,1000,0,0,0
1691758660387001,1498,1500,1256,1500,1000,0,0,0
1691758660389962,1498,1501,1256,1500,1000,0,0,0
1691758660393836,1501,1507,1256,1500,1000,0,0,0
1691758660396613,1499,1501,1257,1500,1000,0,0,0
1691758660400517,1498,1501,1256,1500,1000,0,0,0
1691758660404439,1498,1501,1256,1500,1000,0,0,0
1691758660408001,1498,1501,1256,1500,1000,0,0,0
1691758660411922,1502,1506,1255,1500,1000,0,0,0
1691758660415766,1499,1501,1256,1500,1000,0,0,0
1691758660418405,1499,1501,1256,1500,1000,0,0,0
1691758660423002,1499,1501,1257,1500,1000,0,0,0
1691758660425972,1499,1501,1256,1500,1000,0,0,0
1691758660429839,1502,1506,1256,1500,1000,0,0,0
1691758660434032,1500,1500,1257,1500,1000,0,0,0
1691758660436639,1499,1500,1257,1500,1000,0,0,0
1691758660441293,1500,1500,1257,1500,1000,0,0,0
1691758660443867,1500,1501,1257,1500,1000,0,0,0
1691758660448091,1502,1505,1256,1500,1000,0,0,0
1691758660452904,1500,1498,1257,1500,1000,0,0,0
1691758660454629,1500,1500,1257,1500,1000,0,0,0
1691758660459000,1500,1500,1257,1500,1000,0,0,0
1691758660464197,1500,1500,1257,1500,1000,0,0,0
1691758660465769,1503,1506,1257,1500,1000,0,0,0
1691758660469952,1500,1499,1258,1500,1000,0,0,0
1691758660473954,1500,1500,1257,1500,1000,0,0,0
1691758660478238,1500,1500,1257,1500,1000,0,0,0
1691758660480758,1500,1501,1257,1500,1000,0,0,0
1691758660484047,1504,1507,1257,1500,1000,0,0,0
1691758660488117,1501,1501,1257,1500,1000,0,0,0
1691758660491989,1500,1500,1257,1500,1000,0,0,0
1691758660496800,1500,1500,1257,1500,1000,0,0,0
1691758660499732,1500,1501,1257,1500,1000,0,0,0
1691758660503505,1504,1507,1257,1500,1000,0,0,0
1691758660506053,1501,1500,1257,1500,1000,0,0,0
1691758660509385,1501,1500,1257,1500,1000,0,0,0
1691758660512957,1501,1501,1257,1500,1000,0,0,0
1691758660517153,1501,1500,1256,1500,1000,0,0,0
1691758660521854,1503,1509,1259,1500,1000,0,0,0
1691758660524844,1501,1502,1257,1500,1000,0,0,0
1691758660527521,1501,1500,1257,1500,1000,0,0,0
1691758660531251,1501,1500,1257,1500,1000,0,0,0
1691758660535155,1502,1501,1256,1500,1000,0,0,0
1691758660539573,1502,1497,1258,1500,1000,0,0,0
1691758660543201,1501,1499,1257,1500,1000,0,0,0
1691758660545649,1501,1500,1257,1500,1000,0,0,0
1691758660549569,1501,1500,1257,1500,1000,0,0,0
1691758660553033,1502,1500,1256,1500,1000,0,0,0
1691758660557021,1501,1498,1257,1500,1000,0,0,0
1691758660561098,1501,1499,1257,1500,1000,0,0,0
1691758660563883,1502,1500,1257,1500,1000,0,0,0
1691758660568416,1502,1500,1256,1500,1000,0,0,0
1691758660572160,1507,1508,1256,1500,1000,0,0,0
1691758660574812,1503,1501,1256,1500,1000,0,0,0
1691758660578444,1502,1499,1257,1500,1000,0,0,0
1691758660582774,1502,1499,1257,1500,1000,0,0,0
1691758660586054,1504,1505,1257,1500,1000,0,0,0
1691758660590382,1502,1497,1258,1500,1000,0,0,0
1691758660594034,1501,1498,1257,1500,1000,0,0,0
1691758660596640,1501,1499,1257,1500,1000,0,0,0
1691758660600744,1501,1499,1257,1500,1000,0,0,0
1691758660606030,1505,1505,1256,1500,1000,0,0,0
1691758660608952,1502,1498,1257,1500,1000,0,0,0
1691758660615400,1500,1498,1256,1500,1000,0,0,0
1691758660615610,1500,1499,1256,1500,1000,0,0,0
1691758660619107,1501,1499,1256,1500,1000,0,0,0
1691758660623614,1506,1505,1255,1500,1000,0,0,0
1691758660626108,1501,1500,1256,1500,1000,0,0,0
1691758660630073,1500,1499,1256,1500,1000,0,0,0
1691758660632971,1501,1498,1256,1500,1000,0,0,0
1691758660636597,1501,1499,1256,1500,1000,0,0,0
1691758660640438,1505,1505,1255,1500,1000,0,0,0
1691758660644018,1502,1498,1257,1500,1000,0,0,0
1691758660647482,1501,1498,1257,1500,1000,0,0,0
1691758660651173,1500,1498,1256,1500,1000,0,0,0
1691758660656120,1500,1498,1256,1500,1000,0,0,0
1691758660658484,1504,1503,1256,1500,1000,0,0,0
1691758660662052,1502,1497,1256,1500,1000,0,0,0
1691758660666104,1500,1498,1256,1500,1000,0,0,0
1691758660670513,1500,1498,1256,1500,1000,0,0,0
1691758660672889,1503,1502,1256,1500,1000,0,0,0
1691758660677507,1501,1495,1257,1500,1000,0,0,0
1691758660681175,1499,1497,1256,1500,1000,0,0,0
1691758660683911,1499,1498,1256,1500,1000,0,0,0
1691758660687554,1500,1498,1257,1500,1000,0,0,0
1691758660691271,1500,1498,1257,1500,1000,0,0,0
1691758660697638,1502,1505,1258,1500,1000,0,0,0
1691758660699137,1501,1498,1258,1500,1000,0,0,0
1691758660702040,1500,1497,1257,1500,1000,0,0,0
1691758660706151,1500,1498,1257,1500,1000,0,0,0
1691758660710131,1502,1502,1257,1500,1000,0,0,0
1691758660714063,1501,1494,1258,1500,1000,0,0,0
1691758660716664,1499,1496,1257,1500,1000,0,0,0
1691758660720568,1499,1498,1257,1500,1000,0,0,0
1691758660724111,1498,1498,1256,1500,1000,0,0,0
1691758660728232,1502,1503,1256,1500,1000,0,0,0
1691758660731252,1499,1498,1257,1500,1000,0,0,0
1691758660735235,1498,1498,1257,1500,1000,0,0,0
1691758660739261,1498,1498,1257,1500,1000,0,0,0
1691758660742035,1499,1498,1256,1500,1000,0,0,0
1691758660746094,1503,1505,1256,1500,1000,0,0,0
1691758660750134,1499,1499,1257,1500,1000,0,0,0
1691758660752926,1499,1498,1257,1500,1000,0,0,0
1691758660756500,1499,1498,1257,1500,1000,0,0,0
1691758660760166,1498,1498,1257,1500,1000,0,0,0
1691758660764501,1498,1498,1257,1500,1000,0,0,0
1691758660770091,1498,1497,1257,1500,1000,0,0,0
1691758660771381,1498,1498,1257,1500,1000,0,0,0
1691758660774710,1498,1498,1257,1500,1000,0,0,0
1691758660779188,1501,1503,1257,1500,1000,0,0,0
1691758660781990,1499,1496,1257,1500,1000,0,0,0
1691758660786300,1498,1497,1257,1500,1000,0,0,0
1691758660790153,1498,1498,1257,1500,1000,0,0,0
1691758660793014,1498,1498,1257,1500,1000,0,0,0
1691758660796995,1498,1498,1257,1500,1000,0,0,0
1691758660800555,1498,1497,1257,1500,1000,0,0,0
1691758660804821,1498,1498,1257,1500,1000,0,0,0
1691758660809255,1498,1498,1257,1500,1000,0,0,0
1691758660812116,1501,1503,1256,1500,1000,0,0,0
1691758660814828,1498,1498,1257,1500,1000,0,0,0
1691758660818474,1497,1498,1256,1500,1000,0,0,0
1691758660823135,1497,1498,1256,1500,1000,0,0,0
1691758660826259,1497,1498,1256,1500,1000,0,0,0
1691758660830512,1501,1504,1255,1500,1000,0,0,0
1691758660834000,1498,1499,1256,1500,1000,0,0,0
1691758660837024,1497,1499,1256,1500,1000,0,0,0
1691758660840584,1497,1499,1256,1500,1000,0,0,0
1691758660844409,1498,1499,1256,1500,1000,0,0,0
1691758660848467,1497,1496,1256,1500,1000,0,0,0
1691758660851030,1497,1498,1256,1500,1000,0,0,0
1691758660854742,1497,1499,1256,1500,1000,0,0,0
1691758660858542,1497,1499,1256,1500,1000,0,0,0
1691758660862536,1498,1499,1255,1500,1000,0,0,0
1691758660865694,1498,1497,1256,1500,1000,0,0,0
1691758660870412,1498,1498,1256,1500,1000,0,0,0
1691758660873655,1497,1498,1256,1500,1000,0,0,0
1691758660876895,1497,1499,1256,1500,1000,0,0,0
1691758660880638,1501,1504,1255,1500,1000,0,0,0
1691758660887702,1499,1497,1256,1499,1000,0,0,0
1691758660888487,1498,1498,1256,1500,1000,0,0,0
1691758660892482,1497,1499,1256,1500,1000,0,0,0
1691758660894801,1498,1499,1256,1500,1000,0,0,0
1691758660899096,1500,1504,1255,1500,1000,0,0,0
1691758660902619,1499,1507,1256,1500,1000,0,0,0
1691758660906487,1498,1500,1256,1500,1000,0,0,0
1691758660910793,1498,1500,1256,1500,1000,0,0,0
1691758660913014,1498,1500,1256,1500,1000,0,0,0
1691758660917079,1497,1500,1256,1500,1000,0,0,0
1691758660920570,1501,1504,1255,1500,1000,0,0,0
1691758660924476,1499,1498,1256,1500,1000,0,0,0
1691758660928470,1498,1499,1256,1499,1000,0,0,0
1691758660931206,1498,1499,1256,1500,1000,0,0,0
1691758660935399,1498,1500,1256,1500,1000,0,0,0
1691758660939384,1498,1500,1256,1499,1000,0,0,0
1691758660942135,1501,1506,1255,1500,1000,0,0,0
1691758660945710,1499,1501,1256,1500,1000,0,0,0
1691758660949553,1498,1500,1256,1499,1000,0,0,0
1691758660953515,1498,1500,1256,1499,1000,0,0,0
1691758660957377,1498,1500,1256,1499,1000,0,0,0
1691758660961168,1502,1505,1256,1500,1000,0,0,0
1691758660971262,1499,1499,1257,1499,1000,0,0,0
1691758660971497,1498,1500,1257,1499,1000,0,0,0
1691758660975401,1498,1500,1257,1499,1000,0,0,0
1691758660975579,1499,1500,1257,1499,1000,0,0,0
1691758660978847,1499,1500,1256,1499,1000,0,0,0
1691758660982211,1498,1498,1258,1499,1000,0,0,0
1691758660986496,1499,1499,1258,1499,1000,0,0,0
1691758660989501,1499,1499,1257,1499,1000,0,0,0
1691758660993525,1499,1500,1257,1499,1000,0,0,0
1691758660997562,1499,1500,1257,1499,1000,0,0,0
1691758661003894,1499,1498,1258,1499,1000,0,0,0
1691758661004603,1499,1499,1258,1499,1000,0,0,0
1691758661008491,1499,1500,1258,1499,1000,0,0,0
1691758661011110,1499,1501,1258,1499,1000,0,0,0
1691758661015765,1503,1506,1257,1500,1000,0,0,0
1691758661018465,1500,1501,1258,1499,1000,0,0,0
1691758661027998,1499,1500,1257,1499,1000,0,0,0
1691758661028207,1499,1500,1258,1499,1000,0,0,0
1691758661034477,1502,1506,1258,1500,1000,0,0,0
1691758661034646,1499,1499,1259,1499,1000,0,0,0
1691758661036385,1499,1500,1258,1499,1000,0,0,0
1691758661040625,1499,1500,1257,1499,1000,0,0,0
1691758661044744,1499,1500,1258,1499,1000,0,0,0
1691758661049808,1501,1505,1258,1500,1000,0,0,0
1691758661051177,1499,1501,1258,1500,1000,0,0,0
1691758661054944,1499,1499,1257,1499,1000,0,0,0
1691758661058547,1499,1499,1257,1499,1000,0,0,0
1691758661062540,1499,1500,1257,1500,1000,0,0,0
1691758661068149,1503,1505,1257,1500,1000,0,0,0
1691758661070686,1500,1499,1258,1500,1000,0,0,0
1691758661073120,1500,1499,1258,1500,1000,0,0,0
1691758661076787,1499,1499,1258,1500,1000,0,0,0
1691758661081428,1499,1499,1257,1500,1000,0,0,0
1691758661085382,1503,1503,1257,1500,1000,0,0,0
1691758661090725,1500,1498,1258,1500,1000,0,0,0
1691758661091426,1499,1498,1258,1500,1000,0,0,0
1691758661094860,1499,1498,1258,1500,1000,0,0,0
1691758661098713,1500,1498,1257,1500,1000,0,0,0
1691758661102582,1499,1498,1257,1500,1000,0,0,0
1691758661106662,1499,1498,1257,1500,1000,0,0,0
1691758661110412,1499,1498,1258,1500,1000,0,0,0
1691758661113012,1500,1499,1258,1500,1000,0,0,0
1691758661116948,1499,1499,1257,1500,1000,0,0,0
1691758661120842,1499,1498,1257,1500,1000,0,0,0
1691758661124562,1499,1498,1257,1500,1000,0,0,0
1691758661128471,1500,1499,1258,1500,1000,0,0,0
1691758661131304,1499,1499,1258,1500,1000,0,0,0
1691758661135457,1503,1504,1258,1500,1000,0,0,0
1691758661138833,1500,1498,1258,1500,1000,0,0,0
1691758661142702,1500,1498,1258,1500,1000,0,0,0
1691758661146555,1500,1498,1257,1500,1000,0,0,0
1691758661149378,1500,1498,1257,1500,1000,0,0,0
1691758661153522,1503,1503,1257,1500,1000,0,0,0
1691758661157614,1500,1497,1259,1500,1000,0,0,0
1691758661160154,1499,1498,1258,1500,1000,0,0,0
1691758661164952,1499,1498,1258,1500,1000,0,0,0
1691758661167624,1500,1498,1258,1500,1000,0,0,0
1691758661173320,1503,1503,1258,1500,1000,0,0,0
1691758661176056,1500,1496,1259,1500,1000,0,0,0
1691758661179399,1500,1497,1258,1500,1000,0,0,0
1691758661184485,1500,1497,1259,1500,1000,0,0,0
1691758661186622,1500,1497,1258,1500,1000,0,0,0
1691758661189429,1500,1498,1258,1500,1000,0,0,0
1691758661193273,1500,1495,1259,1500,1000,0,0,0
1691758661200834,1500,1496,1259,1500,1000,0,0,0
1691758661205625,1500,1497,1258,1500,1000,0,0,0
1691758661207884,1501,1502,1259,1500,1000,0,0,0
1691758661214840,1500,1497,1259,1500,1000,0,0,0
1691758661215037,1500,1497,1258,1500,1000,0,0,0
1691758661221694,1499,1497,1258,1500,1000,0,0,0
1691758661223563,1502,1501,1258,1500,1000,0,0,0
1691758661226697,1500,1495,1259,1500,1000,0,0,0
1691758661229416,1499,1497,1258,1500,1000,0,0,0
1691758661233084,1499,1497,1258,1500,1000,0,0,0
1691758661236734,1500,1497,1258,1500,1000,0,0,0
1691758661240932,1502,1502,1258,1500,1000,0,0,0
1691758661244602,1500,1497,1259,1500,1000,0,0,0
1691758661247681,1499,1497,1258,1500,1000,0,0,0
1691758661251162,1500,1497,1258,1500,1000,0,0,0
1691758661254734,1499,1497,1257,1500,1000,0,0,0
1691758661258552,1499,1498,1258,1500,1000,0,0,0
1691758661262706,1499,1497,1258,1500,1000,0,0,0
1691758661265737,1500,1497,1258,1500,1000,0,0,0
1691758661269351,1500,1497,1258,1500,1000,0,0,0
1691758661274691,1499,1498,1257,1500,1000,0,0,0
1691758661277652,1500,1493,1258,1500,1000,0,0,0
1691758661280574,1500,1496,1258,1500,1000,0,0,0
1691758661283966,1499,1497,1258,1500,1000,0,0,0
1691758661288236,1499,1498,1258,1500,1000,0,0,0
1691758661291768,1503,1502,1257,1500,1000,0,0,0
1691758661295676,1500,1497,1258,1500,1000,0,0,0
1691758661298665,1499,1498,1257,1500,1000,0,0,0
1691758661302825,1499,1498,1258,1500,1000,0,0,0
1691758661306862,1500,1498,1257,1500,1000,0,0,0
1691758661311821,1502,1504,1257,1500,1000,0,0,0
1691758661312888,1499,1499,1257,1500,1000,0,0,0
1691758661316817,1499,1498,1257,1500,1000,0,0,0
1691758661320165,1499,1498,1257,1500,1000,0,0,0
1691758661323881,1501,1502,1257,1500,1000,0,0,0
1691758661329775,1499,1497,1258,1500,1000,0,0,0
1691758661331147,1499,1498,1257,1500,1000,0,0,0
1691758661335232,1499,1498,1257,1500,1000,0,0,0
1691758661338844,1498,1499,1257,1500,1000,0,0,0
1691758661342813,1501,1503,1257,1500,1000,0,0,0
1691758661346829,1500,1497,1258,1500,1000,0,0,0
1691758661349404,1499,1498,1257,1500,1000,0,0,0
1691758661352955,1498,1499,1257,1500,1000,0,0,0
1691758661356786,1499,1499,1257,1500,1000,0,0,0
1691758661360735,1502,1503,1256,1500,1000,0,0,0
1691758661365914,1499,1498,1257,1500,1000,0,0,0
1691758661367566,1498,1499,1257,1500,1000,0,0,0
1691758661373571,1498,1499,1257,1500,1000,0,0,0
1691758661374708,1498,1499,1256,1500,1000,0,0,0
1691758661379470,1502,1505,1255,1500,1000,0,0,0
1691758661382871,1499,1500,1256,1500,1000,0,0,0
1691758661386810,1498,1500,1257,1500,1000,0,0,0
1691758661389716,1498,1500,1257,1500,1000,0,0,0
1691758661393044,1498,1500,1257,1500,1000,0,0,0
1691758661396837,1501,1505,1255,1500,1000,0,0,0
1691758661400884,1499,1500,1256,1500,1000,0,0,0
1691758661404915,1498,1500,1257,1500,1000,0,0,0
1691758661410189,1498,1500,1257,1500,1000,0,0,0
1691758661410978,1500,1504,1256,1500,1000,0,0,0
1691758661414919,1498,1498,1256,1500,1000,0,0,0
1691758661418895,1498,1500,1256,1500,1000,0,0,0
1691758661423108,1498,1500,1256,1500,1000,0,0,0
1691758661426622,1498,1500,1257,1500,1000,0,0,0
1691758661429186,1501,1504,1256,1500,1000,0,0,0
1691758661437029,1498,1500,1256,1500,1000,0,0,0
1691758661437395,1498,1500,1256,1500,1000,0,0,0
1691758661440961,1498,1500,1256,1500,1000,0,0,0
1691758661445760,1498,1500,1256,1500,1000,0,0,0
1691758661447660,1500,1504,1255,1500,1000,0,0,0
1691758661451034,1498,1500,1256,1500,1000,0,0,0
1691758661455567,1498,1500,1256,1500,1000,0,0,0
1691758661458970,1498,1500,1257,1500,1000,0,0,0
1691758661464654,1498,1500,1256,1500,1000,0,0,0
1691758661465680,1500,1506,1255,1500,1000,0,0,0
1691758661469704,1498,1501,1256,1500,1000,0,0,0
1691758661476463,1498,1501,1256,1500,1000,0,0,0
1691758661479506,1498,1501,1256,1500,1000,0,0,0
1691758661482430,1498,1501,1256,1500,1000,0,0,0
1691758661483965,1501,1507,1255,1500,1000,0,0,0
1691758661487876,1498,1501,1256,1500,1000,0,0,0
1691758661492491,1498,1501,1256,1500,1000,0,0,0
1691758661495631,1498,1501,1256,1500,1000,0,0,0
1691758661498617,1498,1501,1256,1500,1000,0,0,0
1691758661502215,1501,1506,1255,1500,1000,0,0,0
1691758661506076,1498,1499,1256,1500,1000,0,0,0
1691758661509939,1498,1500,1256,1500,1000,0,0,0
1691758661513853,1498,1500,1256,1500,1000,0,0,0
1691758661516845,1498,1500,1256,1500,1000,0,0,0
1691758661520513,1500,1505,1255,1500,1000,0,0,0
1691758661523986,1498,1500,1256,1500,1000,0,0,0
1691758661527887,1498,1500,1256,1500,1000,0,0,0
1691758661531875,1498,1500,1256,1500,1000,0,0,0
1691758661534859,1498,1501,1256,1500,1000,0,0,0
1691758661538527,1501,1506,1255,1500,1000,0,0,0
1691758661542248,1499,1500,1256,1499,1000,0,0,0
1691758661545990,1498,1500,1256,1499,1000,0,0,0
1691758661549898,1498,1500,1256,1499,1000,0,0,0
1691758661553937,1498,1500,1256,1499,1000,0,0,0
1691758661556712,1499,1501,1256,1499,1000,0,0,0
1691758661560193,1498,1500,1256,1499,1000,0,0,0
1691758661563795,1498,1500,1256,1499,1000,0,0,0
1691758661567980,1499,1500,1256,1499,1000,0,0,0
1691758661571034,1499,1500,1256,1499,1000,0,0,0
1691758661574789,1499,1501,1256,1499,1000,0,0,0
1691758661578978,1503,1509,1253,1500,1000,0,0,0
1691758661583023,1500,1502,1256,1499,1000,0,0,0
1691758661585563,1499,1501,1256,1499,1000,0,0,0
1691758661590624,1499,1500,1256,1499,1000,0,0,0
1691758661593316,1499,1500,1256,1499,1000,0,0,0
1691758661596925,1502,1506,1255,1499,1000,0,0,0
1691758661600931,1499,1500,1256,1499,1000,0,0,0
1691758661604895,1499,1500,1257,1499,1000,0,0,0
1691758661607527,1499,1500,1257,1499,1000,0,0,0
1691758661611212,1499,1500,1257,1499,1000,0,0,0
1691758661614980,1499,1500,1256,1499,1000,0,0,0
1691758661619024,1503,1505,1255,1499,1000,0,0,0
1691758661623082,1500,1500,1256,1499,1000,0,0,0
1691758661625766,1499,1500,1256,1499,1000,0,0,0
1691758661629288,1499,1500,1257,1499,1000,0,0,0
1691758661632957,1502,1505,1257,1499,1000,0,0,0
1691758661636928,1501,1508,1257,1500,1000,0,0,0
1691758661641062,1500,1501,1257,1499,1000,0,0,0
1691758661645178,1499,1500,1257,1499,1000,0,0,0
1691758661647543,1500,1499,1257,1499,1000,0,0,0
1691758661651195,1500,1499,1257,1499,1000,0,0,0
1691758661655009,1502,1504,1256,1499,1000,0,0,0
1691758661659004,1500,1499,1257,1499,1000,0,0,0
1691758661663382,1500,1499,1257,1499,1000,0,0,0
1691758661665658,1500,1499,1257,1499,1000,0,0,0
1691758661669409,1500,1499,1257,1499,1000,0,0,0
1691758661673572,1503,1503,1257,1499,1000,0,0,0
1691758661676984,1500,1498,1258,1499,1000,0,0,0
1691758661680614,1500,1498,1257,1499,1000,0,0,0
1691758661683960,1500,1498,1257,1499,1000,0,0,0
1691758661688140,1500,1498,1257,1499,1000,0,0,0
1691758661694487,1500,1499,1257,1499,1000,0,0,0
1691758661695321,1500,1497,1258,1499,1000,0,0,0
1691758661698533,1500,1497,1258,1499,1000,0,0,0
1691758661702400,1501,1498,1258,1499,1000,0,0,0
1691758661706193,1500,1498,1257,1499,1000,0,0,0
1691758661710028,1504,1503,1257,1499,1000,0,0,0
1691758661714011,1501,1498,1258,1499,1000,0,0,0
1691758661716670,1501,1498,1258,1499,1000,0,0,0
1691758661720560,1500,1498,1258,1499,1000,0,0,0
1691758661724509,1500,1498,1257,1499,1000,0,0,0
