timestamp,roll,pitch,yaw,norm_thrust
1691758657098395,0.00000000,0.00000000,0.00000000,0.00000000
1691758657108389,0.00000000,0.00000000,0.00000000,0.00000000
1691758657118386,0.00000000,0.00000000,0.00000000,0.00000000
1691758657128386,0.00000000,0.00000000,0.00000000,0.00000000
1691758657138383,0.00000000,0.00000000,0.00000000,0.00000000
1691758657148387,0.00000000,0.00000000,0.00000000,0.00000000
1691758657158462,0.00000000,0.00000000,0.00000000,0.00000000
1691758657168383,0.00000000,0.00000000,0.00000000,0.00000000
1691758657178387,0.00000000,0.00000000,0.00000000,0.00000000
1691758657188560,0.00000000,0.00000000,0.00000000,0.00000000
1691758657198392,0.00000000,0.00000000,0.00000000,0.00000000
1691758657208393,0.00000000,0.00000000,0.00000000,0.00000000
1691758657218402,0.00000000,0.00000000,0.00000000,0.00000000
1691758657230588,0.01837037,0.09374434,0.11235142,11.29223919
1691758657234132,0.01739214,0.09309126,0.11234486,11.30144978
1691758657236518,0.01662738,0.09308124,0.11233266,11.30630112
1691758657240317,0.01204840,0.08016844,0.11251456,11.34950733
1691758657243946,0.00969544,0.08765929,0.11260793,11.35786915
1691758657248014,0.01078984,0.09010745,0.11266700,11.35572338
1691758657251959,0.01314250,0.08417296,0.11282345,11.39997387
1691758657254608,0.01674573,0.09292886,0.11276787,11.39500713
1691758657258339,0.01898549,0.09658846,0.11255816,11.37080956
1691758657262035,0.01718763,0.09291612,0.11257234,11.42905045
1691758657265747,0.01180726,0.06682446,0.11286771,11.44839954
1691758657269355,0.01844550,0.08823451,0.11231218,11.44853401
1691758657273003,0.01689167,0.09107889,0.11179917,11.46452236
1691758657279751,0.01633669,0.09132718,0.11104374,11.50695229
1691758657281118,0.01616009,0.08949947,0.10969236,11.50908470
1691758657284971,0.01245349,0.08264568,0.10882757,11.51211548
1691758657288112,0.01311909,0.08308724,0.10681569,11.47000504
1691758657291805,0.02086170,0.10144977,0.10418102,11.47384930
1691758657294886,0.01601739,0.08004180,0.10290636,11.51709175
1691758657299092,0.01248606,0.08292755,0.09968998,11.53695679
1691758657302989,0.01512480,0.07518084,0.09653430,11.49776459
1691758657305995,0.01276353,0.10241978,0.09288212,11.29520607
1691758657309743,0.00786246,0.06133381,0.09018592,11.38782406
1691758657312697,0.00726700,0.06080256,0.08594247,11.28120327
1691758657316479,-0.00655101,0.01948769,0.08228808,11.01829910
1691758657322152,-0.00582960,0.03952392,0.07894451,11.14025402
1691758657323805,-0.00539239,0.05590929,0.07391740,10.83963490
1691758657327545,-0.01069286,0.01474967,0.07013407,10.80730152
1691758657331294,-0.01286250,0.01990548,0.06656235,10.61027336
1691758657334699,0.03784538,0.02804673,0.06275089,10.49798775
1691758657338432,0.01848396,0.05773346,0.05797804,10.38955593
1691758657342424,0.01569511,0.08138303,0.05319999,10.20730877
1691758657346080,0.01771814,-0.04926712,0.05094964,10.55411339
1691758657350266,0.02388045,0.01971537,0.04690529,10.36639214
1691758657355582,-0.00745150,0.06050012,0.04351820,10.16274452
1691758657356747,0.04384058,0.17008324,0.03847129,9.66941071
1691758657360319,0.01093694,-0.07174087,0.03778367,10.39130688
1691758657364145,0.01976337,0.03268218,0.03384667,10.10723400
1691758657368049,0.00039216,0.04901646,0.02959829,9.97710037
1691758657372258,0.02330981,0.00454114,0.02636295,9.95780468
1691758657374768,0.00091145,-0.07925327,0.02410913,9.83771801
1691758657378597,0.03103900,0.04286106,0.02027931,9.68236542
1691758657383935,0.06897053,0.15092906,0.01494428,9.72189426
1691758657385996,0.01029891,-0.08291574,0.01494671,10.11519909
1691758657390266,0.00951092,-0.03143682,0.01234396,10.02972507
1691758657394008,-0.00900251,-0.01896961,0.01015454,9.98195648
1691758657396554,-0.00507593,-0.01674904,0.00823767,9.87312794
1691758657400655,-0.03291155,-0.06012210,0.00652295,10.03714657
1691758657404339,-0.05168241,-0.07628278,0.00475189,9.77746487
1691758657408709,-0.01407799,-0.03378995,0.00350577,9.74465179
1691758657412248,0.03600886,0.02615350,0.00153087,9.66611958
1691758657414849,0.05000504,0.06419198,-0.00104848,9.66954613
1691758657418594,0.07153608,0.12161377,-0.00422317,9.68826771
1691758657422690,-0.00284595,-0.13481840,-0.00315709,10.04621220
1691758657426540,-0.01028647,-0.09576929,-0.00464562,9.98367310
1691758657430052,0.00728355,-0.09907413,-0.00549996,9.87514210
1691758657432924,-0.00533257,-0.08694062,-0.00649737,9.74139786
1691758657437115,-0.00761982,-0.05859541,-0.00787132,9.73660374
1691758657448011,0.00100026,-0.05784455,-0.00881907,9.88131905
1691758657448269,-0.01235750,-0.05305221,-0.00966006,9.76975727
1691758657448581,-0.06324055,-0.09205411,-0.01084855,9.64685440
1691758657451166,0.01347250,-0.04236589,-0.01195588,9.60428810
1691758657454860,0.02602652,0.05602036,-0.01362306,9.72279358
1691758657459318,0.03235483,0.09043517,-0.01536762,9.77651596
1691758657462903,0.04691508,0.08751115,-0.01710445,9.81522751
1691758657466033,-0.01724299,-0.17249274,-0.01579191,10.28580856
1691758657469470,-0.00577763,-0.14865981,-0.01613703,10.05923557
1691758657473154,0.00871625,-0.11660668,-0.01658326,9.96069717
1691758657477935,0.00585646,-0.10694844,-0.01689295,9.88738728
1691758657481703,-0.00318940,-0.12333072,-0.01707521,9.88893986
1691758657483819,-0.00461073,-0.16290639,-0.01700561,9.97399616
1691758657490520,0.00790166,-0.11069535,-0.01722785,9.93857193
1691758657492997,0.00845372,-0.01444429,-0.01803948,9.79411793
1691758657495164,0.03290296,-0.00020666,-0.01842589,9.83678341
1691758657498904,0.03775011,-0.00581588,-0.01848155,9.89370823
1691758657503280,0.02534778,-0.01678518,-0.01856743,9.96975517
1691758657505682,-0.00809348,-0.05463737,-0.01869031,10.07897472
1691758657509253,0.00420479,-0.05488772,-0.01871373,9.69426250
1691758657513197,0.05461536,0.25242844,-0.02397879,9.11258888
1691758657517202,0.06338632,0.24785905,-0.02612521,9.57002831
1691758657521103,0.06227981,0.14948764,-0.02673747,9.84348202
1691758657523908,0.01381902,0.11962195,-0.02775977,9.82288170
1691758657529492,0.02986351,0.06876548,-0.02946053,9.84423828
1691758657531287,0.04615984,-0.00151726,-0.03112582,9.91349792
1691758657537890,0.01340316,-0.10838426,-0.03180746,9.93196487
1691758657539086,0.00071005,-0.11565770,-0.03290405,10.29914951
1691758657541956,0.02727611,-0.10502854,-0.03369730,10.08825684
1691758657546177,0.01728155,-0.08017495,-0.03465745,10.00355816
1691758657550775,0.00762672,-0.06731533,-0.03545260,10.00639343
1691758657554760,-0.00342227,-0.08276474,-0.03572712,10.12846375
1691758657556558,-0.01631851,-0.09108748,-0.03611517,9.81925774
1691758657560376,0.03574571,0.00515141,-0.03747986,9.87607098
1691758657564512,0.05121182,-0.10395795,-0.03601269,9.93186855
1691758657570441,-0.00769921,-0.21331893,-0.03424650,10.45211983
1691758657571990,-0.00792877,-0.14421830,-0.03416563,10.30690289
1691758657575091,0.00576442,-0.13962278,-0.03347888,10.17918110
1691758657578331,0.00214892,-0.12318374,-0.03273716,10.08624172
1691758657582272,-0.00429335,-0.09856516,-0.03214749,9.99259663
1691758657587729,-0.03296736,-0.10299692,-0.03139524,10.10519028
1691758657590303,-0.01612603,-0.08397533,-0.03029752,10.07949448
1691758657592891,-0.02528446,-0.10081971,-0.02888442,9.80919266
1691758657597357,0.05804519,0.21542229,-0.03250779,9.46784782
1691758657601583,0.04807471,0.08169653,-0.02993389,9.90657616
1691758657605199,-0.02058206,-0.12265342,-0.02559107,10.53905487
1691758657608165,-0.02493543,-0.10635224,-0.02403224,10.36807919
1691758657612039,0.01153257,-0.06910708,-0.02222827,10.29358673
1691758657614837,0.00685713,-0.04984759,-0.02017841,10.11830425
1691758657618455,0.01128690,0.11518241,-0.02133497,9.77194118
1691758657622517,0.02072362,0.05938680,-0.02047545,10.00130177
1691758657626728,0.02837110,0.02454346,-0.01967221,10.09194660
1691758657630216,-0.01609481,-0.15057586,-0.01590214,10.35866928
1691758657632980,-0.01332266,-0.14487642,-0.01409089,10.27243328
1691758657636626,-0.03369861,-0.12969378,-0.01204103,10.23866653
1691758657640815,-0.04542239,-0.11063582,-0.00999397,10.17248154
1691758657645404,-0.03952699,-0.09716441,-0.00840191,9.77425098
1691758657648403,0.05146607,0.16506757,-0.01100672,9.43696213
1691758657651143,0.02739294,0.05192362,-0.00814063,10.06377316
1691758657654785,-0.02919026,-0.11611804,-0.00491316,10.51957512
1691758657658545,-0.00310441,-0.03719380,-0.00409030,10.31290722
1691758657662279,0.01220928,-0.05656905,-0.00228171,10.21578217
1691758657666348,-0.00070310,-0.04162665,-0.00138178,10.10135555
1691758657670303,-0.00804444,-0.00245223,-0.00077610,10.17763805
1691758657673028,-0.00870258,0.00752806,0.00012334,10.15814686
1691758657676647,-0.01433557,0.01894756,0.00098949,9.97488213
1691758657680666,-0.00307571,0.00580342,0.00195585,10.08235836
1691758657684354,0.01074088,-0.00078583,0.00290335,10.09826279
1691758657688402,-0.04354740,-0.06450170,0.00445965,9.82580376
1691758657691074,0.00452972,0.01845563,0.00429621,9.74311543
1691758657694724,0.07738399,0.29667458,-0.00035382,9.53173065
1691758657698788,0.05601499,0.22766528,0.00037244,9.85962296
1691758657702773,0.04835844,0.18760696,-0.00057536,9.85795593
1691758657706669,-0.05365861,-0.12379099,0.00257686,10.33071899
1691758657710278,-0.02332835,-0.05823338,0.00235717,10.50361252
1691758657712980,-0.05541778,-0.19436397,0.00427917,10.53321552
1691758657716651,-0.06763560,-0.07825137,0.00440091,10.37248802
1691758657720737,0.03065472,0.05042403,0.00392713,9.91822243
1691758657724610,0.01636268,0.05648166,0.00418785,10.00889683
1691758657728480,0.02421845,0.09458189,0.00384273,10.08498955
1691758657731182,-0.01165822,-0.08302788,0.00657283,10.54534340
1691758657735437,0.00502561,-0.01710120,0.00646485,10.30445576
1691758657739564,0.01315143,0.01285302,0.00639294,10.25132179
1691758657742129,0.00991634,0.02322616,0.00649116,10.16834641
1691758657745751,-0.00526426,0.02116298,0.00677861,10.15146637
1691758657749411,0.01607074,-0.01583256,0.00724025,10.27622128
1691758657753510,0.02206945,0.00517993,0.00715714,10.33424473
1691758657757404,-0.02437381,0.01025547,0.00733031,10.35576725
1691758657761885,-0.00477181,0.01757717,0.00719767,9.93128300
1691758657763954,0.03968583,0.11082391,0.00599988,10.08796310
1691758657767511,0.05912048,0.20752682,0.00440389,10.00397491
1691758657771311,-0.01165385,-0.01123186,0.00747582,10.61954021
1691758657775481,0.00082941,0.03345183,0.00714904,10.48735523
1691758657779292,0.01788754,0.06801604,0.00684838,10.38780117
1691758657782022,0.01279492,0.06077879,0.00700936,10.30760384
1691758657785652,0.02211312,0.04502779,0.00713528,10.32083988
1691758657789235,0.03030853,0.02590353,0.00736767,10.26732445
1691758657792850,0.03339807,0.02501485,0.00739249,10.25056934
1691758657796513,-0.00535743,0.00546757,0.00767183,10.39182377
1691758657802151,0.02453247,0.01526146,0.00753919,9.96167755
1691758657804894,0.04783405,0.16190381,0.00543683,9.96846390
1691758657807889,-0.00842783,-0.01453227,0.00785704,10.56172466
1691758657811576,0.01973263,0.04591626,0.00733687,10.36996174
1691758657815406,0.03097205,0.08266035,0.00694558,10.28580952
1691758657819274,0.02192128,0.07926037,0.00687331,10.30155659
1691758657822583,0.02360992,0.05406121,0.00699108,10.30184555
1691758657825658,0.04495975,0.12799671,0.00572915,10.12012768
1691758657829718,0.06498190,0.21050280,0.00315941,10.01176071
1691758657833519,0.00226170,-0.02596412,0.00623510,10.63144588
1691758657837425,0.02185136,-0.00913838,0.00575381,10.50001812
1691758657840440,0.01703094,0.03772890,0.00489331,10.34278011
1691758657843899,0.01415444,0.02446551,0.00475825,10.30870819
1691758657847622,0.04120501,0.02734070,0.00424040,10.25533581
1691758657851266,0.02680342,0.04538766,0.00369941,10.21346951
1691758657854735,0.03454757,0.12595536,0.00181429,9.95486259
1691758657858684,0.00077871,-0.06615974,0.00398279,10.49802494
1691758657862474,0.05628951,0.04625225,0.00188290,10.27534294
1691758657868090,0.04903455,0.05696577,0.00093086,10.26019382
1691758657870228,-0.00533994,0.01371397,0.00106300,10.47022343
1691758657872872,0.06906232,0.03117876,-0.00015750,9.97273827
1691758657876636,0.08261853,0.16437113,-0.00344213,10.06328487
1691758657880506,0.09078478,0.21768267,-0.00568097,10.11262226
1691758657884574,0.00787413,-0.03655877,-0.00146334,10.67617512
1691758657887927,0.03338171,0.01972521,-0.00247977,10.51080418
1691758657891081,0.03810521,0.05218459,-0.00334269,10.37854481
1691758657894811,0.04206924,0.03837681,-0.00360557,10.23544884
1691758657903426,0.05454070,0.01678837,-0.00381312,10.21303844
1691758657903559,-0.00362020,0.01323078,-0.00403284,10.48789501
1691758657908767,0.01240233,0.00846927,-0.00428192,10.29496098
1691758657909552,0.09301090,0.07567877,-0.00676863,9.89472389
1691758657913576,0.03297789,-0.07012773,-0.00456658,10.56473541
1691758657917613,0.03424559,0.01032292,-0.00641625,10.46068287
1691758657920133,0.06706637,0.17614070,-0.01235743,10.07910633
1691758657923877,0.03531263,-0.01080641,-0.00965893,10.47056484
1691758657927582,0.04880558,0.04011936,-0.01134529,10.27766991
1691758657931623,-0.02636776,-0.02458981,-0.01041102,10.76017475
1691758657935580,0.01467837,-0.03560403,-0.01043668,10.42495823
1691758657938369,0.04485526,0.03396714,-0.01207155,10.33423328
1691758657942678,0.02806443,0.00766421,-0.01188619,10.40723515
1691758657946785,0.00023439,-0.02950998,-0.01140262,10.28572273
1691758657949346,0.05476648,0.07959642,-0.01390010,10.12506294
1691758657954857,0.01763998,-0.00128291,-0.01334016,10.47414780
1691758657958512,0.03328623,0.12817213,-0.01698871,10.18823814
1691758657960228,0.00898528,-0.04440985,-0.01411284,10.58471870
1691758657963972,-0.00853501,-0.08713089,-0.01368999,10.67008972
1691758657967694,0.05586261,-0.03159579,-0.01440766,10.11633110
1691758657973936,0.05668830,0.07592063,-0.01713170,10.07033920
1691758657978451,-0.01642941,-0.08111226,-0.01454104,10.66117477
1691758657978901,0.02204681,-0.02901987,-0.01535172,10.57142448
1691758657986010,0.02056027,-0.01614584,-0.01550420,10.43869591
1691758657986677,0.00174432,0.15949003,-0.01979178,9.90922546
1691758657989372,0.06710574,0.24231584,-0.02518458,9.96648693
1691758657993566,-0.01256905,-0.15124609,-0.01694853,10.82657623
1691758657996656,-0.02866676,-0.09537947,-0.01791454,10.68186951
1691758658002236,-0.01690307,-0.06380833,-0.01844427,10.53886032
1691758658008029,-0.00062582,-0.08380802,-0.01802150,10.41082096
1691758658008185,0.00148177,-0.07597125,-0.01804480,10.46626377
1691758658013634,-0.04328221,-0.07419767,-0.01830327,10.49926281
1691758658014562,0.05709837,0.21521634,-0.02606515,9.72339630
1691758658018478,0.00833097,-0.00167768,-0.02172058,10.44153786
1691758658022230,-0.03059231,-0.08670340,-0.02034423,10.71510601
1691758658025798,-0.06077713,-0.11960648,-0.01999077,10.69246960
1691758658029545,0.01846585,-0.03212282,-0.02094527,10.24123859
1691758658039656,0.11118899,0.33785456,-0.03194876,9.90821362
1691758658039772,-0.07742602,-0.05660054,-0.02156910,10.87195015
1691758658039966,-0.01519780,-0.09368196,-0.02028806,10.52540302
1691758658043957,0.00526238,-0.02608088,-0.02129710,10.55145454
1691758658049399,-0.01326019,0.00561750,-0.02174973,10.53400230
1691758658057734,-0.01773146,0.00737587,-0.02149957,10.30191612
1691758658057874,-0.03159637,-0.01276903,-0.02085170,10.70695972
1691758658058656,-0.00804377,-0.06678804,-0.01947956,10.46165657
1691758658061893,-0.02308075,-0.02936511,-0.01993216,10.44003868
1691758658065736,-0.02123713,-0.03505678,-0.01953289,10.43531990
1691758658070009,-0.00295199,-0.06276049,-0.01862006,10.25412941
1691758658076213,0.09434372,0.46507874,-0.03517146,9.76612854
1691758658077498,-0.04907956,-0.10462739,-0.01982765,10.81367207
1691758658080288,-0.04698537,-0.11405018,-0.01940086,10.81229401
1691758658084114,-0.06551005,-0.10369593,-0.01944295,10.79729176
1691758658087956,-0.04474444,-0.03049650,-0.02009927,10.32905293
1691758658091771,-0.02083106,0.00437824,-0.02036941,10.21480942
1691758658095669,-0.02094534,0.02333184,-0.02059903,10.42695999
1691758658098481,-0.00558051,0.03780114,-0.02060257,10.48083973
1691758658102092,-0.05591245,-0.09083410,-0.01718681,10.74625301
1691758658105826,-0.05150554,-0.06592818,-0.01688639,10.61212730
1691758658109675,-0.05009975,-0.07094967,-0.01590032,10.58901596
1691758658114288,-0.00233580,0.04788633,-0.01742446,10.16342354
1691758658117569,-0.03371224,-0.09835434,-0.01375640,10.61526966
1691758658120171,-0.02904807,-0.06156395,-0.01389831,10.61855221
1691758658123961,-0.01721168,-0.05545317,-0.01352693,10.50521946
1691758658127690,-0.04108582,-0.02219765,-0.01367095,10.43675613
1691758658131811,-0.01161243,0.08885029,-0.01548328,10.24168205
1691758658134756,-0.03115882,0.05165608,-0.01454184,10.56783104
1691758658138513,-0.05356694,-0.04919332,-0.01189725,10.83307552
1691758658142157,-0.05076875,-0.04000815,-0.01127518,10.70640945
1691758658145708,-0.04485701,-0.01819725,-0.01090529,10.56169224
1691758658149332,-0.03800589,-0.00041573,-0.01067677,10.42272568
1691758658154249,0.03260128,0.24283664,-0.01615326,10.25926495
1691758658156894,-0.03899721,0.04406796,-0.01126840,10.53663254
1691758658161445,-0.04278531,-0.10036068,-0.00818795,10.80393791
1691758658164859,-0.05267798,-0.11159523,-0.00759557,10.72710133
1691758658167453,-0.03906350,-0.02337128,-0.00843990,10.33919334
1691758658171204,-0.06677829,-0.14232311,-0.00562735,10.55879974
1691758658174786,-0.02294167,0.13033217,-0.01004113,10.26412201
1691758658178910,-0.00028366,0.10581233,-0.00978870,10.44557858
1691758658182824,-0.03375430,-0.06611861,-0.00526388,10.64962769
1691758658186627,-0.02670849,0.05333428,-0.00690959,10.22522163
1691758658189366,-0.04636322,-0.08251673,-0.00421141,10.77966022
1691758658192945,-0.02447824,-0.06967370,-0.00353267,10.74975014
1691758658196900,-0.01193818,0.10096188,-0.00650996,10.27734661
1691758658200908,-0.03731349,0.12891454,-0.00687734,10.27960587
1691758658204751,-0.01928358,0.02069661,-0.00480478,10.48840332
1691758658207441,-0.04128923,-0.08433530,-0.00187701,10.75350857
1691758658211174,-0.05647309,-0.03678025,-0.00188513,10.53518200
1691758658215225,-0.04762338,-0.04480150,-0.00121476,10.41926193
1691758658218805,0.00501475,0.11080950,-0.00403922,10.11586571
1691758658222857,-0.00181653,0.14954734,-0.00465643,10.15684128
1691758658225591,-0.03298436,0.00285241,-0.00175492,10.51851177
1691758658229763,-0.05137807,-0.10345033,0.00033049,10.84428692
1691758658233823,-0.01864196,-0.09073968,0.00087988,10.71352577
1691758658236567,-0.03905246,-0.07456316,0.00088463,10.56514835
1691758658240964,-0.04990242,0.01435927,-0.00021388,10.32209682
1691758658243734,-0.00393673,0.07201282,-0.00115285,10.36271667
1691758658247931,-0.01133615,0.06676206,-0.00111502,10.53841209
1691758658251804,-0.01047634,0.14325857,-0.00267211,10.50001621
1691758658255716,-0.04629535,-0.03692800,0.00112292,10.94715977
1691758658258602,0.00266125,-0.02047036,0.00132451,10.41636848
1691758658262147,0.01594853,0.06927709,-0.00019765,10.23825359
1691758658266396,-0.03736927,-0.07639206,0.00276345,10.67097759
1691758658269767,0.01069438,0.08676456,-0.00004935,10.50304699
1691758658274598,0.02277960,0.09094369,-0.00066970,10.43987751
1691758658276675,-0.01905571,-0.05402387,0.00205685,10.59472466
1691758658280233,-0.01916362,0.00676029,0.00132269,10.40668583
1691758658283977,-0.04861990,-0.15776269,0.00386519,10.63333607
1691758658287954,0.01553518,0.12343889,-0.00039015,10.30219650
1691758658291932,0.01441536,0.16147259,-0.00129159,10.38751602
1691758658295750,-0.04089365,-0.02618147,0.00200490,10.86380577
1691758658298468,0.00408742,-0.00592082,0.00179933,10.48282623
1691758658301990,-0.01021511,-0.10993534,0.00400685,10.72381973
1691758658305691,-0.00123661,-0.02294859,0.00304048,10.53698921
1691758658310099,0.01312474,0.01548227,0.00243854,10.57488060
1691758658312950,0.06584436,0.16492069,-0.00110720,10.30617619
1691758658317380,0.04020030,0.18700251,-0.00165233,10.21888065
1691758658320791,-0.04387968,-0.00410336,0.00187580,10.79664230
1691758658324781,0.00984574,-0.06250429,0.00291024,10.66762352
1691758658327247,0.03997400,-0.01692595,0.00242755,10.53887653
1691758658331485,0.02050203,-0.00214059,0.00224258,10.33697033
1691758658334936,0.05325101,0.18136297,-0.00138903,9.94614601
1691758658339145,0.06820724,0.22072378,-0.00314024,10.28426933
1691758658342976,0.00312628,-0.13340832,0.00321087,10.97301483
1691758658347083,-0.00679377,-0.06137514,0.00219860,10.77141094
1691758658349441,0.05954606,0.06681921,-0.00035907,10.38460350
1691758658352888,0.02296714,-0.03988316,0.00137450,10.62397385
1691758658356677,0.03728533,0.17612600,-0.00306616,10.14649677
1691758658361914,-0.01769025,0.12352907,-0.00235704,10.55991840
1691758658363875,0.00213867,-0.06521910,0.00010358,10.88223457
1691758658369731,0.03262072,-0.04130257,-0.00015212,10.72544098
1691758658371996,0.02073660,-0.02598687,-0.00039826,10.55316734
1691758658374708,0.02309002,0.01537386,-0.00100393,10.25400066
1691758658378299,0.09715250,0.25246695,-0.00740076,9.92666435
1691758658382814,0.03506761,0.04143370,-0.00336727,10.65761757
1691758658388164,0.01500292,-0.06127850,-0.00150188,10.83559322
1691758658391783,-0.00103995,-0.08526715,-0.00091509,10.81526279
1691758658392709,0.09516275,0.13715337,-0.00596307,10.02067375
1691758658398191,0.00640633,-0.03033366,-0.00289266,10.55709076
1691758658400173,0.00936209,-0.05645459,-0.00254642,10.80081558
1691758658404852,0.06031657,0.08730938,-0.00570040,10.46637821
1691758658409657,0.06490545,0.12097202,-0.00700591,10.48656654
1691758658412036,0.02221686,-0.05003002,-0.00385819,10.78317261
1691758658419986,0.02291869,-0.00133966,-0.00459378,10.47457123
1691758658421199,-0.01618514,-0.00937267,-0.00451389,10.75309086
1691758658421968,0.06457217,0.07642606,-0.00632118,10.29424000
1691758658425985,0.06752583,0.10787901,-0.00730406,10.50345993
1691758658432625,-0.00163105,-0.07813161,-0.00394857,10.93620872
1691758658435107,0.04981646,-0.04207402,-0.00418216,10.38411617
1691758658441355,0.00757902,-0.03093525,-0.00429029,10.69219112
1691758658441500,0.03128389,-0.05032921,-0.00382265,10.55434990
1691758658444614,0.09993323,0.08007615,-0.00718073,10.27202225
1691758658449137,0.08798143,0.11363846,-0.00864828,10.42093754
1691758658456527,0.02522910,-0.02103780,-0.00575382,10.75908375
1691758658456667,0.04712459,0.03607254,-0.00663552,10.39355373
1691758658458441,0.05485584,0.05700273,-0.00731131,10.49052143
1691758658461978,0.03951249,-0.01199403,-0.00590001,10.80904770
1691758658466872,0.03219835,-0.02535960,-0.00537538,10.68478584
1691758658469950,0.08369855,0.14775769,-0.00950217,10.21866035
1691758658473350,0.04659027,0.01199329,-0.00640534,10.54700375
1691758658477033,0.01454091,-0.12407619,-0.00356398,10.84871483
1691758658481139,0.03493665,-0.07581674,-0.00368792,10.60068321
1691758658483896,0.04587144,-0.06096236,-0.00363169,10.49741173
1691758658487612,0.05542617,0.08956575,-0.00747888,10.27551460
1691758658490992,0.06353206,0.16443741,-0.00986843,10.22769833
1691758658494764,-0.00415604,-0.02203120,-0.00559680,10.88515854
1691758658498573,0.04584344,0.08378106,-0.00836622,10.34578037
1691758658502008,0.05006294,0.08225219,-0.00911868,10.52391911
1691758658507355,0.05626016,0.08374118,-0.00968215,10.39677143
1691758658509941,0.05483098,0.13911125,-0.01163911,10.19736004
1691758658513918,-0.00074816,-0.05300843,-0.00782943,10.69369221
1691758658516669,0.03787420,0.00896764,-0.00919549,10.72007084
1691758658525434,0.01010796,-0.10483355,-0.00641279,10.86800575
1691758658525843,-0.00194325,0.00860739,-0.00890054,10.61799908
1691758658529829,0.06458768,0.01262290,-0.00966606,10.12127018
1691758658532084,0.06289340,0.10725680,-0.01245944,10.18858337
1691758658536043,-0.02210173,-0.17245057,-0.00595689,10.92580986
1691758658538860,0.01021710,0.04155434,-0.01022243,10.49721813
1691758658542430,0.01234237,0.04286896,-0.01034902,10.56136131
1691758658545511,0.05694357,0.06928489,-0.01127607,9.95826626
1691758658551239,-0.00762431,-0.05422881,-0.00829041,10.66987133
1691758658553131,0.00885245,0.02473008,-0.01018627,10.54236126
1691758658557753,-0.00459578,-0.00834591,-0.00946227,10.44204521
1691758658562420,0.04825332,0.01209649,-0.01012403,10.28248405
1691758658566726,-0.01795960,-0.11754183,-0.00728429,10.73181629
1691758658569007,0.01872933,-0.04090274,-0.00874325,10.56900311
1691758658571480,0.01295670,-0.00296317,-0.00965030,10.36939621
1691758658575104,-0.01031005,0.02384157,-0.01018707,10.36417294
1691758658579074,-0.05851556,-0.13264298,-0.00653739,10.75224590
1691758658583195,0.02188328,-0.07390292,-0.00649404,10.35473347
1691758658587640,0.02557698,-0.07187956,-0.00598186,10.47206879
1691758658589361,0.01128951,0.06845520,-0.00899146,10.20970154
1691758658593206,-0.00393499,0.06186407,-0.00869096,10.33301449
1691758658597268,0.01935376,0.04028378,-0.00826938,10.28547192
1691758658604347,0.06501263,0.09378811,-0.01021696,10.17842484
1691758658605225,-0.05859337,-0.19955862,-0.00274081,10.74674034
1691758658607566,-0.01608780,-0.04229642,-0.00542703,10.47503662
1691758658611218,0.00737292,-0.02198924,-0.00571822,10.40574074
1691758658615264,-0.01133042,-0.01430053,-0.00560838,10.38984203
1691758658619464,-0.03136291,0.01607314,-0.00612879,10.40890884
1691758658622406,0.02471601,0.04888129,-0.00703720,10.29345322
1691758658626459,-0.03267227,-0.23484288,0.00103336,10.90759850
1691758658630219,-0.01869451,0.02222346,-0.00405646,10.28590393
1691758658633472,-0.02107541,0.03622455,-0.00425876,10.42970181
1691758658636595,0.02529619,0.01058343,-0.00354384,10.19318676
1691758658640346,0.02660718,0.11899272,-0.00640478,10.18909645
1691758658644386,-0.05318527,-0.08118568,-0.00146598,10.66354752
1691758658648256,-0.01516595,-0.02773796,-0.00243618,10.47384167
1691758658654363,0.02462678,-0.04659571,-0.00176414,10.56709194
1691758658654985,-0.01342109,-0.03728586,-0.00212553,10.26178074
1691758658658459,-0.02024373,0.04707686,-0.00428564,10.21470356
1691758658662138,0.01508662,0.05677272,-0.00489769,10.21411610
1691758658666158,-0.04326924,-0.10676934,-0.00094370,10.59942913
1691758658670211,-0.05661198,-0.03713712,-0.00241662,10.50148773
1691758658672936,-0.03698880,-0.03889708,-0.00226506,10.56702137
1691758658676613,-0.01683055,-0.05985447,-0.00163638,10.46903038
1691758658680203,-0.00450105,0.00589330,-0.00320398,10.30335617
1691758658685842,-0.06274624,0.00764896,-0.00316920,10.69899368
1691758658688479,-0.02395661,-0.06306221,-0.00147460,10.26606655
1691758658692464,-0.00435630,-0.08090459,-0.00088774,10.45023060
1691758658694618,-0.03064936,-0.03903670,-0.00191893,10.44564915
1691758658698467,-0.00957415,0.01701906,-0.00325307,10.32802486
1691758658702325,0.04798889,0.05588673,-0.00449549,10.45049858
1691758658708722,-0.04767318,-0.10607900,-0.00055024,10.48931122
1691758658710206,-0.05448951,-0.01125608,-0.00255989,10.40275574
1691758658712859,-0.04269386,-0.04280186,-0.00185927,10.38604355
1691758658717036,-0.02118488,-0.02638224,-0.00219612,10.37784576
1691758658720257,-0.01790688,0.06178835,-0.00436028,10.31715012
1691758658726300,-0.06638053,-0.02134192,-0.00239534,10.80680847
1691758658729543,-0.05587029,-0.08282294,-0.00107181,10.49581623
1691758658731056,-0.02831868,-0.02536872,-0.00221246,10.48389149
1691758658735299,-0.03708402,-0.05893310,-0.00141267,10.39025211
1691758658740054,-0.01886671,-0.03040536,-0.00217920,10.31691742
1691758658742150,0.04619535,0.06292343,-0.00530556,10.16346455
1691758658745655,-0.04176613,-0.06867167,-0.00182354,10.67374420
1691758658749396,-0.06142879,-0.02314302,-0.00279536,10.60666275
1691758658753399,-0.04951463,-0.02287584,-0.00276035,10.50501156
1691758658758751,-0.01541728,0.00992572,-0.00351482,10.27474308
1691758658760228,0.00279572,0.08115207,-0.00559132,10.10296917
1691758658764931,-0.06920567,-0.12479529,-0.00064374,10.78587055
1691758658768382,-0.04454356,-0.03813809,-0.00219707,10.44589520
1691758658771233,-0.04248093,0.00563402,-0.00313761,10.54775047
1691758658774871,-0.04291425,0.00785832,-0.00312661,10.47692204
1691758658779620,-0.02084896,-0.01518182,-0.00258833,10.43081379
1691758658782140,0.02295195,0.03773155,-0.00428452,10.28085136
1691758658785793,-0.05535909,-0.10404400,-0.00105583,10.76235390
1691758658790912,-0.06155007,-0.02507544,-0.00267451,10.43003559
1691758658793402,-0.04014635,0.01348692,-0.00353313,10.52235889
1691758658797520,-0.04314268,0.01085996,-0.00356243,10.46114635
1691758658801124,-0.01929944,0.05709818,-0.00475324,10.32952976
1691758658803888,0.05896941,0.30447540,-0.01283867,10.09867764
1691758658807570,-0.05299204,-0.09062774,-0.00189756,10.55240917
1691758658811406,-0.05367111,-0.06148448,-0.00259062,10.61755657
1691758658818709,-0.04136421,-0.05623617,-0.00254111,10.48107815
1691758658819573,-0.03104397,-0.03794805,-0.00286444,10.51568890
1691758658821897,-0.02374699,-0.01129502,-0.00367704,10.50543690
1691758658825730,0.00183533,0.02879740,-0.00482959,10.32634640
1691758658829636,-0.05418766,-0.11965401,-0.00154471,10.84906292
1691758658833548,-0.05067140,-0.04494261,-0.00315129,10.46436501
1691758658838477,-0.04382703,0.00501017,-0.00426214,10.57211494
1691758658841418,-0.00116957,0.10462572,-0.00689201,10.31820393
1691758658843832,-0.04222522,-0.06702711,-0.00283176,10.80033493
1691758658847913,-0.02687101,0.00043391,-0.00433593,10.38648891
1691758658851413,-0.01711345,0.04752412,-0.00546151,10.51022148
1691758658855398,-0.00453544,0.08368704,-0.00648706,10.19475555
1691758658858573,-0.04224699,-0.10921334,-0.00191461,10.61135292
1691758658868478,-0.01892463,0.03823151,-0.00498893,10.37332439
1691758658868722,-0.00315664,0.04087707,-0.00499403,10.52501965
1691758658870062,-0.02197506,0.00187380,-0.00404682,10.44388866
1691758658873242,0.00302740,0.06064111,-0.00560264,10.27485371
1691758658876561,0.04218439,0.11432861,-0.00765710,10.17998219
1691758658880477,-0.04736676,-0.04475019,-0.00368190,10.76754475
1691758658886031,-0.03188473,-0.00377857,-0.00440011,10.67334843
1691758658888287,-0.03066045,0.04589118,-0.00544706,10.44462013
1691758658893651,0.00088134,0.03691283,-0.00563373,10.49700451
1691758658894606,0.02621417,0.04341450,-0.00584782,10.18117046
1691758658900946,0.03371985,0.14783043,-0.00863110,10.18576431
1691758658904850,-0.04250222,-0.03805185,-0.00426674,10.71586800
1691758658906475,-0.01805288,-0.01720212,-0.00453976,10.56475925
1691758658909266,-0.00469307,-0.00150433,-0.00466718,10.45335865
1691758658912846,-0.00008822,0.00401490,-0.00485646,10.33471012
1691758658916692,0.04273044,0.02442667,-0.00565476,10.19249535
1691758658920458,0.06670590,0.07214697,-0.00724645,10.22990513
1691758658924499,-0.02317131,-0.07357889,-0.00378580,10.84741497
1691758658930614,-0.04395621,0.00460776,-0.00549792,10.53411293
1691758658931481,0.00555889,0.04617076,-0.00648373,10.57715034
1691758658934825,-0.01134498,0.04519955,-0.00639977,10.44217396
1691758658938473,0.00710458,0.09156115,-0.00760282,10.34615040
1691758658942517,0.10093252,0.32784009,-0.01625207,10.22077084
1691758658947462,-0.01395934,-0.05478352,-0.00551581,10.75393391
1691758658951472,-0.03213383,-0.00962836,-0.00650239,10.58332539
1691758658952714,-0.00755716,0.00599572,-0.00684793,10.58758068
1691758658957527,0.02850626,0.01631312,-0.00715936,10.48399353
1691758658960211,0.02584136,0.05449486,-0.00814743,10.38260174
1691758658964214,0.03688923,0.02189179,-0.00756237,10.19902515
1691758658967527,-0.01756711,-0.12362529,-0.00459349,10.85730076
1691758658971504,0.00572964,-0.00438499,-0.00697652,10.63847351
1691758658975621,0.00082262,0.01653817,-0.00731648,10.49283981
1691758658979275,-0.00059973,0.03427789,-0.00763525,10.42939758
1691758658982011,0.10713106,0.33525637,-0.01807070,10.22779942
1691758658986084,-0.00045847,-0.06258268,-0.00660773,10.83651352
1691758658989464,-0.01974165,-0.03392490,-0.00714404,10.51849747
1691758658995811,-0.01790931,0.01574372,-0.00816496,10.61466599
1691758658997531,0.03091092,0.06362993,-0.00951630,10.38448811
1691758659000173,0.04817453,0.10392461,-0.01042242,10.66652584
1691758659004199,-0.04051378,0.04233782,-0.00836044,10.79657459
1691758659007765,-0.01773599,-0.06504196,-0.00603263,10.64204788
1691758659011814,0.01102467,-0.02854256,-0.00643388,10.39042377
1691758659020878,0.00221236,-0.00011293,-0.00673620,10.46940804
1691758659021022,0.00503031,0.07610365,-0.00846339,10.33326340
1691758659022531,-0.02033379,-0.08855242,-0.00448891,10.91570854
1691758659032868,0.02666437,-0.02916381,-0.00541742,10.65685654
1691758659033073,0.00675667,0.04528420,-0.00692736,10.46757126
1691758659033917,-0.00723294,0.05992845,-0.00729893,10.33292198
1691758659036516,-0.00282151,-0.10752469,-0.00341975,10.80785751
1691758659040631,0.01501098,0.01627372,-0.00598820,10.45154285
1691758659045027,-0.01074336,0.06143882,-0.00671355,10.59037399
1691758659048490,0.02658559,0.11512434,-0.00814855,10.27772331
1691758659051153,0.01626111,-0.04185922,-0.00421834,10.72169685
1691758659054878,0.00795943,0.03126282,-0.00576287,10.45021343
1691758659058725,-0.01729719,0.04449984,-0.00586882,10.33599281
1691758659062592,0.05129921,0.10040292,-0.00759441,10.43046665
1691758659066595,-0.00635842,-0.08857519,-0.00294527,10.78967381
1691758659069293,-0.01182552,-0.04546869,-0.00383710,10.26733780
1691758659073095,-0.02336387,0.02343795,-0.00521262,10.35812473
1691758659076626,-0.02248456,0.02588898,-0.00518632,10.45676041
1691758659081357,0.03696873,0.07011422,-0.00639252,10.13068390
1691758659084775,-0.00910236,-0.10492929,-0.00193964,10.56087017
1691758659087617,-0.01482449,0.05311264,-0.00523288,10.39704514
1691758659091069,-0.00245994,0.04227961,-0.00499914,10.35113525
1691758659094766,0.02509987,0.03619916,-0.00481915,10.20251179
1691758659098651,-0.02135274,0.05925239,-0.00498877,10.61895561
1691758659102665,0.00140422,-0.03288858,-0.00297411,10.48624134
1691758659107562,0.01482526,-0.04941769,-0.00245249,10.13924789
1691758659109271,0.03034371,-0.01435334,-0.00326395,10.48966312
1691758659113743,0.00025631,0.04825054,-0.00474411,10.38376522
1691758659116666,0.09558528,0.29850003,-0.01342779,10.04554272
1691758659120800,-0.01723240,-0.10185140,-0.00212483,10.58150196
1691758659125580,-0.00448475,-0.04605431,-0.00326999,10.43315411
1691758659128289,-0.03087415,-0.05551124,-0.00310631,10.24903965
1691758659131614,-0.01456388,-0.00457544,-0.00411659,10.27654457
1691758659136041,0.01554636,0.00839887,-0.00444017,10.27334595
1691758659138466,0.06923324,0.24639018,-0.01211602,10.15071011
1691758659142155,-0.08350973,-0.13029929,-0.00273926,10.67782784
1691758659146506,-0.04245304,-0.07242635,-0.00350008,10.37170410
1691758659149544,-0.00534452,-0.04947976,-0.00373318,10.47747135
1691758659154628,0.00667106,0.02512195,-0.00546385,10.25064182
1691758659157466,-0.05331796,-0.10924960,-0.00267592,10.56090260
1691758659160213,-0.00354396,-0.01004838,-0.00445824,10.47413349
1691758659163787,0.00347347,-0.00807729,-0.00447813,10.52893639
1691758659167676,0.00678929,0.02126323,-0.00520170,10.31992531
1691758659171777,-0.04512342,-0.12986378,-0.00210883,10.55797386
1691758659175638,-0.00356410,-0.06087835,-0.00324188,10.23662090
1691758659178317,-0.00241658,-0.00078040,-0.00464447,10.33572865
1691758659182092,-0.01506585,0.00580890,-0.00481294,10.17565250
1691758659185795,0.07197022,0.27479440,-0.01295557,10.08233356
1691758659189760,-0.07117166,-0.12212019,-0.00280851,10.67726707
1691758659193689,-0.03900906,-0.07316163,-0.00341642,10.36647320
1691758659196530,-0.03068516,-0.00621909,-0.00473417,10.45306587
1691758659200712,-0.03129065,-0.02438968,-0.00438225,10.35550976
1691758659204866,0.05585793,0.24501444,-0.01227617,10.21827507
1691758659207482,-0.04226527,-0.10888140,-0.00316838,10.62483788
1691758659211213,-0.03852674,-0.07115909,-0.00388526,10.46994019
1691758659214993,-0.02562748,-0.07576080,-0.00384624,10.34677219
1691758659219145,0.02317862,-0.02509391,-0.00505596,10.22533226
1691758659222687,-0.04103149,-0.03860872,-0.00499835,10.63117695
1691758659228624,-0.04115129,-0.09141065,-0.00390230,10.37731647
1691758659229470,-0.01888832,-0.01101898,-0.00560188,10.31595612
1691758659233428,-0.00976513,-0.01289405,-0.00572429,10.20649147
1691758659237098,0.03739063,0.04948312,-0.00744323,9.90190029
1691758659240680,-0.03904352,-0.07148027,-0.00464485,10.51339626
1691758659244775,-0.02580491,0.01311650,-0.00633843,10.51815701
1691758659247894,-0.02173439,0.00439097,-0.00602284,10.23458862
1691758659253746,-0.00499828,-0.00521394,-0.00568464,10.32005978
1691758659255260,0.01157909,0.06447493,-0.00749409,10.13502121
1691758659259079,-0.05609427,-0.12408191,-0.00354939,10.58505821
1691758659262653,-0.01772400,-0.01635836,-0.00517449,10.53584766
1691758659266594,-0.00216756,0.02698034,-0.00587369,10.39043999
1691758659269200,-0.01062520,0.01036559,-0.00553863,10.41233730
1691758659272895,0.03892147,0.02491583,-0.00625282,10.13539982
1691758659279357,0.13356727,0.24831973,-0.01438506,9.96907043
1691758659280878,-0.05560017,-0.09698605,-0.00452407,10.69997215
1691758659284744,-0.05273313,-0.05435938,-0.00550230,10.49662876
1691758659287913,-0.02279028,-0.03147675,-0.00591182,10.45018673
1691758659292361,-0.01114916,-0.00232843,-0.00649004,10.22177124
1691758659294669,0.09769688,0.27891004,-0.01529825,9.83559608
1691758659300927,-0.05374053,-0.07608591,-0.00577173,10.63068581
1691758659302696,-0.03087041,-0.05562048,-0.00599818,10.55853271
1691758659305599,-0.03725092,-0.01683116,-0.00661565,10.55090046
1691758659309813,0.05882341,0.25087702,-0.01389810,10.13236237
1691758659313823,-0.00458626,0.22601542,-0.01285455,10.61447811
1691758659316577,-0.04167585,-0.25587866,-0.00324893,10.46257019
1691758659320245,-0.04050095,-0.10918981,-0.00573882,10.45573330
1691758659324754,-0.02255686,-0.03306757,-0.00704399,10.43452168
1691758659328581,0.00479063,-0.01152197,-0.00744250,10.48142910
1691758659337405,0.00627350,0.00175706,-0.00764272,10.37673950
1691758659337634,0.04305339,0.09954684,-0.01005391,10.00962830
1691758659338926,-0.01720394,-0.03011993,-0.00708260,10.55928516
1691758659342615,0.00640393,-0.03092592,-0.00699997,10.62175655
1691758659345930,0.02688889,0.03993528,-0.00855820,10.18582821
1691758659349900,-0.03948756,-0.10609658,-0.00562537,10.62282848
1691758659353968,-0.02122236,0.01234411,-0.00769008,10.60649300
1691758659356723,0.01126060,0.02731401,-0.00782083,10.52048397
1691758659360245,0.00581558,0.01913817,-0.00754599,10.48706150
1691758659364240,0.01304372,0.03989892,-0.00804863,10.37578583
1691758659367589,0.07048938,0.07202850,-0.00927697,10.22142982
1691758659371049,-0.01195179,-0.04655861,-0.00636602,10.76837063
1691758659374774,-0.01695489,0.02797481,-0.00778957,10.62814140
1691758659378261,0.00819198,0.03261817,-0.00801584,10.51468372
1691758659386569,0.03407355,0.02402916,-0.00787335,10.28721905
1691758659386696,0.10479522,0.30556366,-0.01650902,10.07057571
1691758659389841,-0.05313386,-0.05923458,-0.00647823,10.82275009
1691758659393442,-0.03009715,-0.03743494,-0.00669269,10.54214382
1691758659396598,0.01303585,0.00873018,-0.00744009,10.53571320
1691758659400218,0.00373459,0.04926364,-0.00817659,10.30838680
1691758659405326,0.11242118,0.30489981,-0.01657241,9.96462345
1691758659407676,-0.01553378,-0.03209898,-0.00702270,10.77625370
1691758659411221,-0.00090001,-0.03408823,-0.00680064,10.68935299
1691758659417565,0.00064628,0.01801128,-0.00781193,10.35593033
1691758659418784,-0.02218641,-0.02270441,-0.00701171,10.60196972
1691758659422973,0.00315956,-0.04237805,-0.00651612,10.54462528
1691758659426337,0.02465897,0.00608086,-0.00744215,10.50659370
1691758659429440,-0.01806743,0.03887316,-0.00800674,10.42893219
1691758659433031,0.10608932,0.33743000,-0.01728054,10.02884483
1691758659436924,-0.00990807,-0.06569625,-0.00624755,10.56462193
1691758659441278,-0.00097613,-0.04497834,-0.00651530,10.44607449
1691758659444712,-0.02121249,0.02460563,-0.00774140,10.37381935
1691758659447936,0.12294783,0.30184227,-0.01647636,9.97961426
1691758659451190,-0.00650153,-0.05008198,-0.00624376,10.65284443
1691758659455009,-0.00252277,-0.04652558,-0.00613455,10.46987915
1691758659459666,-0.02062549,-0.00729317,-0.00673266,10.26448631
1691758659463033,-0.02091711,0.03274801,-0.00713620,10.56096458
1691758659465874,0.01189130,-0.08670982,-0.00444247,10.52836895
1691758659469408,0.01121237,-0.00595624,-0.00590359,10.29281425
1691758659472890,-0.00278171,0.04977747,-0.00687605,10.27520084
1691758659477029,0.01527417,0.05336579,-0.00692615,10.53672695
1691758659481028,0.06632160,0.06982183,-0.00744846,10.23158646
1691758659484002,-0.01388923,-0.02018473,-0.00492160,10.51712227
1691758659487526,-0.01019152,0.08335979,-0.00672375,10.28719902
1691758659492663,0.02259655,0.05612403,-0.00613170,10.31114578
1691758659495341,0.12609492,0.34607613,-0.01560489,9.98635864
1691758659498896,-0.03783538,0.07109923,-0.00621751,10.59468842
1691758659502871,-0.02334403,-0.05198736,-0.00375557,10.50393009
1691758659505838,0.00559315,-0.00676745,-0.00433710,10.25450134
1691758659509367,0.03293431,-0.00605759,-0.00413174,10.28527451
1691758659512876,-0.00778732,0.03198943,-0.00457751,10.28933811
1691758659517127,0.01636519,0.06257740,-0.00491730,10.29997253
1691758659522831,0.12116709,0.30752912,-0.01325925,10.12221527
1691758659525341,-0.02559297,-0.04822673,-0.00266160,10.65047646
1691758659527898,-0.01894455,-0.00515703,-0.00288674,10.50050259
1691758659532098,-0.00434168,-0.01344085,-0.00249436,10.33216000
1691758659534786,0.10815430,0.24800056,-0.01073023,10.09649277
1691758659540832,0.01690315,0.20196676,-0.00860252,10.50213337
1691758659542612,-0.06121445,-0.16961960,-0.00103917,10.67634583
1691758659545937,-0.01379263,-0.15076827,-0.00032968,10.48703003
1691758659550160,0.00160084,-0.06759831,-0.00157342,10.48012161
1691758659552704,0.00274084,-0.03853292,-0.00179432,10.36327076
1691758659557057,-0.00670527,0.00601705,-0.00236641,10.40397358
1691758659561456,0.06553989,0.07048957,-0.00410065,10.20294189
1691758659563783,-0.00751903,-0.04852701,-0.00082099,10.56374264
1691758659568170,-0.01918505,0.00069500,-0.00147461,10.58709049
1691758659572003,0.14199483,0.28074953,-0.01130419,7.89644957
1691758659574943,-0.00737600,-0.18583785,0.00235283,8.35058308
1691758659578292,-0.00740551,-0.05968925,-0.00012284,8.10242271
1691758659582022,0.01874926,-0.00899788,-0.00086985,8.05927467
1691758659586918,0.02074287,-0.01877593,-0.00054064,7.97699070
1691758659589943,0.13427994,0.32551238,-0.01287559,7.79344988
1691758659593342,0.04406634,0.23850167,-0.00878834,8.04289818
1691758659596932,-0.01515548,-0.26912192,0.00329497,8.03622627
1691758659608262,-0.02311566,-0.16259363,0.00106503,8.11492825
1691758659608899,-0.00669763,-0.19608906,0.00225967,8.23332214
1691758659609142,0.07039628,-0.00290982,-0.00188074,7.74368715
1691758659612755,0.00734069,-0.04943292,-0.00070586,8.18401718
1691758659615103,0.01472995,-0.02786464,-0.00107734,8.40772533
1691758659619051,0.01052788,0.00127798,-0.00159795,8.46331501
1691758659623485,0.01386643,-0.02941348,-0.00073327,8.49163914
1691758659625645,0.01375076,0.02068008,-0.00180762,8.52350903
1691758659629330,-0.00845055,-0.01634768,-0.00088250,8.57842350
1691758659633025,-0.00809119,-0.07107072,0.00059809,8.78609562
1691758659637017,-0.02015635,0.00567189,-0.00096914,8.87102604
1691758659641077,0.01107456,0.01076469,-0.00080494,8.78309631
1691758659644413,0.00704375,-0.03143216,0.00050698,8.97872257
1691758659650144,0.00435329,-0.04308221,0.00122411,8.98218155
1691758659651080,-0.00866215,-0.03451909,0.00142225,9.03871727
1691758659654995,-0.01635356,-0.08183188,0.00319431,9.16915035
1691758659659008,-0.01896583,-0.01238075,0.00191442,9.18933105
1691758659661910,0.08447334,0.13724615,-0.00303904,9.05062199
1691758659666487,-0.00066859,0.01980741,0.00072949,9.28963184
1691758659669354,-0.01888797,-0.01401705,0.00172686,9.43887043
1691758659673118,-0.02401731,-0.01777133,0.00199712,9.54296875
1691758659677240,-0.02951491,-0.01696140,0.00212797,9.60192871
1691758659680334,-0.03153789,-0.02974582,0.00260067,9.67550564
1691758659684056,-0.03562719,-0.01933018,0.00258406,9.74636364
1691758659688175,-0.03652441,-0.01524475,0.00267762,9.76495361
1691758659691067,-0.03443466,-0.01716583,0.00283934,9.80202770
1691758659694663,-0.02992436,-0.01687345,0.00297865,9.82680607
1691758659698440,-0.03697127,-0.01828180,0.00313336,9.83939075
1691758659702222,-0.02988357,-0.01155547,0.00309234,9.83735466
1691758659706347,0.00628326,0.06443998,0.00095309,9.79644108
1691758659710195,-0.02106346,0.07557930,0.00062011,9.88963890
1691758659712871,-0.03854159,-0.03225194,0.00315146,9.94990158
1691758659718226,-0.03924200,-0.03722223,0.00336110,9.97234535
1691758659720245,-0.04144724,-0.03428252,0.00346053,9.98730564
1691758659724424,-0.04330727,-0.02989817,0.00341436,10.00109291
1691758659728108,-0.04262547,-0.02709841,0.00343614,10.02002716
1691758659731224,-0.04235565,-0.02702644,0.00358932,10.02960682
1691758659736195,-0.04557066,-0.02428024,0.00353297,10.03592396
1691758659739117,-0.01059764,0.04064833,0.00169300,10.05611610
1691758659741963,-0.03783092,-0.05280895,0.00402733,10.12519264
1691758659747121,-0.04396291,-0.03047356,0.00361432,10.10580063
1691758659750330,-0.04195865,-0.02678925,0.00357902,10.12743187
1691758659752837,-0.03645490,-0.03306299,0.00373313,10.15281487
1691758659756560,-0.03781101,-0.02517725,0.00358058,10.12986183
1691758659760211,-0.00551652,0.05122650,0.00137632,10.15261364
1691758659764386,-0.03913404,-0.05462371,0.00381628,10.24399948
1691758659768354,-0.03826427,-0.04126610,0.00359301,10.27635956
1691758659772819,-0.04147739,-0.02811296,0.00335149,10.27687836
1691758659774727,-0.04348522,-0.02542484,0.00325450,10.26795387
1691758659779370,-0.03151906,-0.02078840,0.00307105,10.22422028
1691758659782252,-0.02409981,0.08600574,0.00035782,10.35217094
1691758659786211,-0.05362743,-0.02775733,0.00298895,10.36362362
1691758659790138,-0.04667614,-0.02429910,0.00299855,10.33978558
1691758659792855,-0.03338277,-0.01783897,0.00295959,10.35415268
1691758659796709,-0.03590192,-0.00940557,0.00274222,10.27261353
1691758659800329,-0.04781082,-0.00978813,0.00276588,10.32843208
1691758659804325,-0.03894774,-0.02622447,0.00329879,10.37752628
1691758659808279,-0.03187013,-0.02326340,0.00340690,10.36463833
1691758659811293,-0.03508644,-0.00303817,0.00311468,10.35092926
1691758659815215,-0.03168854,-0.00103860,0.00302780,10.26877499
1691758659819333,-0.03992618,-0.06366780,0.00461462,10.37308311
1691758659822039,-0.03138503,-0.01691290,0.00385927,10.33297062
1691758659825724,-0.03620049,-0.00507839,0.00388833,10.34689617
1691758659829238,-0.03260154,0.00356548,0.00378355,10.31658268
1691758659833305,0.01539609,0.07967677,0.00165043,10.30235481
1691758659837180,-0.02650661,-0.02737068,0.00435365,10.35571194
1691758659841185,-0.03442793,-0.01211583,0.00405438,10.31393337
1691758659843897,-0.02526082,-0.00865364,0.00398367,10.37078953
1691758659847751,0.01019011,0.06855095,0.00189780,10.35495090
1691758659851636,-0.03737304,-0.04929278,0.00462804,10.42649174
1691758659855375,-0.03160494,-0.02020529,0.00407789,10.31819344
1691758659859371,-0.02127826,-0.01233076,0.00391759,10.30906487
1691758659862221,-0.01470870,-0.01164480,0.00398243,10.29705143
1691758659865949,0.00782508,0.08316601,0.00129683,10.28731632
1691758659869271,-0.02487164,-0.03798389,0.00418325,10.30857754
1691758659873180,-0.01753486,-0.01753100,0.00388863,10.26103592
1691758659877369,-0.01268521,-0.01014430,0.00374058,10.26655293
1691758659881133,-0.01346180,0.00309485,0.00359452,10.25667191
1691758659883987,-0.02207656,0.00592940,0.00343898,10.29960155
1691758659887747,-0.01104096,-0.01368191,0.00380548,10.29466915
1691758659891422,-0.00519392,-0.00702456,0.00376037,10.27083588
1691758659895268,-0.00937287,0.00194283,0.00358086,10.26138306
1691758659899344,-0.00075646,0.00506213,0.00337396,10.23144817
1691758659904230,-0.00184388,-0.04082435,0.00465851,10.35359669
1691758659906926,0.00199384,-0.00818800,0.00403425,10.30010796
1691758659911402,0.00150338,-0.00310636,0.00389101,10.26847553
1691758659914505,0.00571844,-0.00186354,0.00383109,10.25084591
1691758659917432,0.05020462,0.07129042,0.00160465,10.25852966
1691758659920056,0.00671636,-0.02610448,0.00374415,10.30939293
1691758659924626,0.00257449,-0.00536763,0.00330545,10.25936222
1691758659927547,0.01139021,-0.00581324,0.00320912,10.25759506
1691758659933913,0.01053880,0.00022961,0.00294681,10.23177052
1691758659934790,0.01230845,0.01317859,0.00255357,10.19884014
1691758659938323,0.00598939,-0.02496875,0.00355698,10.30383778
1691758659942364,0.01532360,0.00103547,0.00302257,10.27020931
1691758659946433,0.01874817,0.00771538,0.00288430,10.26410866
1691758659954087,0.01523307,0.01321684,0.00281903,10.23736286
1691758659954230,0.02435938,0.02259303,0.00248521,10.21418381
1691758659956670,0.02566029,-0.01884195,0.00343874,10.30632114
1691758659960348,0.02543144,0.01054133,0.00293187,10.28085327
1691758659964465,0.02522897,0.02431368,0.00263954,10.29312038
1691758659968405,0.02880438,0.01067897,0.00292354,10.25623798
1691758659971047,0.04153179,0.02274050,0.00257107,10.22467518
1691758659974890,0.02703543,-0.01107162,0.00334774,10.28090382
1691758659978383,0.02872198,0.01124291,0.00304236,10.27946663
1691758659982381,0.03821710,0.01983131,0.00286141,10.28361702
1691758659987332,0.03797042,0.02237887,0.00276896,10.27504921
1691758659990252,0.04297250,0.02822757,0.00257423,10.22724915
1691758659992858,0.03348347,-0.01357406,0.00352398,10.29908943
1691758659996582,0.04029077,0.00575085,0.00313080,10.28653526
1691758660000660,0.04820951,0.02473955,0.00273499,10.32105446
1691758660004425,0.04355819,0.03300974,0.00258979,10.31237888
1691758660008523,0.04752872,0.03073080,0.00254602,10.26238060
1691758660010943,0.04421718,-0.01975225,0.00364782,10.32956696
1691758660014752,0.04787807,0.00006843,0.00325263,10.30533695
1691758660018500,0.04631224,0.01391328,0.00294663,10.30573750
1691758660022668,0.05222305,0.02082777,0.00272255,10.31531906
1691758660026433,0.05742217,0.01937350,0.00241350,10.25810623
1691758660030243,0.04404088,0.02198712,0.00216473,10.28463078
1691758660032864,0.04489120,0.00828910,0.00234336,10.28177357
1691758660036560,0.05798564,0.02198391,0.00188298,10.33972073
1691758660042401,0.05496166,0.02856542,0.00152659,10.32335949
1691758660044770,0.05517622,0.03334523,0.00118276,10.27101135
1691758660047541,0.04493263,-0.01997974,0.00236266,10.33479691
1691758660057059,0.04838064,0.00940852,0.00157898,10.30228233
1691758660057181,0.05561835,0.03312700,0.00095240,10.34386635
1691758660060196,0.04873941,0.03053519,0.00103551,10.31916714
1691758660062449,0.09736816,0.12244538,-0.00242652,10.31697655
1691758660067262,0.04536993,-0.00929786,0.00085158,10.31525135
1691758660072235,0.03462128,0.01101910,0.00033396,10.26836586
1691758660073589,0.03761214,0.01659243,0.00015661,10.27626228
1691758660077596,0.03940664,0.01490842,0.00011297,10.28055668
1691758660080889,0.08940024,0.10442126,-0.00351004,10.28490257
1691758660083936,0.06892911,0.12445524,-0.00493841,10.32270241
1691758660087530,0.03144001,-0.00004742,-0.00192741,10.28525448
1691758660091655,0.02856625,-0.00499561,-0.00190561,10.26279926
1691758660095447,0.03502631,-0.00267748,-0.00209533,10.31028366
1691758660100191,0.06102756,0.06835679,-0.00464872,10.31949139
1691758660102510,0.06315433,0.06324562,-0.00562189,10.26656437
1691758660106534,0.03061233,-0.03517238,-0.00326211,10.33497620
1691758660109298,0.02031324,-0.01325993,-0.00390587,10.32797337
1691758660113682,0.02056376,-0.01687874,-0.00365180,10.34859562
1691758660117832,0.02273198,-0.01659111,-0.00360044,10.32814121
1691758660120049,0.06506027,0.06679100,-0.00718531,10.32181549
1691758660123787,0.02381149,-0.04188788,-0.00436017,10.37994766
1691758660127606,0.01331397,-0.04327148,-0.00431965,10.34200573
1691758660131629,0.01235198,-0.03497370,-0.00458616,10.32843685
1691758660135490,0.01264274,-0.02045762,-0.00525991,10.29401302
1691758660139388,0.00794208,-0.08228765,-0.00352826,10.43154907
1691758660142074,0.00442988,-0.03629364,-0.00444842,10.35940933
1691758660145669,0.00451491,-0.03033504,-0.00466907,10.35174084
1691758660149770,0.00564320,-0.02098961,-0.00517861,10.32677841
1691758660155034,-0.00052455,-0.02513377,-0.00501346,10.36637688
1691758660157506,-0.00374501,-0.03658040,-0.00451602,10.36565399
1691758660160392,-0.00233695,-0.01224215,-0.00519092,10.38889599
1691758660163716,-0.00341047,-0.01179198,-0.00521009,10.38014507
1691758660167385,-0.00196671,-0.00565833,-0.00528827,10.32172680
1691758660171588,-0.01561714,-0.04940106,-0.00407709,10.37161732
1691758660175592,-0.01411695,-0.01818782,-0.00483571,10.34194469
1691758660178337,-0.00498289,-0.01446515,-0.00479284,10.37567902
1691758660181959,-0.01029191,-0.00614818,-0.00493645,10.32566547
1691758660185654,0.03209302,0.09110638,-0.00864235,10.31123543
1691758660189342,-0.01310521,-0.01199807,-0.00587387,10.32428646
1691758660192851,-0.01625548,-0.02124837,-0.00564107,10.33163548
1691758660196713,-0.02243527,-0.01703226,-0.00570758,10.33874607
1691758660206316,0.00887852,0.06123934,-0.00829838,10.32869434
1691758660206912,-0.02263949,-0.03912953,-0.00577023,10.37894249
1691758660207372,-0.01631883,-0.03940513,-0.00563598,10.35109043
1691758660211989,-0.02366401,-0.03009021,-0.00579859,10.34138393
1691758660215654,-0.02853711,-0.02359222,-0.00601001,10.31871510
1691758660218561,0.01457634,0.04520449,-0.00862649,10.32581234
1691758660222763,-0.02219851,-0.04153789,-0.00630683,10.37586021
1691758660226617,-0.03278400,-0.03026182,-0.00659264,10.33724880
1691758660229226,-0.03660944,-0.02572652,-0.00678590,10.30766201
1691758660232975,-0.03254791,-0.01818069,-0.00701281,10.27194214
1691758660236709,-0.03316944,-0.07458850,-0.00514135,10.37440681
1691758660240680,-0.04277791,-0.02373795,-0.00631621,10.29820061
1691758660244527,-0.03920301,-0.01785477,-0.00638916,10.28471375
1691758660247417,-0.03566635,-0.01635464,-0.00625240,10.27014637
1691758660252126,-0.00265253,0.05136011,-0.00829313,10.25182343
1691758660254680,-0.03967844,-0.01662969,-0.00638577,10.29041290
1691758660260269,-0.04054777,-0.01744646,-0.00626840,10.29685688
1691758660262580,-0.03311473,-0.01523474,-0.00621097,10.30088043
1691758660266720,-0.03773511,-0.01012701,-0.00622710,10.26288891
1691758660269520,-0.04322110,-0.01258260,-0.00606929,10.28275299
1691758660272931,-0.03707849,-0.02526162,-0.00569284,10.30095100
1691758660276850,-0.02893344,-0.01675828,-0.00564172,10.31572628
1691758660280600,-0.03785819,-0.00672960,-0.00571580,10.28690052
1691758660284713,-0.03914057,-0.00143332,-0.00592447,10.25201225
1691758660288092,-0.03410921,-0.04245191,-0.00440960,10.30316257
1691758660293884,-0.03363171,-0.01508349,-0.00476498,10.27368355
1691758660294623,-0.03636372,-0.01189849,-0.00471702,10.27486229
1691758660298723,-0.03380580,-0.00638954,-0.00477969,10.27567005
1691758660302807,0.01049989,0.05618734,-0.00680566,10.27003956
1691758660306702,-0.02721954,-0.03287601,-0.00411775,10.29480076
1691758660309216,-0.03652824,-0.00898332,-0.00467508,10.26426983
1691758660314125,-0.03148912,-0.00762439,-0.00466053,10.27051163
1691758660320808,-0.02536994,-0.00780301,-0.00460390,10.27795696
1691758660320938,0.00571446,0.06911722,-0.00702607,10.26107693
1691758660324711,-0.03170069,-0.01591513,-0.00456926,10.29048061
1691758660327386,-0.03216345,-0.00383942,-0.00475851,10.26694679
1691758660331017,-0.02881041,-0.00057958,-0.00476319,10.26847649
1691758660334733,-0.03427062,0.00678549,-0.00482045,10.25035763
1691758660338764,0.00184808,0.07883561,-0.00712495,10.25016308
1691758660343557,-0.02641459,-0.00702281,-0.00472838,10.28628254
1691758660346686,-0.03096768,0.00355679,-0.00476367,10.25280476
1691758660350512,-0.03404756,0.00938834,-0.00479119,10.24544811
1691758660352814,-0.03217537,0.00920815,-0.00475970,10.23826790
1691758660356853,0.01140664,0.06855048,-0.00655903,10.24355888
1691758660361213,-0.02335486,0.00150488,-0.00459159,10.27833748
1691758660364800,-0.02982949,0.01133543,-0.00462194,10.25648403
1691758660368797,-0.02344473,0.00632932,-0.00439076,10.26772785
1691758660371001,-0.02131554,0.01001554,-0.00442184,10.25506020
1691758660375382,-0.01868717,0.01856547,-0.00462703,10.24180603
1691758660378589,-0.02276332,-0.01244441,-0.00331926,10.30648136
1691758660383272,-0.01964927,0.00799240,-0.00362333,10.28299618
1691758660386871,-0.01579406,0.01049337,-0.00355891,10.27619648
1691758660389843,-0.01828420,0.01662266,-0.00354052,10.25838852
1691758660393732,0.02813853,0.09782419,-0.00606249,10.24194717
1691758660396477,-0.00884951,0.01103070,-0.00366314,10.28574848
1691758660400199,-0.01383686,0.01590139,-0.00356318,10.26488113
1691758660404167,-0.01558174,0.01890624,-0.00356001,10.26615620
1691758660407872,-0.01301033,0.01648588,-0.00346699,10.24858761
1691758660411772,0.04049702,0.09266053,-0.00591436,10.23784065
1691758660415596,-0.00548529,0.01202013,-0.00370992,10.27304935
1691758660418321,-0.01250930,0.01382675,-0.00354964,10.27635956
1691758660422859,-0.00515350,0.01645794,-0.00343046,10.28371048
1691758660425834,-0.00369905,0.01863343,-0.00354172,10.27534294
1691758660429699,0.03295025,0.09129938,-0.00577906,10.27009201
1691758660433895,0.00142618,0.00327529,-0.00338184,10.30423260
1691758660436527,-0.00158437,0.00688488,-0.00352882,10.29619217
1691758660441128,0.00261955,0.01065483,-0.00365953,10.30950642
1691758660443746,0.00058613,0.01585744,-0.00376581,10.28472042
1691758660447950,0.03725321,0.07351770,-0.00566181,10.27336121
1691758660452696,0.00516067,-0.02532656,-0.00340003,10.32316208
1691758660454530,0.00048028,0.00424057,-0.00400277,10.27981853
1691758660458870,0.00114927,0.01233385,-0.00417407,10.29206944
1691758660464026,0.00417295,0.00994809,-0.00419169,10.29910374
1691758660465657,0.04472606,0.08834075,-0.00689796,10.30643082
1691758660469845,0.00534574,-0.00958418,-0.00462581,10.32350159
1691758660473829,0.00135116,0.00795663,-0.00503710,10.29984283
1691758660478080,0.00789077,0.00790185,-0.00509589,10.29755211
1691758660480607,0.01068464,0.01614615,-0.00537564,10.30258751
1691758660483937,0.05803943,0.10753757,-0.00845068,10.30299950
1691758660487941,0.01024503,0.01167166,-0.00587229,10.31609344
1691758660491826,0.00858961,0.00685297,-0.00589225,10.29685593
1691758660496641,0.01149002,0.01211517,-0.00608268,10.30174923
1691758660499617,0.00872866,0.01532465,-0.00614154,10.27967167
1691758660503403,0.06103876,0.10056192,-0.00892446,10.29177475
1691758660505906,0.01671933,0.00346124,-0.00649520,10.31780243
1691758660509262,0.01175269,0.00744309,-0.00653930,10.29066277
1691758660512837,0.01295208,0.01349867,-0.00657911,10.29961395
1691758660516989,0.01284914,0.01188784,-0.00659207,10.27197552
1691758660521714,0.04820377,0.13606289,-0.01057639,10.37033653
1691758660524707,0.02275150,0.01499756,-0.00761677,10.31096554
1691758660527399,0.01478401,0.00264487,-0.00723175,10.29284191
1691758660531104,0.01843090,0.00390921,-0.00721806,10.29140854
1691758660535013,0.02899346,0.01548762,-0.00756155,10.27511406
1691758660539425,0.02583736,-0.03302378,-0.00615663,10.33859634
1691758660543082,0.01865431,-0.00315660,-0.00648582,10.30514145
1691758660545538,0.01971111,0.00201246,-0.00645395,10.29125214
1691758660549431,0.02483479,0.00619091,-0.00644998,10.29157066
1691758660552921,0.02971971,0.00954913,-0.00636545,10.26306915
1691758660556890,0.02280065,-0.02166426,-0.00520811,10.29154778
1691758660560985,0.02397328,0.00141316,-0.00556973,10.28841114
1691758660563725,0.03241481,0.00816745,-0.00540899,10.29014492
1691758660568233,0.03655583,0.00518796,-0.00511164,10.27504444
1691758660572022,0.10703010,0.11907014,-0.00932023,10.23658466
1691758660574696,0.03328242,0.00468578,-0.00598670,10.27212238
1691758660578315,0.03663457,-0.00424463,-0.00560160,10.29166317
1691758660582655,0.02683764,-0.00387330,-0.00546594,10.30035305
1691758660585939,0.06432410,0.07316433,-0.00823396,10.29634571
1691758660590077,0.03072805,-0.04136785,-0.00534092,10.32735538
1691758660593904,0.02350782,-0.01949584,-0.00571891,10.29409695
1691758660596524,0.01762133,-0.00961687,-0.00579996,10.28082561
1691758660600601,0.01576679,-0.00749657,-0.00580855,10.28026009
1691758660605870,0.07489440,0.07500929,-0.00881565,10.27639008
1691758660608830,0.02704783,-0.02572023,-0.00597154,10.30359936
